{
  "city": "gaziantep",
  "cityName": "Gaziantep",
  "cityId": 27,
  "date": "2026-03-06",
  "updatedAt": "2026-03-06T14:00:08.358Z",
  "count": 21,
  "pharmacies": [
    {
      "id": "gaziantep-0",
      "name": "GÖKÇE AĞAR ECZANESİ",
      "address": "Ünaldı mahallesi hasip dürri caddesi no 48/a",
      "phone": "03422257781",
      "district": "Şahi̇nbey",
      "city": "Gaziantep",
      "latitude": 37.022447,
      "longitude": 37.338689,
      "dutyStart": "2026-03-06T08:30:00.000Z",
      "dutyEnd": "2026-03-07T08:30:00.000Z"
    },
    {
      "id": "gaziantep-1",
      "name": "BERFİN ECZANESİ",
      "address": "Gümüştekin mahallesi 14011 nolu sok no:38/A (19 Mayıs Lisesi Civarı-Cumhuriyet Sağlık Ocağı Yanı)",
      "phone": "05067959241",
      "district": "Şahi̇nbey",
      "city": "Gaziantep",
      "latitude": 37.052997,
      "longitude": 37.362407,
      "dutyStart": "2026-03-06T08:30:00.000Z",
      "dutyEnd": "2026-03-07T08:30:00.000Z"
    },
    {
      "id": "gaziantep-2",
      "name": "İREM ECZANESİ",
      "address": "Kıbrıs mahallesi Özdemirbey Caddesi Akasya konutları B blok No:30BC (Düztepe Yaşam Hastanesi Çaprazı-A101 yanı) Şahinbey /Gaziantep",
      "phone": "05330529927",
      "district": "Şahi̇nbey",
      "city": "Gaziantep",
      "latitude": 37.06675232813354,
      "longitude": 37.38321304321289,
      "dutyStart": "2026-03-06T08:30:00.000Z",
      "dutyEnd": "2026-03-07T08:30:00.000Z"
    },
    {
      "id": "gaziantep-3",
      "name": "SEVİLAY FEDAYİ ECZANESİ",
      "address": "Binevler Mahallesi 14 Nolu Cadde No:33 ( Binevler Sağlık ocağı karşısı )",
      "phone": "03423353035",
      "district": "Şahi̇nbey",
      "city": "Gaziantep",
      "latitude": 37.057698,
      "longitude": 37.3335441,
      "dutyStart": "2026-03-06T08:30:00.000Z",
      "dutyEnd": "2026-03-07T08:30:00.000Z"
    },
    {
      "id": "gaziantep-4",
      "name": "TANRITANIR ECZANESI",
      "address": "ŞEHİR HASTANESİ POLIKLINIKLER KAPISI KARŞISI İBNİ SİNA MAH. 190011 NOLU CAD. NO:5AF ŞAHİNBEY GAZİANTEP",
      "phone": "03422515575",
      "district": "Şahi̇nbey",
      "city": "Gaziantep",
      "latitude": 37.057209,
      "longitude": 37.376747,
      "dutyStart": "2026-03-06T08:30:00.000Z",
      "dutyEnd": "2026-03-07T08:30:00.000Z"
    },
    {
      "id": "gaziantep-5",
      "name": "DENİZ TİRYAKİ ECZANESİ",
      "address": "Şahintepe Mah. 133380 Nolu Sok.No:2 B/C (Oska hamamı-Mediantep Tıp Merkezi Karşısı)",
      "phone": "05312872040",
      "district": "Şahi̇nbey",
      "city": "Gaziantep",
      "latitude": 37.026493,
      "longitude": 37.351314,
      "dutyStart": "2026-03-06T08:30:00.000Z",
      "dutyEnd": "2026-03-07T08:30:00.000Z"
    },
    {
      "id": "gaziantep-6",
      "name": "LEMAN ECZANESİ",
      "address": "23 Nisan Mahallesi Üniversite Bul.No:317/C ( Gaziantep Tıp Fakültesi Karşısı )",
      "phone": "03423604643",
      "district": "Şahi̇nbey",
      "city": "Gaziantep",
      "latitude": 37.04089,
      "longitude": 37.322346,
      "dutyStart": "2026-03-06T08:30:00.000Z",
      "dutyEnd": "2026-03-07T08:30:00.000Z"
    },
    {
      "id": "gaziantep-7",
      "name": "EMRE ECZANESİ",
      "address": "Ertuğrul Gazi mah.189012 nolu cad. No:10/A (Doğuser Seramik karşı sokağı, Getir sokağı)",
      "phone": "3423443617",
      "district": "Şahi̇nbey",
      "city": "Gaziantep",
      "latitude": 37.03124,
      "longitude": 37.3524,
      "dutyStart": "2026-03-06T08:30:00.000Z",
      "dutyEnd": "2026-03-07T08:30:00.000Z"
    },
    {
      "id": "gaziantep-8",
      "name": "ZER ECZANESİ",
      "address": "Mücahitler Mh.Medical Park Hastanesi Acil Karşısı",
      "phone": "03422326265",
      "district": "Şehi̇tkami̇l",
      "city": "Gaziantep",
      "latitude": 37.075439,
      "longitude": 37.370602,
      "dutyStart": "2026-03-06T08:30:00.000Z",
      "dutyEnd": "2026-03-07T08:30:00.000Z"
    },
    {
      "id": "gaziantep-9",
      "name": "GÜLEÇ ECZANESI",
      "address": "DEGIRMIÇEM MAH. MITHAT ENÇ CD. 1/C (Halı sarayı çaprazı, Abdulkadir Güllüoğlu karşısı, Doğdu Elektrik bitişiği)",
      "phone": "03422150951",
      "district": "Şehi̇tkami̇l",
      "city": "Gaziantep",
      "latitude": 37.070492,
      "longitude": 37.366264,
      "dutyStart": "2026-03-06T08:30:00.000Z",
      "dutyEnd": "2026-03-07T08:30:00.000Z"
    },
    {
      "id": "gaziantep-10",
      "name": "EMİR ALP ECZANESİ",
      "address": "Güvenevler Mahallesi 29068 Nolu Cadde No:17/B ÖMER ASIM AKSOY OKULU VE OSMANLI PARKI CİVARI",
      "phone": "08502021984",
      "district": "Şehi̇tkami̇l",
      "city": "Gaziantep",
      "latitude": 37.091867,
      "longitude": 37.328911,
      "dutyStart": "2026-03-06T08:30:00.000Z",
      "dutyEnd": "2026-03-07T08:30:00.000Z"
    },
    {
      "id": "gaziantep-11",
      "name": "AYCAN ECZANESİ",
      "address": "Fevzi Çakmak Bul.N:38/A(25 Aralık Devlet Hastanesi Karşısı)",
      "phone": "03423395021",
      "district": "Şehi̇tkami̇l",
      "city": "Gaziantep",
      "latitude": 37.066002,
      "longitude": 37.361904,
      "dutyStart": "2026-03-06T08:30:00.000Z",
      "dutyEnd": "2026-03-07T08:30:00.000Z"
    },
    {
      "id": "gaziantep-12",
      "name": "SEYRANTEPE ECZANESI",
      "address": "Seyrantepe Mahallesi 65006 Nolu Cadde No:1/I (Seyrantepe ASM ve Büyük Park Yanı)",
      "phone": "03422570797",
      "district": "Şehi̇tkami̇l",
      "city": "Gaziantep",
      "latitude": 37.074368,
      "longitude": 37.420055,
      "dutyStart": "2026-03-06T08:30:00.000Z",
      "dutyEnd": "2026-03-07T08:30:00.000Z"
    },
    {
      "id": "gaziantep-13",
      "name": "KAYAÖNÜ HİLAL ECZANESİ",
      "address": "Pir Sultan Mh. Çetin Emeç Cd.N:83(Şehitkamil Dev.HastYanı)",
      "phone": "03423235463",
      "district": "Şehi̇tkami̇l",
      "city": "Gaziantep",
      "latitude": 37.068138,
      "longitude": 37.369305,
      "dutyStart": "2026-03-06T08:30:00.000Z",
      "dutyEnd": "2026-03-07T08:30:00.000Z"
    },
    {
      "id": "gaziantep-14",
      "name": "AKINCI ECZANESI",
      "address": "Hasırcıoglu Mah. Tekel Cad. 13 Nolu Sok. No:40 Şehitkamil/Gaziantep( Hasırcıoğlu Tıp Merkezi Karşısı)",
      "phone": "03423252121",
      "district": "Şehi̇tkami̇l",
      "city": "Gaziantep",
      "latitude": 37.082191,
      "longitude": 37.387421,
      "dutyStart": "2026-03-06T08:30:00.000Z",
      "dutyEnd": "2026-03-07T08:30:00.000Z"
    },
    {
      "id": "gaziantep-15",
      "name": "YILMAZ ECZANESİ",
      "address": "Fatih Sultan Mah.Barak Sk.No:54/A Dev.Hast.Acili Karşısı)",
      "phone": "03425174864",
      "district": "Ni̇zi̇p",
      "city": "Gaziantep",
      "latitude": 37.010221,
      "longitude": 37.799869,
      "dutyStart": "2026-03-06T08:30:00.000Z",
      "dutyEnd": "2026-03-07T08:30:00.000Z"
    },
    {
      "id": "gaziantep-16",
      "name": "SENA ECZANESİ",
      "address": "GAZİANTEP CADDESİ NO:2 ARABAN",
      "phone": "03423249095",
      "district": "Araban",
      "city": "Gaziantep",
      "latitude": 37.424757,
      "longitude": 37.682476,
      "dutyStart": "2026-03-06T08:30:00.000Z",
      "dutyEnd": "2026-03-07T08:30:00.000Z"
    },
    {
      "id": "gaziantep-17",
      "name": "MERVE YEŞİL ECZANESİ",
      "address": "Yeşildere Mahallesi Salih Tanyeri Caddesi No:40/B",
      "phone": "03425834340",
      "district": "Oğuzeli̇",
      "city": "Gaziantep",
      "latitude": 36.980835,
      "longitude": 37.500508,
      "dutyStart": "2026-03-06T08:30:00.000Z",
      "dutyEnd": "2026-03-07T08:30:00.000Z"
    },
    {
      "id": "gaziantep-18",
      "name": "ŞİFA ECZANESİ",
      "address": "CUMHURİYET MAH.HÜKÜMET CAD.NO:28 (ESKİ ZİRAAT BANKASI KARŞISI)",
      "phone": "03428624408",
      "district": "İslahi̇ye",
      "city": "Gaziantep",
      "latitude": 37.025147,
      "longitude": 36.633226,
      "dutyStart": "2026-03-06T08:30:00.000Z",
      "dutyEnd": "2026-03-07T08:30:00.000Z"
    },
    {
      "id": "gaziantep-19",
      "name": "karanfil Eczanesi",
      "address": "Bahçelievler Mahallesi Hilmi Kutlubay Caddesi No:19/1",
      "phone": "",
      "district": "Nurdaği",
      "city": "Gaziantep",
      "latitude": 37.06675232813354,
      "longitude": 37.38321304321289,
      "dutyStart": "2026-03-06T08:30:00.000Z",
      "dutyEnd": "2026-03-07T08:30:00.000Z"
    },
    {
      "id": "gaziantep-20",
      "name": "ÖZLEM ECZANESI",
      "address": "Özlem Eczanesi Hürriyet Mah. İnönü Cad. No =9/A YAVUZELİ",
      "phone": "05549525101",
      "district": "Yavuzeli̇",
      "city": "Gaziantep",
      "latitude": 37.096748,
      "longitude": 37.426849,
      "dutyStart": "2026-03-06T08:30:00.000Z",
      "dutyEnd": "2026-03-07T08:30:00.000Z"
    }
  ]
}