{
  "city": "bursa",
  "cityName": "Bursa",
  "cityId": 16,
  "date": "2026-02-15",
  "updatedAt": "2026-02-15T04:30:19.989Z",
  "count": 30,
  "pharmacies": [
    {
      "id": "bursa-0",
      "name": "PERA BALAT ECZANESİ",
      "address": "BALAT MAH. BAĞ (300) SOK. NO:12B/12,  (BALAT CAMİ VE ŞOK MARKET KARŞISI) ,  0530 931 33 43",
      "phone": "05309313343",
      "district": "NİLÜFER",
      "city": "Bursa",
      "latitude": 40.265392,
      "longitude": 28.936172,
      "dutyStart": "2026-02-14T17:00:00.000Z",
      "dutyEnd": "2026-02-15T08:30:00.000Z"
    },
    {
      "id": "bursa-1",
      "name": "KAZANÇ ECZANESİ",
      "address": "KIZILCIKLI MAH. TURAÇ SOK. D-BLOK NO:15D/K,  (HASANAĞA TOKİ - MİNİBÜS DURAKLARI KARŞISI) ,  0553 080 16 17",
      "phone": "05530801617",
      "district": "NİLÜFER",
      "city": "Bursa",
      "latitude": 40.197012,
      "longitude": 28.8056723,
      "dutyStart": "2026-02-14T17:00:00.000Z",
      "dutyEnd": "2026-02-15T08:30:00.000Z"
    },
    {
      "id": "bursa-2",
      "name": "ÖZLEM TATALLAR ECZANESİ",
      "address": "BEŞEVLER MAH. BEŞEVLER CAD. NO:106/B,  (KARAFATMA HEYKELİ YANI - DİŞ HASTANESİ KARŞISI) ,  0224 452 16 06",
      "phone": "02244521606",
      "district": "NİLÜFER",
      "city": "Bursa",
      "latitude": 40.2082902,
      "longitude": 28.971115599999962,
      "dutyStart": "2026-02-14T17:00:00.000Z",
      "dutyEnd": "2026-02-15T08:30:00.000Z"
    },
    {
      "id": "bursa-3",
      "name": "SELANİK ECZANESİ",
      "address": "ALTINŞEHİR MAH. ABDİ İPEKÇİ CAD. NO:32/A,  (ŞAHİNKAYA ÇOCUK PARKI KARŞISI) ,  0224 413 74 84",
      "phone": "02244137484",
      "district": "NİLÜFER",
      "city": "Bursa",
      "latitude": 40.227316,
      "longitude": 28.920282,
      "dutyStart": "2026-02-14T17:00:00.000Z",
      "dutyEnd": "2026-02-15T08:30:00.000Z"
    },
    {
      "id": "bursa-4",
      "name": "NİLÜFER PARK ECZANESİ",
      "address": "KONAK MAH. BARIŞ SOK. KONAK BUTİK-2 SİTESİ NO:8/D,  (ÖZEL NİLÜFER DORUK HASTANESİ ARKA GİRİŞ KAPISI KARŞISI) ,  0224 502 11 14",
      "phone": "02245021114",
      "district": "NİLÜFER",
      "city": "Bursa",
      "latitude": 40.20974196343837,
      "longitude": 28.991286543171075,
      "dutyStart": "2026-02-14T17:00:00.000Z",
      "dutyEnd": "2026-02-15T08:30:00.000Z"
    },
    {
      "id": "bursa-5",
      "name": "GÜLŞAH ECZANESİ",
      "address": "ATAEVLER MAH. GAZİOSMANPAŞA CAD. NO:10-I/A,  (BULVAR PARK EVLERİ SİTESİ - ŞOK MARKET YANI) ,  0224 502 32 34",
      "phone": "02245023234",
      "district": "NİLÜFER",
      "city": "Bursa",
      "latitude": 40.21927,
      "longitude": 28.955019,
      "dutyStart": "2026-02-14T17:00:00.000Z",
      "dutyEnd": "2026-02-15T08:30:00.000Z"
    },
    {
      "id": "bursa-6",
      "name": "KARAKIZ ECZANESİ",
      "address": "HOCAALİZADE MAH. RESSAM ŞEFİK BURSALI CAD. NO:13/1,  (HEYKEL KAFKAS PASTANESİ ÜSTÜ - NURHAN APT.) ,  0224 221 13 01",
      "phone": "02242211301",
      "district": "OSMANGAZİ",
      "city": "Bursa",
      "latitude": 40.18256912215556,
      "longitude": 29.065534692820734,
      "dutyStart": "2026-02-14T17:00:00.000Z",
      "dutyEnd": "2026-02-15T08:30:00.000Z"
    },
    {
      "id": "bursa-7",
      "name": "YENİKALE ECZANESİ",
      "address": "DİKKALDIRIM MAH. HAT CAD. NO:1/1-B,  (ZÜBEYDE HANIM DOĞUMEVİ KARŞISI) ,  0224 236 46 98",
      "phone": "02242364698",
      "district": "OSMANGAZİ",
      "city": "Bursa",
      "latitude": 40.20788928,
      "longitude": 29.01790202,
      "dutyStart": "2026-02-14T17:00:00.000Z",
      "dutyEnd": "2026-02-15T08:30:00.000Z"
    },
    {
      "id": "bursa-8",
      "name": "AŞAN ECZANESİ",
      "address": "BAĞLARBAŞI MAH. SANAYİ CAD. NO:242,  (BAĞLARBAŞI METRO İSTASYONU - DORUK TIP MERKEZİ ESENTEPE ŞB. YANI) ,  0224 247 24 79",
      "phone": "02242472479",
      "district": "OSMANGAZİ",
      "city": "Bursa",
      "latitude": 40.22866119,
      "longitude": 28.98807049,
      "dutyStart": "2026-02-14T17:00:00.000Z",
      "dutyEnd": "2026-02-15T08:30:00.000Z"
    },
    {
      "id": "bursa-9",
      "name": "SOĞANLI BULVAR ECZANESİ",
      "address": "SOĞANLI MAH. ÇELEBİ MEHMET BULVARI NO:202/D,  (BOSTANCI KENT 5.ETAP 3.BLOK) ,  0224 999 43 65",
      "phone": "02249994365",
      "district": "OSMANGAZİ",
      "city": "Bursa",
      "latitude": 40.21174585323292,
      "longitude": 29.04489977334442,
      "dutyStart": "2026-02-14T17:00:00.000Z",
      "dutyEnd": "2026-02-15T08:30:00.000Z"
    },
    {
      "id": "bursa-10",
      "name": "YENİ ÇATALFIRIN ECZANESİ",
      "address": "ÇIRPAN MAH. 7.OKUL SOK. NO:3/A,  (ÇARŞAMBA SAĞLIK OCAĞI KARŞI ARASI) ,  0224 221 07 22 / 0224 2207219",
      "phone": "02242210722",
      "district": "OSMANGAZİ",
      "city": "Bursa",
      "latitude": 40.19485801105761,
      "longitude": 29.054768979549408,
      "dutyStart": "2026-02-14T17:00:00.000Z",
      "dutyEnd": "2026-02-15T08:30:00.000Z"
    },
    {
      "id": "bursa-11",
      "name": "YENİ ZAFER ECZANESİ",
      "address": "NAMIK KEMAL MAH. NAMIK KEMAL CAD. NO:105,  (ZAFER DOLMUŞ DURAĞI KARŞISI) ,  0224 255 75 70",
      "phone": "02242557570",
      "district": "OSMANGAZİ",
      "city": "Bursa",
      "latitude": 40.19587894773291,
      "longitude": 29.080939243908944,
      "dutyStart": "2026-02-14T17:00:00.000Z",
      "dutyEnd": "2026-02-15T08:30:00.000Z"
    },
    {
      "id": "bursa-12",
      "name": "ÖMER ECZANESİ",
      "address": "DUAÇINARI MAH. SAMANLI CAD. NO:7,  (YILDIRIM DORUK TIP MERKEZİ) ,  0224 362 05 55",
      "phone": "02243620555",
      "district": "YILDIRIM",
      "city": "Bursa",
      "latitude": 40.19242756001876,
      "longitude": 29.109726773296188,
      "dutyStart": "2026-02-14T17:00:00.000Z",
      "dutyEnd": "2026-02-15T08:30:00.000Z"
    },
    {
      "id": "bursa-13",
      "name": "AHISKA ECZANESİ",
      "address": "SIRACEVİZLER MAH. KURTBASAN CAD. NO:33/A,  (KURTBASAN CAD. ESKİ PTT YERİ) ,  0501 298 16 22",
      "phone": "05012981622",
      "district": "YILDIRIM",
      "city": "Bursa",
      "latitude": 40.1773836,
      "longitude": 29.0902363,
      "dutyStart": "2026-02-14T17:00:00.000Z",
      "dutyEnd": "2026-02-15T08:30:00.000Z"
    },
    {
      "id": "bursa-14",
      "name": "DENGE ECZANESİ",
      "address": "BAĞLARALTI MAH. 2.CAD. A309.SOK. NO:3,  (PAZAR YERİ VE 39 NO'LU BAĞLARALTI ASM YANI - ERİKLİ ÜSTÜ) ,  0224 340 00 26 / 5511838979",
      "phone": "02243400026",
      "district": "YILDIRIM",
      "city": "Bursa",
      "latitude": 40.18426508459091,
      "longitude": 29.138245775463247,
      "dutyStart": "2026-02-14T17:00:00.000Z",
      "dutyEnd": "2026-02-15T08:30:00.000Z"
    },
    {
      "id": "bursa-15",
      "name": "BÜYÜKORHAN ECZANESİ",
      "address": "ORHAN MAH. DR.İBRAHİM ÖKTEM CAD. NO:13/B ,  0224 841 23 70 ,  Eczaneyi haritada görüntülemek için tıklayınız...",
      "phone": "02248412370",
      "district": "BÜYÜKORHAN",
      "city": "Bursa",
      "latitude": 39.773187817429196,
      "longitude": 28.885376751422882,
      "dutyStart": "2026-02-14T17:00:00.000Z",
      "dutyEnd": "2026-02-15T08:30:00.000Z"
    },
    {
      "id": "bursa-16",
      "name": "CİHATLI ECZANESİ",
      "address": "CİHATLI MAH. CİHATLI CAD. NO:215/B-A ,  0224 503 88 99 ,  Eczaneyi haritada görüntülemek için tıklayınız...",
      "phone": "02245038899",
      "district": "GEMLİK",
      "city": "Bursa",
      "latitude": 40.432038,
      "longitude": 29.187466,
      "dutyStart": "2026-02-14T15:00:00.000Z",
      "dutyEnd": "2026-02-15T08:30:00.000Z"
    },
    {
      "id": "bursa-17",
      "name": "ZAFER MEYDANI ECZANESİ",
      "address": "ZAFER MAH. ZAFER CAD. NO:20/A ,  0224 371 12 12 ,  Eczaneyi haritada görüntülemek için tıklayınız...",
      "phone": "02243711212",
      "district": "GÜRSU",
      "city": "Bursa",
      "latitude": 40.218877,
      "longitude": 29.191578,
      "dutyStart": "2026-02-14T15:30:00.000Z",
      "dutyEnd": "2026-02-15T09:00:00.000Z"
    },
    {
      "id": "bursa-18",
      "name": "DERMAN ECZANESİ",
      "address": "MERKEZ MAH. FEVZİ PAŞA CAD. NO:11/1 ,  0224-8812295 ,  Eczaneyi haritada görüntülemek için tıklayınız...",
      "phone": "02248812295",
      "district": "HARMANCIK",
      "city": "Bursa",
      "latitude": 39.679107,
      "longitude": 29.155259,
      "dutyStart": "2026-02-14T08:30:00.000Z",
      "dutyEnd": "2026-02-15T08:30:00.000Z"
    },
    {
      "id": "bursa-19",
      "name": "DEMİREL ECZANESİ",
      "address": "CUMA MAH. KASIM EFENDİ CAD. NO:24/A ,  0224 713 09 90 ,  Eczaneyi haritada görüntülemek için tıklayınız...",
      "phone": "02247130990",
      "district": "İNEGÖL",
      "city": "Bursa",
      "latitude": 40.076587,
      "longitude": 29.512669,
      "dutyStart": "2026-02-14T17:00:00.000Z",
      "dutyEnd": "2026-02-15T08:30:00.000Z"
    },
    {
      "id": "bursa-20",
      "name": "CEYHAN ECZANESİ",
      "address": "MUSTAFAKEMALPAŞA MAH. ATATÜRK CAD. NO:101 ,  0224-7575033 ,  Eczaneyi haritada görüntülemek için tıklayınız...",
      "phone": "02247575033",
      "district": "İZNİK",
      "city": "Bursa",
      "latitude": 40.430385,
      "longitude": 29.71990500000004,
      "dutyStart": "2026-02-14T08:30:00.000Z",
      "dutyEnd": "2026-02-15T08:30:00.000Z"
    },
    {
      "id": "bursa-21",
      "name": "YENİ CEM ECZANESİ",
      "address": "CANBALI MAH. ŞİFA SOK. NO:7/1-5 ,  0224 676 00 97 ,  Eczaneyi haritada görüntülemek için tıklayınız...",
      "phone": "02246760097",
      "district": "KARACABEY",
      "city": "Bursa",
      "latitude": 40.20715593788936,
      "longitude": 28.348808884620667,
      "dutyStart": "2026-02-14T15:00:00.000Z",
      "dutyEnd": "2026-02-15T08:30:00.000Z"
    },
    {
      "id": "bursa-22",
      "name": "EDA GÜNDÜZ ECZANESİ",
      "address": "KALE MAH. FEVZİ ÇAKMAK CAD. NO:6/B ,  0224 372 22 55 ,  Eczaneyi haritada görüntülemek için tıklayınız...",
      "phone": "02243722255",
      "district": "KESTEL",
      "city": "Bursa",
      "latitude": 40.201276,
      "longitude": 29.211675,
      "dutyStart": "2026-02-14T14:00:00.000Z",
      "dutyEnd": "2026-02-15T08:30:00.000Z"
    },
    {
      "id": "bursa-23",
      "name": "SERAP ECZANESİ",
      "address": "GÜZELYALI SİTELER MAH. KANARYA CAD. A-BLOK NO:18/A ,  0538 841 41 39 ,  Eczaneyi haritada görüntülemek için tıklayınız...",
      "phone": "05388414139",
      "district": "MUDANYA",
      "city": "Bursa",
      "latitude": 40.354878,
      "longitude": 28.914616,
      "dutyStart": "2026-02-14T08:30:00.000Z",
      "dutyEnd": "2026-02-15T08:30:00.000Z"
    },
    {
      "id": "bursa-24",
      "name": "BİLGİN ECZANESİ",
      "address": "ÖMERBEY MAH. DENİZ CAD. 2.BARIŞ SOK. AKARSU SİTESİ NO:4/B-C ,  0224 544 84 74 ,  Eczaneyi haritada görüntülemek için tıklayınız...",
      "phone": "02245448474",
      "district": "MUDANYA",
      "city": "Bursa",
      "latitude": 40.36967615175513,
      "longitude": 28.89139662218156,
      "dutyStart": "2026-02-14T08:30:00.000Z",
      "dutyEnd": "2026-02-15T08:30:00.000Z"
    },
    {
      "id": "bursa-25",
      "name": "ÖZKOCAMAN ECZANESİ",
      "address": "ÇIRPAN MAH. YEŞİL CAD. YEŞİLCAMİ SOK. NO:7/B ,  0224 613 13 00 ,  Eczaneyi haritada görüntülemek için tıklayınız...",
      "phone": "02246131300",
      "district": "MUSTAFAKEMALPAŞA",
      "city": "Bursa",
      "latitude": 40.03365401012732,
      "longitude": 28.405455841118197,
      "dutyStart": "2026-02-14T17:00:00.000Z",
      "dutyEnd": "2026-02-15T08:30:00.000Z"
    },
    {
      "id": "bursa-26",
      "name": "EZEL ECZANESİ",
      "address": "İSMET PAŞA MAH. HASTANE SOK. NO:11 ,  0224-8173637 ,  Eczaneyi haritada görüntülemek için tıklayınız...",
      "phone": "02248173637",
      "district": "ORHANELİ",
      "city": "Bursa",
      "latitude": 39.901235,
      "longitude": 28.98706100000004,
      "dutyStart": "2026-02-14T08:30:00.000Z",
      "dutyEnd": "2026-02-15T08:30:00.000Z"
    },
    {
      "id": "bursa-27",
      "name": "ÖZGÜR ECZANESİ",
      "address": "ARAPZADE MAH. FINDIKLI YOLU CAD. NO:40/A ,  0224 573 38 48 ,  Eczaneyi haritada görüntülemek için tıklayınız...",
      "phone": "02245733848",
      "district": "ORHANGAZİ",
      "city": "Bursa",
      "latitude": 40.49780420890997,
      "longitude": 29.2983216047287,
      "dutyStart": "2026-02-14T15:00:00.000Z",
      "dutyEnd": "2026-02-15T08:30:00.000Z"
    },
    {
      "id": "bursa-28",
      "name": "EBRU ECZANESİ",
      "address": "DEMİRTAŞ CUMHURİYET MAH. SAĞLIK SOK. B-BLOK NO:16/A,  (DEMİRTAŞ AİLE SAĞLIĞI MERKEZİ KARŞISI) ,  0224-2624486",
      "phone": "02242624486",
      "district": "OSMANGAZİ",
      "city": "Bursa",
      "latitude": 40.27029781948105,
      "longitude": 29.093937786542938,
      "dutyStart": "2026-02-14T17:00:00.000Z",
      "dutyEnd": "2026-02-15T08:30:00.000Z"
    },
    {
      "id": "bursa-29",
      "name": "ACAR ECZANESİ",
      "address": "KURTULUŞ MAH. İZNİK CAD. NO:21 ,  0224 773 05 06 ,  Eczaneyi haritada görüntülemek için tıklayınız...",
      "phone": "02247730506",
      "district": "YENİŞEHİR",
      "city": "Bursa",
      "latitude": 40.27516291097589,
      "longitude": 29.654296338558197,
      "dutyStart": "2026-02-14T08:00:00.000Z",
      "dutyEnd": "2026-02-15T08:00:00.000Z"
    }
  ]
}