{
  "city": "izmir",
  "cityName": "İzmir",
  "cityId": 35,
  "date": "2026-02-15",
  "updatedAt": "2026-02-15T00:00:15.794Z",
  "count": 71,
  "pharmacies": [
    {
      "id": "izmir-0-4",
      "name": "NEHIR ECZANESİ",
      "address": "4209 SK. NO:31/A ",
      "phone": "02324619045",
      "district": "ALTINDAĞ",
      "city": "İzmir",
      "latitude": 38.429488,
      "longitude": 27.19608,
      "dutyStart": "2026-02-14T08:00:00.000Z",
      "dutyEnd": "2026-02-15T08:00:00.000Z"
    },
    {
      "id": "izmir-1-6",
      "name": "ERAY ECZANESİ",
      "address": "TELEFERİK MH.ATA CD. NO:182/C",
      "phone": "02329350958",
      "district": "BALÇOVA",
      "city": "İzmir",
      "latitude": 38.384122,
      "longitude": 27.058046,
      "dutyStart": "2026-02-14T08:00:00.000Z",
      "dutyEnd": "2026-02-15T08:00:00.000Z"
    },
    {
      "id": "izmir-2-7",
      "name": "BAŞKENT ECZANESİ",
      "address": "BASINSİTESİ MAH. 177/5 SOK. NO:19/C",
      "phone": "02322446361",
      "district": "BASIN SİTESİ",
      "city": "İzmir",
      "latitude": 38.397276,
      "longitude": 27.105395,
      "dutyStart": "2026-02-14T08:00:00.000Z",
      "dutyEnd": "2026-02-15T08:00:00.000Z"
    },
    {
      "id": "izmir-3-9",
      "name": "KOÇER ECZANESİ",
      "address": "ANADOLU CAD. NO:99/3-C BAYRAKLI",
      "phone": "02323458955",
      "district": "BAYRAKLI",
      "city": "İzmir",
      "latitude": 38.464583,
      "longitude": 27.163323,
      "dutyStart": "2026-02-14T08:00:00.000Z",
      "dutyEnd": "2026-02-15T08:00:00.000Z"
    },
    {
      "id": "izmir-4-10",
      "name": "YENİ BORNOVA ECZANESİ",
      "address": "ERZENE MAH. 1. SOKAK NO:4/A BORNOVA",
      "phone": "02323390309",
      "district": "BORNOVA 1",
      "city": "İzmir",
      "latitude": 38.466379,
      "longitude": 27.22001,
      "dutyStart": "2026-02-14T08:00:00.000Z",
      "dutyEnd": "2026-02-15T08:00:00.000Z"
    },
    {
      "id": "izmir-5-11",
      "name": "CEREN ECZANESİ",
      "address": "KAZIM DİRİK MH. 185 SK. NO:52/B",
      "phone": "02323397007",
      "district": "BORNOVA 2",
      "city": "İzmir",
      "latitude": 38.461806,
      "longitude": 27.207664,
      "dutyStart": "2026-02-14T08:00:00.000Z",
      "dutyEnd": "2026-02-15T08:00:00.000Z"
    },
    {
      "id": "izmir-6-12",
      "name": "TAN ECZANESİ",
      "address": "ADALET MAH. 1586/17 SOK. NO:4/D",
      "phone": "02323711819",
      "district": "BORNOVA 3",
      "city": "İzmir",
      "latitude": 38.458643,
      "longitude": 27.175782,
      "dutyStart": "2026-02-14T08:00:00.000Z",
      "dutyEnd": "2026-02-15T08:00:00.000Z"
    },
    {
      "id": "izmir-7-14",
      "name": "ÖZHAYAT ECZANESİ",
      "address": "ESKIIZMIR CAD. NO:61/F ",
      "phone": "02322503988",
      "district": "BOZYAKA",
      "city": "İzmir",
      "latitude": 38.39805,
      "longitude": 27.128027,
      "dutyStart": "2026-02-14T08:00:00.000Z",
      "dutyEnd": "2026-02-15T08:00:00.000Z"
    },
    {
      "id": "izmir-8-15",
      "name": "KILIÇER ECZANESİ",
      "address": "MENDERES MAH. MENDERES CAD. NO:74/C",
      "phone": "02322757868",
      "district": "BUCA 1",
      "city": "İzmir",
      "latitude": 38.390152,
      "longitude": 27.165648,
      "dutyStart": "2026-02-14T08:00:00.000Z",
      "dutyEnd": "2026-02-15T08:00:00.000Z"
    },
    {
      "id": "izmir-9-16",
      "name": "TAYFUN ECZANESİ",
      "address": "5373 SOK.NO:44/A RAFETPASA MAH.",
      "phone": "02324621446",
      "district": "ÇAMDİBİ",
      "city": "İzmir",
      "latitude": 38.436676,
      "longitude": 27.199539,
      "dutyStart": "2026-02-14T08:00:00.000Z",
      "dutyEnd": "2026-02-15T08:00:00.000Z"
    },
    {
      "id": "izmir-10-17",
      "name": "ROZA ECZANESİ",
      "address": "YENİMAHALLE MAH.MURAT KARAYALÇIN BULVARI NO:6/E",
      "phone": "02323636313",
      "district": "ÇİĞLİ",
      "city": "İzmir",
      "latitude": 38.495836,
      "longitude": 27.050079,
      "dutyStart": "2026-02-14T08:00:00.000Z",
      "dutyEnd": "2026-02-15T08:00:00.000Z"
    },
    {
      "id": "izmir-11-17",
      "name": "ASMALI ECZANESİ",
      "address": "ATAŞEHİR MH. 8019/11 SK.NAZIM HİKMET RAN BULV. A BLOK NO:12B",
      "phone": "02323766999",
      "district": "ÇİĞLİ",
      "city": "İzmir",
      "latitude": 38.486321,
      "longitude": 27.059453,
      "dutyStart": "2026-02-14T08:00:00.000Z",
      "dutyEnd": "2026-02-15T08:00:00.000Z"
    },
    {
      "id": "izmir-12-17",
      "name": "HARMANDALI ECZANESİ",
      "address": "INÖNÜ MAH.HALILKUYUSU CAD.NO:12/AHARMANDALI",
      "phone": "02328390266",
      "district": "ÇİĞLİ",
      "city": "İzmir",
      "latitude": 38.530921,
      "longitude": 27.050859,
      "dutyStart": "2026-02-14T08:00:00.000Z",
      "dutyEnd": "2026-02-15T08:00:00.000Z"
    },
    {
      "id": "izmir-13-20",
      "name": "ECE EREN ECZANESİ",
      "address": "KOCATEPE MAH. EŞREFPAŞA CAD. NO:387",
      "phone": "02322610620",
      "district": "EŞREFPAŞA ",
      "city": "İzmir",
      "latitude": 38.405675,
      "longitude": 27.128712,
      "dutyStart": "2026-02-14T08:00:00.000Z",
      "dutyEnd": "2026-02-15T08:00:00.000Z"
    },
    {
      "id": "izmir-14-22",
      "name": "DENİZ ECZANESİ",
      "address": "SEVGİ MAH. 663 SOK. NO:18/E",
      "phone": "02322900079",
      "district": "GAZİEMİR",
      "city": "İzmir",
      "latitude": 38.312682,
      "longitude": 27.132616,
      "dutyStart": "2026-02-14T08:00:00.000Z",
      "dutyEnd": "2026-02-15T08:00:00.000Z"
    },
    {
      "id": "izmir-15-23",
      "name": "YENİ LOKMAN HEKİM ECZANESİ",
      "address": "GÖKSU MH.692/3 SK.NO:20/A",
      "phone": "02322761733",
      "district": "GEDİZ",
      "city": "İzmir",
      "latitude": 38.368278,
      "longitude": 27.145947,
      "dutyStart": "2026-02-14T08:00:00.000Z",
      "dutyEnd": "2026-02-15T08:00:00.000Z"
    },
    {
      "id": "izmir-16-25",
      "name": "CAN ATA ECZANESİ",
      "address": "MİLLET MAH. HIZIRREİS CAD. NO:66/A",
      "phone": "02324562577",
      "district": "GÜLTEPE",
      "city": "İzmir",
      "latitude": 38.415852,
      "longitude": 27.181625,
      "dutyStart": "2026-02-14T08:00:00.000Z",
      "dutyEnd": "2026-02-15T08:00:00.000Z"
    },
    {
      "id": "izmir-17-26",
      "name": "BAGDATOGLU ECZANESİ",
      "address": "EMEK MAH. 7226 SOKAK NO:41/A BAYRAKLI",
      "phone": "02328673297",
      "district": "GÜMÜŞPALA",
      "city": "İzmir",
      "latitude": 38.470451,
      "longitude": 27.129699,
      "dutyStart": "2026-02-14T08:00:00.000Z",
      "dutyEnd": "2026-02-15T08:00:00.000Z"
    },
    {
      "id": "izmir-18-28",
      "name": "ASLI  ECZANESİ",
      "address": "YALI MAH. MİTHATPAŞA CAD. NO:591/A",
      "phone": "02322341717",
      "district": "GÜZELBAHÇE",
      "city": "İzmir",
      "latitude": 38.375014,
      "longitude": 26.872981,
      "dutyStart": "2026-02-14T08:00:00.000Z",
      "dutyEnd": "2026-02-15T08:00:00.000Z"
    },
    {
      "id": "izmir-19-31",
      "name": "AİLE ECZANESİ",
      "address": "KORUTÜRK MAH. MİTHATPAŞA CAD. NO:285/1A",
      "phone": "02322590208",
      "district": "İNCİRALTI",
      "city": "İzmir",
      "latitude": 38.39303,
      "longitude": 27.033796,
      "dutyStart": "2026-02-14T08:00:00.000Z",
      "dutyEnd": "2026-02-15T08:00:00.000Z"
    },
    {
      "id": "izmir-20-32",
      "name": "SALIH ECZANESİ",
      "address": "KARABAĞLAR MH. 5769 SK. NO:34/A",
      "phone": "02322618011",
      "district": "KARABAĞLAR",
      "city": "İzmir",
      "latitude": 38.384399,
      "longitude": 27.130116,
      "dutyStart": "2026-02-14T08:00:00.000Z",
      "dutyEnd": "2026-02-15T08:00:00.000Z"
    },
    {
      "id": "izmir-21-37",
      "name": "KOCABIYIK ECZANESİ",
      "address": "ILICA MAH.DALYA SOK.NO.21/A",
      "phone": "02322384536",
      "district": "NARLIDERE",
      "city": "İzmir",
      "latitude": 38.390879,
      "longitude": 27.025491,
      "dutyStart": "2026-02-14T08:00:00.000Z",
      "dutyEnd": "2026-02-15T08:00:00.000Z"
    },
    {
      "id": "izmir-22-39",
      "name": "KARADENİZ ECZANESİ",
      "address": "GÜRPINAR MAH. 7058 SOK. NO:14A PINARBAŞI",
      "phone": "02324786606",
      "district": "PINARBAŞI",
      "city": "İzmir",
      "latitude": 38.429856,
      "longitude": 27.273705,
      "dutyStart": "2026-02-14T08:00:00.000Z",
      "dutyEnd": "2026-02-15T08:00:00.000Z"
    },
    {
      "id": "izmir-23-42",
      "name": "ONANÇ ARSLAN  ECZANESİ",
      "address": "PİRİ REİS MAH. İNÖNÜ CAD. NO:228A-228B",
      "phone": "02322610262",
      "district": "ÜÇYOL",
      "city": "İzmir",
      "latitude": 38.403725,
      "longitude": 27.117167,
      "dutyStart": "2026-02-14T08:00:00.000Z",
      "dutyEnd": "2026-02-15T08:00:00.000Z"
    },
    {
      "id": "izmir-24-43",
      "name": "YENİ TÜRSEN ECZANESİ",
      "address": "GÜNEY MH.GAZILER CD. NO:392",
      "phone": "02324338100",
      "district": "YENİŞEHİR",
      "city": "İzmir",
      "latitude": 38.423262,
      "longitude": 27.160405,
      "dutyStart": "2026-02-14T08:00:00.000Z",
      "dutyEnd": "2026-02-15T08:00:00.000Z"
    },
    {
      "id": "izmir-25-44",
      "name": "DÜNYA ECZANESİ",
      "address": "ESENLİK MAH. ORDU CAD. NO:102/C YEŞİLYURT",
      "phone": "02322612044",
      "district": "YEŞİLYURT",
      "city": "İzmir",
      "latitude": 38.397339,
      "longitude": 27.113001,
      "dutyStart": "2026-02-14T08:00:00.000Z",
      "dutyEnd": "2026-02-15T08:00:00.000Z"
    },
    {
      "id": "izmir-26-45",
      "name": "KÖŞE BUCA ECZANESİ",
      "address": "ADATEPE MAH. 3 SOK. NO:39/A",
      "phone": "02326833238",
      "district": "EVKA 1",
      "city": "İzmir",
      "latitude": 38.384805,
      "longitude": 27.184072,
      "dutyStart": "2026-02-14T08:00:00.000Z",
      "dutyEnd": "2026-02-15T08:00:00.000Z"
    },
    {
      "id": "izmir-27-46",
      "name": "HAYAT ECZANESİ",
      "address": "ATATÜRK MAH. 206/13 SOK. NO:7",
      "phone": "02324535453",
      "district": "BUCA 2",
      "city": "İzmir",
      "latitude": 38.376286,
      "longitude": 27.180172,
      "dutyStart": "2026-02-14T08:00:00.000Z",
      "dutyEnd": "2026-02-15T08:00:00.000Z"
    },
    {
      "id": "izmir-28-48",
      "name": "SARNIÇ ECZANESİ",
      "address": "MENDERES CD.80/B",
      "phone": "02322812343",
      "district": "SARNIÇ",
      "city": "İzmir",
      "latitude": 38.297236,
      "longitude": 27.167904,
      "dutyStart": "2026-02-14T08:00:00.000Z",
      "dutyEnd": "2026-02-15T08:00:00.000Z"
    },
    {
      "id": "izmir-29-50",
      "name": "ECZANE SÜRMELİ ECZANESİ",
      "address": "HÜRRİYET MH. 463/4 SK. NO:5/A",
      "phone": "02324522283",
      "district": "ŞİRİNYER",
      "city": "İzmir",
      "latitude": 38.394881,
      "longitude": 27.147801,
      "dutyStart": "2026-02-14T08:00:00.000Z",
      "dutyEnd": "2026-02-15T08:00:00.000Z"
    },
    {
      "id": "izmir-30-51",
      "name": "BÜŞRA ECZANESİ",
      "address": "ATATÜRK MH. ATATÜRK CD. NO:116/B",
      "phone": "02326550065",
      "district": "ALİAĞA",
      "city": "İzmir",
      "latitude": 38.798596,
      "longitude": 26.96538,
      "dutyStart": "2026-02-14T08:00:00.000Z",
      "dutyEnd": "2026-02-15T08:00:00.000Z"
    },
    {
      "id": "izmir-31-52",
      "name": "AYKUT ECZANESİ",
      "address": "İZMİR AYDIN CD. NO:61/B",
      "phone": "02328546879",
      "district": "AYRANCILAR",
      "city": "İzmir",
      "latitude": 38.238031,
      "longitude": 27.279253,
      "dutyStart": "2026-02-14T08:00:00.000Z",
      "dutyEnd": "2026-02-15T08:00:00.000Z"
    },
    {
      "id": "izmir-32-53",
      "name": "BAYINDIR PINAR ECZANESİ",
      "address": "MITHATPASA MAH.HASTANE CAD.NO:16 BAYINDIR",
      "phone": "02325814404",
      "district": "BAYINDIR",
      "city": "İzmir",
      "latitude": 38.22133,
      "longitude": 27.649414,
      "dutyStart": "2026-02-14T08:00:00.000Z",
      "dutyEnd": "2026-02-15T08:00:00.000Z"
    },
    {
      "id": "izmir-33-54",
      "name": "MERKEZ ECZANESİ",
      "address": "BARBAROS MAH. BANKALAR CAD. NO:41/A   BERGAMA/IZMIR",
      "phone": "02326331068",
      "district": "BERGAMA",
      "city": "İzmir",
      "latitude": 39.120605,
      "longitude": 27.179393,
      "dutyStart": "2026-02-14T08:00:00.000Z",
      "dutyEnd": "2026-02-15T08:00:00.000Z"
    },
    {
      "id": "izmir-34-55",
      "name": "AKTEPE ECZANESİ",
      "address": "CUMHURIYET MAH.ULUS MEYDANI NO:20/A BEYDAG",
      "phone": "02325927649",
      "district": "BEYDAĞ",
      "city": "İzmir",
      "latitude": 38.085323,
      "longitude": 28.208369,
      "dutyStart": "2026-02-14T08:00:00.000Z",
      "dutyEnd": "2026-02-15T08:00:00.000Z"
    },
    {
      "id": "izmir-35-58",
      "name": "GÜVEN ECZANESİ",
      "address": "KASIMPAŞA MH. ATATÜRK CD. NO:85/A-B \r\n",
      "phone": "02327822254",
      "district": "MENDERES",
      "city": "İzmir",
      "latitude": 38.256217,
      "longitude": 27.130722,
      "dutyStart": "2026-02-14T08:00:00.000Z",
      "dutyEnd": "2026-02-15T08:00:00.000Z"
    },
    {
      "id": "izmir-36-61",
      "name": "DİKİLİ YAMAN ECZANESİ",
      "address": "Ş.SAMİ AKBULUT CD. NO:22",
      "phone": "02326717881",
      "district": "DİKİLİ",
      "city": "İzmir",
      "latitude": 39.071753,
      "longitude": 26.888731,
      "dutyStart": "2026-02-14T08:00:00.000Z",
      "dutyEnd": "2026-02-15T08:00:00.000Z"
    },
    {
      "id": "izmir-37-62",
      "name": "LOTUS ECZANESİ",
      "address": "ATATÜRK MAH. 99 SOK. NO:26/A",
      "phone": "02328126303",
      "district": "ESKİ FOÇA",
      "city": "İzmir",
      "latitude": 38.659082,
      "longitude": 26.764558,
      "dutyStart": "2026-02-14T08:00:00.000Z",
      "dutyEnd": "2026-02-15T08:00:00.000Z"
    },
    {
      "id": "izmir-38-63",
      "name": "YAGMUR ECZANESİ",
      "address": "ATATÜRK MAH. IZMIR CAD. NO:87/D",
      "phone": "02328148615",
      "district": "YENİ FOÇA",
      "city": "İzmir",
      "latitude": 38.738804,
      "longitude": 26.838447,
      "dutyStart": "2026-02-14T08:00:00.000Z",
      "dutyEnd": "2026-02-15T08:00:00.000Z"
    },
    {
      "id": "izmir-39-64",
      "name": "SAADET ECZANESİ",
      "address": "İSKELE MH. KEPEZ CD. NO:19/A",
      "phone": "02327313397",
      "district": "KARABURUN",
      "city": "İzmir",
      "latitude": 38.634972,
      "longitude": 26.522727,
      "dutyStart": "2026-02-14T08:00:00.000Z",
      "dutyEnd": "2026-02-15T08:00:00.000Z"
    },
    {
      "id": "izmir-40-65",
      "name": "BARAN ECZANESİ",
      "address": "FATIH CD.NO.2/B MORDOGAN",
      "phone": "02323476742",
      "district": "MORDOĞAN",
      "city": "İzmir",
      "latitude": 38.518282,
      "longitude": 26.625497,
      "dutyStart": "2026-02-14T08:00:00.000Z",
      "dutyEnd": "2026-02-15T08:00:00.000Z"
    },
    {
      "id": "izmir-41-66",
      "name": "NIF ECZANESİ",
      "address": "134 SOKAK NO:9/AKEMALPASA-IZMIR",
      "phone": "02328784366",
      "district": "KEMALPAŞA",
      "city": "İzmir",
      "latitude": 38.429998,
      "longitude": 27.412054,
      "dutyStart": "2026-02-14T08:00:00.000Z",
      "dutyEnd": "2026-02-15T08:00:00.000Z"
    },
    {
      "id": "izmir-42-67",
      "name": "TOKER  ECZANESİ",
      "address": "TÜRKCEDİT MAH. TURAN GÜNEŞ CAD. NO:2/B",
      "phone": "02326871166",
      "district": "KINIK",
      "city": "İzmir",
      "latitude": 39.087162,
      "longitude": 27.383935,
      "dutyStart": "2026-02-14T08:00:00.000Z",
      "dutyEnd": "2026-02-15T08:00:00.000Z"
    },
    {
      "id": "izmir-43-68",
      "name": "KİRAZ ECZANESİ",
      "address": "ISTIKLAL MH. SABIT ARLI CD.43/B",
      "phone": "02325723018",
      "district": "KİRAZ",
      "city": "İzmir",
      "latitude": 38.231234,
      "longitude": 28.205193,
      "dutyStart": "2026-02-14T08:00:00.000Z",
      "dutyEnd": "2026-02-15T08:00:00.000Z"
    },
    {
      "id": "izmir-44-69",
      "name": "MENEMEN ECZANESİ",
      "address": "KASIMPAŞA MAH. ATATÜRK CAD. NO:14",
      "phone": "02328323763",
      "district": "MENEMEN",
      "city": "İzmir",
      "latitude": 38.609168,
      "longitude": 27.071199,
      "dutyStart": "2026-02-14T08:00:00.000Z",
      "dutyEnd": "2026-02-15T08:00:00.000Z"
    },
    {
      "id": "izmir-45-70",
      "name": "MÜMTAZ ECZANESİ",
      "address": "İNÖNÜ MAH. SARAÇOĞLU CAD. NO:77/A",
      "phone": "02325452676",
      "district": "ÖDEMİŞ",
      "city": "İzmir",
      "latitude": 38.234313,
      "longitude": 27.976921,
      "dutyStart": "2026-02-14T08:00:00.000Z",
      "dutyEnd": "2026-02-15T08:00:00.000Z"
    },
    {
      "id": "izmir-46-70",
      "name": "MURAT ECZANESİ",
      "address": "İNÖNÜ MAH. SARAÇOĞLU CAD. NO:67/1B",
      "phone": "02325450977",
      "district": "ÖDEMİŞ",
      "city": "İzmir",
      "latitude": 38.233562,
      "longitude": 27.976508,
      "dutyStart": "2026-02-14T08:00:00.000Z",
      "dutyEnd": "2026-02-15T08:00:00.000Z"
    },
    {
      "id": "izmir-47-71",
      "name": "ASLI ECZANESİ",
      "address": "HIDIRLIK MAH.ATATÜRK CD.41/A",
      "phone": "02327433747",
      "district": "SEFERİHİSAR",
      "city": "İzmir",
      "latitude": 38.194902,
      "longitude": 26.836549,
      "dutyStart": "2026-02-14T08:00:00.000Z",
      "dutyEnd": "2026-02-15T08:00:00.000Z"
    },
    {
      "id": "izmir-48-72",
      "name": "BAHAR ECZANESİ",
      "address": "ATATÜRK MAH. KIZILAY CAD. NO:20/A",
      "phone": "02328920627",
      "district": "SELÇUK",
      "city": "İzmir",
      "latitude": 37.949381,
      "longitude": 27.370911,
      "dutyStart": "2026-02-14T08:00:00.000Z",
      "dutyEnd": "2026-02-15T08:00:00.000Z"
    },
    {
      "id": "izmir-49-73",
      "name": "SANAT ECZANESİ",
      "address": "YENİ MAHALLE MAH. ZAFER CAD. NO:30/A",
      "phone": "02327546164",
      "district": "URLA",
      "city": "İzmir",
      "latitude": 38.32222,
      "longitude": 26.766,
      "dutyStart": "2026-02-14T08:00:00.000Z",
      "dutyEnd": "2026-02-15T08:00:00.000Z"
    },
    {
      "id": "izmir-50-74",
      "name": "TİRE ECZANESİ",
      "address": "IPEKÇILER MAH. GÖKÇENEFE CAD. 15",
      "phone": "02325116162",
      "district": "TİRE",
      "city": "İzmir",
      "latitude": 38.088951,
      "longitude": 27.740875,
      "dutyStart": "2026-02-14T08:00:00.000Z",
      "dutyEnd": "2026-02-15T08:00:00.000Z"
    },
    {
      "id": "izmir-51-75",
      "name": "BARIŞ ECZANESİ",
      "address": "ATATÜRK MAH. 1529 SOK. NO:3/A",
      "phone": "02328963235",
      "district": "TORBALI",
      "city": "İzmir",
      "latitude": 38.151471,
      "longitude": 27.367484,
      "dutyStart": "2026-02-14T08:00:00.000Z",
      "dutyEnd": "2026-02-15T08:00:00.000Z"
    },
    {
      "id": "izmir-52-75",
      "name": "SEMİH ECZANESİ",
      "address": "TORBALI MAH. METROPOLİS CAD. NO:35/A",
      "phone": "02322020064",
      "district": "TORBALI",
      "city": "İzmir",
      "latitude": 38.17286,
      "longitude": 27.349242,
      "dutyStart": "2026-02-14T08:00:00.000Z",
      "dutyEnd": "2026-02-15T08:00:00.000Z"
    },
    {
      "id": "izmir-53-76",
      "name": "YAZAL ECZANESİ",
      "address": "SAYFIYE MAH. KAZIM DIRIK CAD.NO:58/AYENI SAKRAN-ALIAGA/IZMIR",
      "phone": "02326287143",
      "district": "YENİ ŞAKRAN",
      "city": "İzmir",
      "latitude": 38.889168,
      "longitude": 27.065746,
      "dutyStart": "2026-02-14T08:00:00.000Z",
      "dutyEnd": "2026-02-15T08:00:00.000Z"
    },
    {
      "id": "izmir-54-77",
      "name": "PAKSOY ECZANESİ",
      "address": "SOGUKKUYU MAH.1707 SOKAK NO:5/1-A KARSIYAKA",
      "phone": "02323661647",
      "district": "KARŞIYAKA 2",
      "city": "İzmir",
      "latitude": 38.463794,
      "longitude": 27.120399,
      "dutyStart": "2026-02-14T08:00:00.000Z",
      "dutyEnd": "2026-02-15T08:00:00.000Z"
    },
    {
      "id": "izmir-55-78",
      "name": "FİLİZ ANKA ECZANESİ",
      "address": "YALI MH. 6418 SK. NO:92/C ",
      "phone": "02323368881",
      "district": "KARŞIYAKA 3",
      "city": "İzmir",
      "latitude": 38.468026,
      "longitude": 27.091548,
      "dutyStart": "2026-02-14T08:00:00.000Z",
      "dutyEnd": "2026-02-15T08:00:00.000Z"
    },
    {
      "id": "izmir-56-79",
      "name": "AKGÜL ECZANESİ",
      "address": "NERGİZ MAH. 2002 SOK. NO:6/A",
      "phone": "02323689661",
      "district": "KARŞIYAKA 4",
      "city": "İzmir",
      "latitude": 38.45989,
      "longitude": 27.104916,
      "dutyStart": "2026-02-14T08:00:00.000Z",
      "dutyEnd": "2026-02-15T08:00:00.000Z"
    },
    {
      "id": "izmir-57-80",
      "name": "AKSOY ECZANESİ",
      "address": "AKSOY MAH. FAZIL BEY CAD. NO:87",
      "phone": "02323810260",
      "district": "KARŞIYAKA 1",
      "city": "İzmir",
      "latitude": 38.454912,
      "longitude": 27.109034,
      "dutyStart": "2026-02-14T08:00:00.000Z",
      "dutyEnd": "2026-02-15T08:00:00.000Z"
    },
    {
      "id": "izmir-58-82",
      "name": "YUSUF ECZANESİ",
      "address": "MİMAR SİNAN MAH. 1420 SOK. NO:100/D",
      "phone": "02324630894",
      "district": "ALSANCAK",
      "city": "İzmir",
      "latitude": 38.432865,
      "longitude": 27.149753,
      "dutyStart": "2026-02-14T08:00:00.000Z",
      "dutyEnd": "2026-02-15T08:00:00.000Z"
    },
    {
      "id": "izmir-59-83",
      "name": "TUNCA  ECZANESİ",
      "address": "POLİGON MAH. İNÖNÜ CAD. NO:667/A",
      "phone": "02322463779",
      "district": "HATAY",
      "city": "İzmir",
      "latitude": 38.392845,
      "longitude": 27.086847,
      "dutyStart": "2026-02-14T08:00:00.000Z",
      "dutyEnd": "2026-02-15T08:00:00.000Z"
    },
    {
      "id": "izmir-60-84",
      "name": "ÜLKÜM ECZANESİ",
      "address": "34 SOK. NO:10/A GÜZELYALI",
      "phone": "02322461246",
      "district": "MİTHATPAŞA",
      "city": "İzmir",
      "latitude": 38.398154,
      "longitude": 27.079324,
      "dutyStart": "2026-02-14T08:00:00.000Z",
      "dutyEnd": "2026-02-15T08:00:00.000Z"
    },
    {
      "id": "izmir-61-89",
      "name": "FATİH  ECZANESİ",
      "address": "ÇANDARLI MAH. NAMIK KEMAL CAD. NO:10/A",
      "phone": "02326732676",
      "district": "ÇANDARLI",
      "city": "İzmir",
      "latitude": 38.936379,
      "longitude": 26.934386,
      "dutyStart": "2026-02-14T08:00:00.000Z",
      "dutyEnd": "2026-02-15T08:00:00.000Z"
    },
    {
      "id": "izmir-62-101",
      "name": "ORDU ECZANESİ",
      "address": "OSMANGAZİ MH. 597 SK. NO:48/A",
      "phone": "02323418487",
      "district": "ATATÜRK",
      "city": "İzmir",
      "latitude": 38.472052,
      "longitude": 27.187707,
      "dutyStart": "2026-02-14T08:00:00.000Z",
      "dutyEnd": "2026-02-15T08:00:00.000Z"
    },
    {
      "id": "izmir-63-102",
      "name": "GÜLYAKA ECZANESİ",
      "address": "DEVRİM MH.3817 SK. NO:4/C ESKİ-İZMİR",
      "phone": "02322717673",
      "district": "ESKİİZMİR-CENNETÇEŞME",
      "city": "İzmir",
      "latitude": 38.371877,
      "longitude": 27.107846,
      "dutyStart": "2026-02-14T08:00:00.000Z",
      "dutyEnd": "2026-02-15T08:00:00.000Z"
    },
    {
      "id": "izmir-64-103",
      "name": "VEGA ECZANESİ",
      "address": "HALKAPINAR MAH. 1558/1 SOK. NO:4N",
      "phone": "02325029848",
      "district": "ALSANCAK-BASMANE",
      "city": "İzmir",
      "latitude": 38.432112,
      "longitude": 27.161852,
      "dutyStart": "2026-02-14T08:00:00.000Z",
      "dutyEnd": "2026-02-15T08:00:00.000Z"
    },
    {
      "id": "izmir-65-106",
      "name": "SÖZERİ ECZANESİ",
      "address": "MEVLANA MAH. 1754 SOK. NO:38",
      "phone": "02325028612",
      "district": "BORNOVA 4",
      "city": "İzmir",
      "latitude": 38.448071,
      "longitude": 27.229566,
      "dutyStart": "2026-02-14T08:00:00.000Z",
      "dutyEnd": "2026-02-15T08:00:00.000Z"
    },
    {
      "id": "izmir-66-107",
      "name": "ÇAĞIL ECZANESİ",
      "address": "30 AĞUSTOS MAH. 4. CADDE B3 BLOK NO:29/B MENEMEN",
      "phone": "02329999406",
      "district": "MENEMEN 2",
      "city": "İzmir",
      "latitude": 38.550989,
      "longitude": 27.045011,
      "dutyStart": "2026-02-14T08:00:00.000Z",
      "dutyEnd": "2026-02-15T08:00:00.000Z"
    },
    {
      "id": "izmir-67-108",
      "name": "MEHMETÇİK  ECZANESİ",
      "address": "DENİZLİ MAH. 113 SK NO: 3/B ",
      "phone": "02327554027",
      "district": "ÇEŞMEALTI",
      "city": "İzmir",
      "latitude": 38.390634,
      "longitude": 26.747354,
      "dutyStart": "2026-02-14T08:00:00.000Z",
      "dutyEnd": "2026-02-15T08:00:00.000Z"
    },
    {
      "id": "izmir-68-109",
      "name": "URLA BASAR ECZANESİ",
      "address": "M.FEVZI ÇAKMAK MAH. N. KEMAL BULV. NO:27/13",
      "phone": "02327663516",
      "district": "ZEYTİNALANI",
      "city": "İzmir",
      "latitude": 38.368106,
      "longitude": 26.837361,
      "dutyStart": "2026-02-14T08:00:00.000Z",
      "dutyEnd": "2026-02-15T08:00:00.000Z"
    },
    {
      "id": "izmir-69-112",
      "name": "TEOS ECZANESİ",
      "address": "SIGACIK MAH. AKKUM CAD NO 35/A",
      "phone": "02323939831",
      "district": "SEFERİHİSAR-SIĞACIK BÖLGESİ",
      "city": "İzmir",
      "latitude": 38.19121,
      "longitude": 26.784998,
      "dutyStart": "2026-02-14T08:00:00.000Z",
      "dutyEnd": "2026-02-15T08:00:00.000Z"
    },
    {
      "id": "izmir-70-113",
      "name": "ÇAĞLA ECZANESİ",
      "address": "MERSİNALANI MAH. CUMHURİYET CAD. NO:49/A",
      "phone": "02327422000",
      "district": "GÜMÜLDÜR-ÜRKMEZ",
      "city": "İzmir",
      "latitude": 38.079549,
      "longitude": 26.957288,
      "dutyStart": "2026-02-14T08:00:00.000Z",
      "dutyEnd": "2026-02-15T08:00:00.000Z"
    }
  ]
}