{
  "city": "konya",
  "cityName": "Konya",
  "cityId": 42,
  "date": "2026-02-15",
  "updatedAt": "2026-02-15T05:30:16.284Z",
  "count": 33,
  "pharmacies": [
    {
      "id": "konya-0",
      "name": "GÜVEN ECZANESİ",
      "address": "FERHUNİYE MAHALLESİ HASTANE CADDESİ NO:25D SELÇUKLU",
      "phone": "903323520664",
      "district": "Selçuklu",
      "city": "Konya",
      "latitude": 37.8779163,
      "longitude": 32.4905165,
      "dutyStart": "2026-02-15T09:00:00.000Z",
      "dutyEnd": "2026-02-16T09:00:00.000Z"
    },
    {
      "id": "konya-1",
      "name": "YENİ MERVE ECZANESİ",
      "address": "AKŞEMSETTİN MAHALLESİ SARAY CADDESİ NO:6E SELÇUKLU",
      "phone": "903322471655",
      "district": "Selçuklu",
      "city": "Konya",
      "latitude": 37.8850975,
      "longitude": 32.4565366,
      "dutyStart": "2026-02-15T09:00:00.000Z",
      "dutyEnd": "2026-02-16T09:00:00.000Z"
    },
    {
      "id": "konya-2",
      "name": "EROL CAN ECZANESİ",
      "address": "HOCACİHAN MAHALLESİ SARAY CADDESİ NO:107D SELÇUKLU",
      "phone": "903322474377",
      "district": "Meram",
      "city": "Konya",
      "latitude": 37.8903281,
      "longitude": 32.4442961,
      "dutyStart": "2026-02-15T09:00:00.000Z",
      "dutyEnd": "2026-02-16T09:00:00.000Z"
    },
    {
      "id": "konya-3",
      "name": "HAVZAN ECZANESİ",
      "address": "HAVZAN MAHALLESİ KILIKCI SOKAK NO:12B BABİL SOKAK 57A MERAM",
      "phone": "903323221080",
      "district": "Meram",
      "city": "Konya",
      "latitude": 37.8646851,
      "longitude": 32.4666838,
      "dutyStart": "2026-02-15T09:00:00.000Z",
      "dutyEnd": "2026-02-16T09:00:00.000Z"
    },
    {
      "id": "konya-4",
      "name": "BAKIR ECZANESİ",
      "address": "ŞEMS-İ TEBRİZİ MAHALLESİ MEVLANA CADDESİ NO:21A KARATAY",
      "phone": "903323520491",
      "district": "Karatay",
      "city": "Konya",
      "latitude": 37.8724903,
      "longitude": 32.496019,
      "dutyStart": "2026-02-15T09:00:00.000Z",
      "dutyEnd": "2026-02-16T09:00:00.000Z"
    },
    {
      "id": "konya-5",
      "name": "ŞÖLEN ECZANESİ",
      "address": "KONEVİ MAHALLESİ FERİTPAŞA CADDESİ APAK APT. NO:34B MERAM",
      "phone": "903323330011",
      "district": "Meram",
      "city": "Konya",
      "latitude": 37.86715,
      "longitude": 32.48157,
      "dutyStart": "2026-02-15T09:00:00.000Z",
      "dutyEnd": "2026-02-16T09:00:00.000Z"
    },
    {
      "id": "konya-6",
      "name": "REYYAN ECZANESİ",
      "address": "HACIVEYİSZADE MAHALLESİ GÜRŞEHİR SOKAK NO:1B KARATAY",
      "phone": "903323552500",
      "district": "Karatay",
      "city": "Konya",
      "latitude": 37.8772559,
      "longitude": 32.5280636,
      "dutyStart": "2026-02-15T09:00:00.000Z",
      "dutyEnd": "2026-02-16T09:00:00.000Z"
    },
    {
      "id": "konya-7",
      "name": "EMEL ECZANESİ",
      "address": "HÜSAMETTİN ÇELEBİ MAHALLESİ AKABE CADDESİ TÜYBEK ÇARŞISI NO:11D SELÇUKLU",
      "phone": "903322464500",
      "district": "Selçuklu",
      "city": "Konya",
      "latitude": 37.9117163,
      "longitude": 32.4910701,
      "dutyStart": "2026-02-15T09:00:00.000Z",
      "dutyEnd": "2026-02-16T09:00:00.000Z"
    },
    {
      "id": "konya-8",
      "name": "ACAY ECZANESİ",
      "address": "ŞEYH ŞAMİL MAHALLESİ DOÇ.DR.HALİL ÜRÜN CADDESİ KONYA PARK AVM NO:27I SELÇUKLU",
      "phone": "903322412710",
      "district": "Selçuklu",
      "city": "Konya",
      "latitude": 37.9478317,
      "longitude": 32.494432,
      "dutyStart": "2026-02-15T09:00:00.000Z",
      "dutyEnd": "2026-02-16T09:00:00.000Z"
    },
    {
      "id": "konya-9",
      "name": "YENİCEOBA ECZANESİ",
      "address": "BEYHEKİM MAHALLESİ BÜYÜKŞEHİR CADDESİ NO:89I SELÇUKLU",
      "phone": "903323501049",
      "district": "Selçuklu",
      "city": "Konya",
      "latitude": 37.9856327,
      "longitude": 32.4855247,
      "dutyStart": "2026-02-15T09:00:00.000Z",
      "dutyEnd": "2026-02-16T09:00:00.000Z"
    },
    {
      "id": "konya-10",
      "name": "ESEN ECZANESİ",
      "address": "KOSOVA MAHALLESİ ŞERBETCİLER SOKAK NO: 8A SELÇUKLU",
      "phone": "903322611453",
      "district": "Selçuklu",
      "city": "Konya",
      "latitude": 37.9804716,
      "longitude": 32.5214723,
      "dutyStart": "2026-02-15T09:00:00.000Z",
      "dutyEnd": "2026-02-16T09:00:00.000Z"
    },
    {
      "id": "konya-11",
      "name": "ÖNCÜ ECZANESİ",
      "address": "AYDOĞDU MAHALLESİ SÖĞÜTLÜ SOKAK NO:77C MERAM",
      "phone": "903323221901",
      "district": "Karatay",
      "city": "Konya",
      "latitude": 37.8595228,
      "longitude": 32.4825863,
      "dutyStart": "2026-02-15T09:00:00.000Z",
      "dutyEnd": "2026-02-16T09:00:00.000Z"
    },
    {
      "id": "konya-12",
      "name": "ŞEKER ECZANESİ",
      "address": "AHİCELAL MAHALLESİ ULUCAMİ CADDESİ NO:17A",
      "phone": "903328133870",
      "district": "Akşehi̇r",
      "city": "Konya",
      "latitude": 38.3570077,
      "longitude": 31.4118593,
      "dutyStart": "2026-02-15T09:00:00.000Z",
      "dutyEnd": "2026-02-16T09:00:00.000Z"
    },
    {
      "id": "konya-13",
      "name": "ERDEM ECZANESİ",
      "address": "ALTUNKALEM MAHALLESİ 28616.SOKAK NO:20A",
      "phone": "903328123828",
      "district": "Akşehi̇r",
      "city": "Konya",
      "latitude": 38.3639439,
      "longitude": 31.4154932,
      "dutyStart": "2026-02-15T09:00:00.000Z",
      "dutyEnd": "2026-02-16T09:00:00.000Z"
    },
    {
      "id": "konya-14",
      "name": "ELMALI ECZANESİ",
      "address": "ÖLMEZ MAHALLESİ MİLLET CADDESİ NO:10A",
      "phone": "903326312089",
      "district": "Altineki̇n",
      "city": "Konya",
      "latitude": 38.3072096,
      "longitude": 32.8632408,
      "dutyStart": "2026-02-15T09:00:00.000Z",
      "dutyEnd": "2026-02-16T09:00:00.000Z"
    },
    {
      "id": "konya-15",
      "name": "HARMAN ECZANESİ",
      "address": "EVSAT MAHALLESİ ORHAN ÖZGÜR CADDESİ NO:25B",
      "phone": "903325120012",
      "district": "Beyşehi̇r",
      "city": "Konya",
      "latitude": 37.6772604,
      "longitude": 31.7258945,
      "dutyStart": "2026-02-15T09:00:00.000Z",
      "dutyEnd": "2026-02-16T09:00:00.000Z"
    },
    {
      "id": "konya-16",
      "name": "DEMİRÖZ ECZANESİ",
      "address": "YUKARI MAHALLE FEVZİ PAŞA CADDESİ NO:21G",
      "phone": "903324263383",
      "district": "Bozkir",
      "city": "Konya",
      "latitude": 37.1891307,
      "longitude": 32.2434062,
      "dutyStart": "2026-02-15T09:00:00.000Z",
      "dutyEnd": "2026-02-16T09:00:00.000Z"
    },
    {
      "id": "konya-17",
      "name": "MURAT ECZANESİ",
      "address": "ATÇEKEN MAHALLESİ KONYA CADDESİ ÖZEL İDARE DÜKKANLARI NO:25C",
      "phone": "903326731260",
      "district": "Ci̇hanbeyli̇",
      "city": "Konya",
      "latitude": 38.6582373,
      "longitude": 32.9206752,
      "dutyStart": "2026-02-15T09:00:00.000Z",
      "dutyEnd": "2026-02-16T09:00:00.000Z"
    },
    {
      "id": "konya-18",
      "name": "DİYDEM ECZANESİ",
      "address": "YENİCEOBA MAH. YENİCEOBA CAD. NO:61C",
      "phone": "903326761114",
      "district": "Ci̇hanbeyli̇",
      "city": "Konya",
      "latitude": 38.87074,
      "longitude": 32.79009,
      "dutyStart": "2026-02-15T09:00:00.000Z",
      "dutyEnd": "2026-02-16T09:00:00.000Z"
    },
    {
      "id": "konya-19",
      "name": "GÜLLECİ ECZANESİ",
      "address": "BAHÇELİEVLER MAHALLESİ 70619.SOKAK NO:6A",
      "phone": "903328712777",
      "district": "Çelti̇k",
      "city": "Konya",
      "latitude": 39.0254425,
      "longitude": 31.7994425,
      "dutyStart": "2026-02-15T09:00:00.000Z",
      "dutyEnd": "2026-02-16T09:00:00.000Z"
    },
    {
      "id": "konya-20",
      "name": "BAĞCI ECZANESİ",
      "address": "İZZETBEY MAHALLESİ GAZİ CADDESİ NO:10A",
      "phone": "903324472266",
      "district": "Çumra",
      "city": "Konya",
      "latitude": 37.5718782,
      "longitude": 32.7798728,
      "dutyStart": "2026-02-15T09:00:00.000Z",
      "dutyEnd": "2026-02-16T09:00:00.000Z"
    },
    {
      "id": "konya-21",
      "name": "AKARSU ECZANESİ",
      "address": "KUZ MAHALLESİ İSMET PAŞA CADDESİ NO:43B",
      "phone": "903325561100",
      "district": "Doğanhi̇sar",
      "city": "Konya",
      "latitude": 38.14401,
      "longitude": 31.67833,
      "dutyStart": "2026-02-15T09:00:00.000Z",
      "dutyEnd": "2026-02-16T09:00:00.000Z"
    },
    {
      "id": "konya-22",
      "name": "AYRANCI ECZANESİ",
      "address": "HACIMUTAHİR MAHALLESİ RASİM EREL CADDESİ MELEK APARTMANI NO:16B",
      "phone": "903327132063",
      "district": "Ereğli̇",
      "city": "Konya",
      "latitude": 37.5113372,
      "longitude": 34.0487315,
      "dutyStart": "2026-02-15T09:00:00.000Z",
      "dutyEnd": "2026-02-16T09:00:00.000Z"
    },
    {
      "id": "konya-23",
      "name": "SANCIOĞLU ECZANESİ",
      "address": "ÜÇGÖZ MH. 90616. SOKAK NO:7A",
      "phone": "903327129495",
      "district": "Ereğli̇",
      "city": "Konya",
      "latitude": 37.50753,
      "longitude": 34.03965,
      "dutyStart": "2026-02-15T09:00:00.000Z",
      "dutyEnd": "2026-02-16T09:00:00.000Z"
    },
    {
      "id": "konya-24",
      "name": "DERYA ECZANESİ",
      "address": "BAHÇELİEVLER MAHALLESİ 110216. SOKAK NO:9A",
      "phone": "903325431366",
      "district": "Hüyük",
      "city": "Konya",
      "latitude": 37.9529379,
      "longitude": 31.5975694,
      "dutyStart": "2026-02-15T09:00:00.000Z",
      "dutyEnd": "2026-02-16T09:00:00.000Z"
    },
    {
      "id": "konya-25",
      "name": "DERMAN ECZANESİ",
      "address": "FATİH MAHALLESİ DR. VEHBİ KÜTÜKÇÜ CADDESİ NO:26B",
      "phone": "903328813070",
      "district": "Ilgin",
      "city": "Konya",
      "latitude": 38.28115,
      "longitude": 31.90788,
      "dutyStart": "2026-02-15T09:00:00.000Z",
      "dutyEnd": "2026-02-16T09:00:00.000Z"
    },
    {
      "id": "konya-26",
      "name": "GÜZEŞ ECZANESİ",
      "address": "ÜNVEREN MAHALLESİ KONYA CADDESİ NO:169A",
      "phone": "903328342878",
      "district": "Kadinhani",
      "city": "Konya",
      "latitude": 38.2399686,
      "longitude": 32.2113611,
      "dutyStart": "2026-02-15T09:00:00.000Z",
      "dutyEnd": "2026-02-16T09:00:00.000Z"
    },
    {
      "id": "konya-27",
      "name": "YALÇINÖZ ECZANESİ",
      "address": "ULUS MAHALLESİ 133215. SOKAK NO:2C",
      "phone": "903327552266",
      "district": "Karapinar",
      "city": "Konya",
      "latitude": 37.7134042,
      "longitude": 33.5653383,
      "dutyStart": "2026-02-15T09:00:00.000Z",
      "dutyEnd": "2026-02-16T09:00:00.000Z"
    },
    {
      "id": "konya-28",
      "name": "ERDOĞAN ECZANESİ",
      "address": "ALPARSLAN MAHALLESİ ANKARA CADDESİ NO:2249B",
      "phone": "903326416834",
      "district": "Kulu",
      "city": "Konya",
      "latitude": 39.1049,
      "longitude": 33.08144,
      "dutyStart": "2026-02-15T09:00:00.000Z",
      "dutyEnd": "2026-02-16T09:00:00.000Z"
    },
    {
      "id": "konya-29",
      "name": "ANADOLU ECZANESİ",
      "address": "DOĞU İSTASYON MH. YALÇIN CD. NO:6",
      "phone": "905454924245",
      "district": "Sarayönü",
      "city": "Konya",
      "latitude": 38.26073,
      "longitude": 32.40702,
      "dutyStart": "2026-02-15T09:00:00.000Z",
      "dutyEnd": "2026-02-16T09:00:00.000Z"
    },
    {
      "id": "konya-30",
      "name": "HAYAT ECZANESİ",
      "address": "HACISEYİTALİ MAHALLESİ ATATÜRK CADDESİ NO:14A",
      "phone": "903325821241",
      "district": "Seydi̇şehi̇r",
      "city": "Konya",
      "latitude": 37.4207652,
      "longitude": 31.8451087,
      "dutyStart": "2026-02-15T09:00:00.000Z",
      "dutyEnd": "2026-02-16T09:00:00.000Z"
    },
    {
      "id": "konya-31",
      "name": "TUZLUKÇU ECZANESİ",
      "address": "AŞAĞI MAHALLESİ AKŞEHİR CADDESİ NO:38",
      "phone": "903328612866",
      "district": "Tuzlukçu",
      "city": "Konya",
      "latitude": 38.4760048,
      "longitude": 31.6266913,
      "dutyStart": "2026-02-15T09:00:00.000Z",
      "dutyEnd": "2026-02-16T09:00:00.000Z"
    },
    {
      "id": "konya-32",
      "name": "KURTOĞLU ECZANESİ",
      "address": "YENİ MAHALLE BADEMLİK CADDESİ NO:6B",
      "phone": "903328512115",
      "district": "Yunak",
      "city": "Konya",
      "latitude": 38.8142305,
      "longitude": 31.7340919,
      "dutyStart": "2026-02-15T09:00:00.000Z",
      "dutyEnd": "2026-02-16T09:00:00.000Z"
    }
  ]
}