{
  "city": "sinop",
  "cityName": "Sinop",
  "cityId": 57,
  "date": "2026-02-15",
  "updatedAt": "2026-02-15T17:30:12.581Z",
  "count": 6,
  "pharmacies": [
    {
      "id": "sinop-21",
      "name": "KARADENİZ ECZANESİ",
      "address": "GELİNCİK MAH.FATİH CAD.NO.35",
      "phone": "03682600018",
      "district": "Merkez",
      "city": "Sinop",
      "latitude": 42.022404,
      "longitude": 35.13694,
      "dutyStart": "2026-02-15T08:30:00.000Z",
      "dutyEnd": "2026-02-16T08:30:00.000Z"
    },
    {
      "id": "sinop-22",
      "name": "SIHHAT  ECZANESİ",
      "address": "PROF DR.SEDAT DEMİRCAN NO:33/A",
      "phone": "03686131025",
      "district": "Ayancık",
      "city": "Sinop",
      "latitude": 41.944662,
      "longitude": 34.587367,
      "dutyStart": "2026-02-15T08:30:00.000Z",
      "dutyEnd": "2026-02-16T08:30:00.000Z"
    },
    {
      "id": "sinop-23",
      "name": "COŞKUN ECZANESİ",
      "address": "ÇAMLICA MAH. EROL DEMİRKOL CAD. HASTANE ALTI NO:1",
      "phone": "03683155632",
      "district": "Boyabat",
      "city": "Sinop",
      "latitude": 41.463476,
      "longitude": 34.783555,
      "dutyStart": "2026-02-15T08:30:00.000Z",
      "dutyEnd": "2026-02-16T08:30:00.000Z"
    },
    {
      "id": "sinop-24",
      "name": "TEK ECZANESİ",
      "address": "MERKEZ MAH. YUSUF KEMAL TENGİRŞEK CAD. NO:28/A",
      "phone": "03684161152",
      "district": "Durağan",
      "city": "Sinop",
      "latitude": 41.419541,
      "longitude": 35.053398,
      "dutyStart": "2026-02-15T08:30:00.000Z",
      "dutyEnd": "2026-02-16T08:30:00.000Z"
    },
    {
      "id": "sinop-25",
      "name": "ŞİFA ECZANESİ",
      "address": "MERKEZ MAH. CUMHURİYET CAD. NO:2",
      "phone": "03685112115",
      "district": "Erfelek",
      "city": "Sinop",
      "latitude": 41.879563,
      "longitude": 34.907843,
      "dutyStart": "2026-02-15T08:30:00.000Z",
      "dutyEnd": "2026-02-16T08:30:00.000Z"
    },
    {
      "id": "sinop-26",
      "name": "YENİCE  ECZANESİ",
      "address": "HAMİDİYE MAH.VATAN BULVARI NO:38/A",
      "phone": "03687184885",
      "district": "Gerze",
      "city": "Sinop",
      "latitude": 41.804071,
      "longitude": 35.195071,
      "dutyStart": "2026-02-15T08:30:00.000Z",
      "dutyEnd": "2026-02-16T08:30:00.000Z"
    }
  ]
}