{
  "city": "kocaeli",
  "cityName": "Kocaeli",
  "cityId": 41,
  "date": "2026-02-22",
  "updatedAt": "2026-02-22T13:00:38.918Z",
  "count": 23,
  "pharmacies": [
    {
      "id": "kocaeli-0",
      "name": "NEŞEM ECZANESİ",
      "address": "ÖMERAĞA MAH. ALEMDAR CAD. NO:34/C İZMİT",
      "phone": "02623213515",
      "district": "İzmit",
      "city": "Kocaeli",
      "latitude": 40.764506,
      "longitude": 29.928389,
      "dutyStart": "2026-02-22T08:30:00.000Z",
      "dutyEnd": "2026-02-23T08:30:00.000Z"
    },
    {
      "id": "kocaeli-1",
      "name": "YILMAZ ECZANESİ",
      "address": "CEDİT MAH. DEVLET HASTANESI SOK. NO:16 İZMİT",
      "phone": "02623252757",
      "district": "İzmit",
      "city": "Kocaeli",
      "latitude": 40.767327,
      "longitude": 29.937437,
      "dutyStart": "2026-02-22T08:30:00.000Z",
      "dutyEnd": "2026-02-23T08:30:00.000Z"
    },
    {
      "id": "kocaeli-2",
      "name": "HATİCE ECZANESİ",
      "address": "MEHMET ALİ PAŞA MAH.TURAN GÜNEŞ CAD. NO:230/A İZMİT",
      "phone": "02623236628",
      "district": "İzmit",
      "city": "Kocaeli",
      "latitude": 40.772245,
      "longitude": 29.950858,
      "dutyStart": "2026-02-22T08:30:00.000Z",
      "dutyEnd": "2026-02-23T08:30:00.000Z"
    },
    {
      "id": "kocaeli-3",
      "name": "MELEK ECZANESİ",
      "address": "YENI MAH. INKILAP CAD. NO:2/B İZMİT",
      "phone": "02622262554",
      "district": "İzmit",
      "city": "Kocaeli",
      "latitude": 40.764093,
      "longitude": 29.887777,
      "dutyStart": "2026-02-22T08:30:00.000Z",
      "dutyEnd": "2026-02-23T08:30:00.000Z"
    },
    {
      "id": "kocaeli-4",
      "name": "MERCAN ECZANESİ",
      "address": "GÜNDOĞDU MAH.BOĞAZOVA CAD.A BLOK NO:11/C",
      "phone": "02623224243",
      "district": "İzmit",
      "city": "Kocaeli",
      "latitude": 40.787622,
      "longitude": 29.957493,
      "dutyStart": "2026-02-22T08:30:00.000Z",
      "dutyEnd": "2026-02-23T08:30:00.000Z"
    },
    {
      "id": "kocaeli-5",
      "name": "CEYLAN ECZANESİ",
      "address": "YENİKÖY MERKEZ MAH.TEKNOPARK CAD.NO:5/A",
      "phone": "02623412542",
      "district": "Başiskele",
      "city": "Kocaeli",
      "latitude": 40.701314,
      "longitude": 29.884423,
      "dutyStart": "2026-02-22T08:30:00.000Z",
      "dutyEnd": "2026-02-23T08:30:00.000Z"
    },
    {
      "id": "kocaeli-6",
      "name": "MENDERES ECZANESİ",
      "address": "YENİ MAH. ABDURRAHMAN KORHAN CAD. NO:7/A",
      "phone": "02627422288",
      "district": "Çayırova",
      "city": "Kocaeli",
      "latitude": 40.827835,
      "longitude": 29.37277,
      "dutyStart": "2026-02-22T08:30:00.000Z",
      "dutyEnd": "2026-02-23T08:30:00.000Z"
    },
    {
      "id": "kocaeli-7",
      "name": "MELİS ECZANESİ",
      "address": "ATATÜRK MAH.MUAMMER AKSOY CAD.NO:93/B ÇAYIROVA",
      "phone": "02625026678",
      "district": "Çayırova",
      "city": "Kocaeli",
      "latitude": 40.837271,
      "longitude": 29.386546,
      "dutyStart": "2026-02-22T08:30:00.000Z",
      "dutyEnd": "2026-02-23T08:30:00.000Z"
    },
    {
      "id": "kocaeli-8",
      "name": "PINAR ECZANESİ",
      "address": "KAZIM KARABEKİR MAH. ŞEHİT TAHSİN SARITOSUN CAD. NO:155/A DARICA",
      "phone": "02627450303",
      "district": "Darıca",
      "city": "Kocaeli",
      "latitude": 40.774799,
      "longitude": 29.386671,
      "dutyStart": "2026-02-22T08:30:00.000Z",
      "dutyEnd": "2026-02-23T08:30:00.000Z"
    },
    {
      "id": "kocaeli-9",
      "name": "CANSU ECZANESİ",
      "address": "FEVZİ ÇAKMAK MAH.DR. ZEKİ ACAR CAD. NO:75/3B DARICA",
      "phone": "02626550461",
      "district": "Kartepe",
      "city": "Kocaeli",
      "latitude": 40.7725,
      "longitude": 29.406946,
      "dutyStart": "2026-02-22T08:30:00.000Z",
      "dutyEnd": "2026-02-23T08:30:00.000Z"
    },
    {
      "id": "kocaeli-10",
      "name": "EFE ECZANESİ",
      "address": "FATİH SULTAN MEHMET MAH.DEMOKRASİ CAD.NO:10/B",
      "phone": "02625038173",
      "district": "Gebze",
      "city": "Kocaeli",
      "latitude": 40.737418,
      "longitude": 30.013042,
      "dutyStart": "2026-02-22T08:30:00.000Z",
      "dutyEnd": "2026-02-23T08:30:00.000Z"
    },
    {
      "id": "kocaeli-11",
      "name": "ANİBAL ECZANESİ",
      "address": "SULTAN ORHAN MAH. HÜKÜMET CAD. NO:129/A",
      "phone": "02626460656",
      "district": "Gebze",
      "city": "Kocaeli",
      "latitude": 40.797438,
      "longitude": 29.439789,
      "dutyStart": "2026-02-22T08:30:00.000Z",
      "dutyEnd": "2026-02-23T08:30:00.000Z"
    },
    {
      "id": "kocaeli-12",
      "name": "PETEK ECZANESİ",
      "address": "GÜZELLER MAH. KAVAK CAD. NO:3/A GEBZE",
      "phone": "02626422310",
      "district": "Gebze",
      "city": "Kocaeli",
      "latitude": 40.803948,
      "longitude": 29.439929,
      "dutyStart": "2026-02-22T08:30:00.000Z",
      "dutyEnd": "2026-02-23T08:30:00.000Z"
    },
    {
      "id": "kocaeli-13",
      "name": "SEDA ECZANESİ",
      "address": "OSMAN YILMAZ MAH. İSTANBUL CAD. NO:24/A GEBZE",
      "phone": "02627450432",
      "district": "Gölcük",
      "city": "Kocaeli",
      "latitude": 40.789208,
      "longitude": 29.420167,
      "dutyStart": "2026-02-22T08:30:00.000Z",
      "dutyEnd": "2026-02-23T08:30:00.000Z"
    },
    {
      "id": "kocaeli-14",
      "name": "DİLAY ECZANESİ",
      "address": "MERKEZ MAH. MERASAL FEVZI ÇAKMAK CAD. NO:2",
      "phone": "02624126060",
      "district": "Gebze",
      "city": "Kocaeli",
      "latitude": 40.721581,
      "longitude": 29.818885,
      "dutyStart": "2026-02-22T08:30:00.000Z",
      "dutyEnd": "2026-02-23T08:30:00.000Z"
    },
    {
      "id": "kocaeli-15",
      "name": "ÇAĞRI ECZANESİ",
      "address": "YAVUZ SELİM MAH. SELİMPAŞA CAD. NO:84/A GEBZE KOCAELİ",
      "phone": "05418088261",
      "district": "Gölcük",
      "city": "Kocaeli",
      "latitude": 40.813775,
      "longitude": 29.399859,
      "dutyStart": "2026-02-22T08:30:00.000Z",
      "dutyEnd": "2026-02-23T08:30:00.000Z"
    },
    {
      "id": "kocaeli-16",
      "name": "SELÇUK ECZANESİ",
      "address": "DEĞİRMENDERE MERKEZ MAH.PROF.NUSRET FİŞEK CAD.NURSEL APT.NO:22/A",
      "phone": "02625036074",
      "district": "Gölcük",
      "city": "Kocaeli",
      "latitude": 40.718384,
      "longitude": 29.793804,
      "dutyStart": "2026-02-22T08:30:00.000Z",
      "dutyEnd": "2026-02-23T08:30:00.000Z"
    },
    {
      "id": "kocaeli-17",
      "name": "BÜYÜK ECZANESİ",
      "address": "ÇİFTLİK MAH.HASTANE CAD.NO:74/B İHSANİYE",
      "phone": "02624357722",
      "district": "Kandıra",
      "city": "Kocaeli",
      "latitude": 40.706189,
      "longitude": 29.838791,
      "dutyStart": "2026-02-22T08:30:00.000Z",
      "dutyEnd": "2026-02-23T08:30:00.000Z"
    },
    {
      "id": "kocaeli-18",
      "name": "ŞİFA ECZANESİ",
      "address": "ÇARŞI MAH.CUMHURİYET CAD.GÖKTAŞLAR İŞHANI NO:14/B KANDIRA",
      "phone": "02625515557",
      "district": "Karamürsel",
      "city": "Kocaeli",
      "latitude": 41.069138,
      "longitude": 30.152903,
      "dutyStart": "2026-02-22T08:30:00.000Z",
      "dutyEnd": "2026-02-23T08:30:00.000Z"
    },
    {
      "id": "kocaeli-19",
      "name": "ÇAĞDAŞ ECZANESİ",
      "address": "KAYACIK MAH. SAĞLIK SOK. NO:6/B KARAMÜRSEL",
      "phone": "02624545413",
      "district": "Körfez",
      "city": "Kocaeli",
      "latitude": 40.689036,
      "longitude": 29.606714,
      "dutyStart": "2026-02-22T08:30:00.000Z",
      "dutyEnd": "2026-02-23T08:30:00.000Z"
    },
    {
      "id": "kocaeli-20",
      "name": "BARIŞ ECZANESİ",
      "address": "ÇAMLITEPE MAH.MEDİNE SOK.NO:1/B",
      "phone": "02625274969",
      "district": "Körfez",
      "city": "Kocaeli",
      "latitude": 40.774856,
      "longitude": 29.776091,
      "dutyStart": "2026-02-22T08:30:00.000Z",
      "dutyEnd": "2026-02-23T08:30:00.000Z"
    },
    {
      "id": "kocaeli-21",
      "name": "AYŞENUR ECZANESİ",
      "address": "MİMAR SİNAN MAH.MEHMET AKİF ERSOY CAD.TÜRKÖZ APT.NO:122/J KÖRFEZ",
      "phone": "02625284707",
      "district": "Derince",
      "city": "Kocaeli",
      "latitude": 40.770587,
      "longitude": 29.750996,
      "dutyStart": "2026-02-22T08:30:00.000Z",
      "dutyEnd": "2026-02-23T08:30:00.000Z"
    },
    {
      "id": "kocaeli-22",
      "name": "AYDINLIK ECZANESİ",
      "address": "SIRRIPAŞA MAH.DENİZCİLER CAD.NO:153/B-C",
      "phone": "02622293429",
      "district": "İzmit",
      "city": "Kocaeli",
      "latitude": 40.757113,
      "longitude": 29.826099,
      "dutyStart": "2026-02-22T08:30:00.000Z",
      "dutyEnd": "2026-02-23T08:30:00.000Z"
    }
  ]
}