{
  "city": "sinop",
  "cityName": "Sinop",
  "cityId": 57,
  "date": "2026-02-22",
  "updatedAt": "2026-02-21T21:30:51.912Z",
  "count": 6,
  "pharmacies": [
    {
      "id": "sinop-20",
      "name": "NİHAL ECZANESİ",
      "address": "KEFEVİ MAH. DERVİŞ SARABİL CAD. NO:27/B",
      "phone": "03685021011",
      "district": "Merkez",
      "city": "Sinop",
      "latitude": 42.027778,
      "longitude": 35.156522,
      "dutyStart": "2026-02-21T08:30:00.000Z",
      "dutyEnd": "2026-02-22T08:30:00.000Z"
    },
    {
      "id": "sinop-21",
      "name": "ÖNSOY  ECZANESİ",
      "address": "YALI MAH. KÖPRÜBAŞI CAD. 39/C",
      "phone": "03686131203",
      "district": "Ayancık",
      "city": "Sinop",
      "latitude": 41.944466,
      "longitude": 34.587336,
      "dutyStart": "2026-02-21T08:30:00.000Z",
      "dutyEnd": "2026-02-22T08:30:00.000Z"
    },
    {
      "id": "sinop-22",
      "name": "YAŞAM  ECZANESİ",
      "address": "CAMİKEBİR MAH. TELGRAFÇI SOK. NO:22",
      "phone": "03685020744",
      "district": "Boyabat",
      "city": "Sinop",
      "latitude": 41.465634,
      "longitude": 34.772914,
      "dutyStart": "2026-02-21T08:30:00.000Z",
      "dutyEnd": "2026-02-22T08:30:00.000Z"
    },
    {
      "id": "sinop-23",
      "name": "ERDOĞAN  ECZANESİ",
      "address": "MERKEZ MAH. YUSUF KEMAL TENGİRŞEK CAD. NO:30",
      "phone": "03684162277",
      "district": "Durağan",
      "city": "Sinop",
      "latitude": 41.419614,
      "longitude": 35.053526,
      "dutyStart": "2026-02-21T08:30:00.000Z",
      "dutyEnd": "2026-02-22T08:30:00.000Z"
    },
    {
      "id": "sinop-24",
      "name": "KUMSAL ECZANESİ",
      "address": "MERKEZ MAH. ÇINARLIK CAD. NO:20/B",
      "phone": "03685112000",
      "district": "Erfelek",
      "city": "Sinop",
      "latitude": 41.879619,
      "longitude": 34.890881,
      "dutyStart": "2026-02-21T08:30:00.000Z",
      "dutyEnd": "2026-02-22T08:30:00.000Z"
    },
    {
      "id": "sinop-25",
      "name": "YENİCE  ECZANESİ",
      "address": "HAMİDİYE MAH.VATAN BULVARI NO:38/A",
      "phone": "03687184885",
      "district": "Gerze",
      "city": "Sinop",
      "latitude": 41.804071,
      "longitude": 35.195071,
      "dutyStart": "2026-02-21T08:30:00.000Z",
      "dutyEnd": "2026-02-22T08:30:00.000Z"
    }
  ]
}