{
  "city": "ankara",
  "cityName": "Ankara",
  "cityId": 6,
  "date": "2026-02-17",
  "updatedAt": "2026-02-17T12:30:06.666Z",
  "count": 57,
  "pharmacies": [
    {
      "id": "ankara-0",
      "name": "GÜN ECZANESİ",
      "address": "Cevizlidere Mah.1283 Sok. No:6/A Balgat/ Çankaya/ANKARA , Ehlibeyt Sağ.Ocağı-(1228 -1283 Sk.) 03124727778",
      "phone": "03124727778",
      "district": "Çankaya",
      "city": "Ankara",
      "latitude": 39.885228159868,
      "longitude": 32.819917201996,
      "dutyStart": "2026-02-17T08:30:00.000Z",
      "dutyEnd": "2026-02-18T08:30:00.000Z"
    },
    {
      "id": "ankara-1",
      "name": "GÖKSU ECZANESİ",
      "address": "Bahçelievler Mah. Kazakistan Cad.No:1/19 (1/B) Çankaya/ANKARA , Gazi Ünv.Tıp Fak.Hastanesi Karşısı 03122131897",
      "phone": "03122131897",
      "district": "Çankaya",
      "city": "Ankara",
      "latitude": 39.932487353088,
      "longitude": 32.823125123978,
      "dutyStart": "2026-02-17T08:30:00.000Z",
      "dutyEnd": "2026-02-18T08:30:00.000Z"
    },
    {
      "id": "ankara-2",
      "name": "ŞİFA PINARI ECZANESİ",
      "address": "Mehmet Akif Ersoy Mah.Vatan Cad. No:96/D Yenimahalle/ ANKARA , Ankara Onkoloji Hastanesi kar. 03123460770",
      "phone": "03123460770",
      "district": "Yenimahalle",
      "city": "Ankara",
      "latitude": 39.970063615899,
      "longitude": 32.781191468239,
      "dutyStart": "2026-02-17T08:30:00.000Z",
      "dutyEnd": "2026-02-18T08:30:00.000Z"
    },
    {
      "id": "ankara-3",
      "name": "ŞENTEPE IHLAMUR ECZANESİ",
      "address": "Burç Mah. Seval Cad. No:82/A Yenimahalle/ANKARA , Adile Naşit Gündüz Bakımevi Karşısı 03125117485",
      "phone": "03125117485",
      "district": "Yenimahalle",
      "city": "Ankara",
      "latitude": 39.987923347379,
      "longitude": 32.801616214037,
      "dutyStart": "2026-02-17T08:30:00.000Z",
      "dutyEnd": "2026-02-18T08:30:00.000Z"
    },
    {
      "id": "ankara-4",
      "name": "DOĞRU ECZANESİ",
      "address": "Ertuğrulgazi Mah.Münzeviler Cad.No:30/B Akdere/ Mamak/ANKARA , Çeşme Durağı Kar.50.Yıl Park Çevresi 05075918388",
      "phone": "05075918388",
      "district": "Mamak",
      "city": "Ankara",
      "latitude": 39.924232203953,
      "longitude": 32.88172736764,
      "dutyStart": "2026-02-17T08:30:00.000Z",
      "dutyEnd": "2026-02-18T08:30:00.000Z"
    },
    {
      "id": "ankara-5",
      "name": "BUĞRAHAN ECZANESİ",
      "address": "Tuzluçayır Mah. Natoyolu Cad. No:23/A Mamak/ANKARA , Veli Gündüz Şahin ASM karşısı 03123655875",
      "phone": "03123655875",
      "district": "Mamak",
      "city": "Ankara",
      "latitude": 39.922281140634,
      "longitude": 32.905055880547,
      "dutyStart": "2026-02-17T08:30:00.000Z",
      "dutyEnd": "2026-02-18T08:30:00.000Z"
    },
    {
      "id": "ankara-6",
      "name": "TUĞBA ECZANESİ",
      "address": "Sancak Mah. Konrad Adenauer Cad. No:1/B Çankaya / ANKARA , (Kahire Cad. No:46) 03124383726",
      "phone": "03124383726",
      "district": "Çankaya",
      "city": "Ankara",
      "latitude": 39.869349823611,
      "longitude": 32.867360115051,
      "dutyStart": "2026-02-17T08:30:00.000Z",
      "dutyEnd": "2026-02-18T08:30:00.000Z"
    },
    {
      "id": "ankara-7",
      "name": "ASAL ECZANESİ",
      "address": "100.Yıl Mah. Bağlar Cad. No:228/C Büyükesat /Çankaya/ ANKARA , 03124464323",
      "phone": "03124464323",
      "district": "Çankaya",
      "city": "Ankara",
      "latitude": 39.899366129073,
      "longitude": 32.875299453735,
      "dutyStart": "2026-02-17T08:30:00.000Z",
      "dutyEnd": "2026-02-18T08:30:00.000Z"
    },
    {
      "id": "ankara-8",
      "name": "MEDİCAGO KIZILAY ECZANESİ",
      "address": "Cumhuriyet Mah. Atatürk Bulvarı No:67/K Kızılay/ Çankaya/ ANKARA , 03124313141",
      "phone": "03124313141",
      "district": "Çankaya",
      "city": "Ankara",
      "latitude": 39.923650593372,
      "longitude": 32.854641079903,
      "dutyStart": "2026-02-17T08:30:00.000Z",
      "dutyEnd": "2026-02-18T08:30:00.000Z"
    },
    {
      "id": "ankara-9",
      "name": "KEREM ECZANESİ",
      "address": "Hacettepe Mah. Dumlupınar Cad. Sarıkadın Sok. No:67 Altındağ/ ANKARA , Hacettepe Onkoloji yan tarafı 03123090116",
      "phone": "03123090116",
      "district": "Altındağ",
      "city": "Ankara",
      "latitude": 39.929976821475,
      "longitude": 32.867912060674,
      "dutyStart": "2026-02-17T08:30:00.000Z",
      "dutyEnd": "2026-02-18T08:30:00.000Z"
    },
    {
      "id": "ankara-10",
      "name": "CEREN ECZANESİ",
      "address": "İncirli Mah. Refik Saydam Cad No:11/B Keçiören/Ankara , 03123525758",
      "phone": "03123525758",
      "district": "Keçiören",
      "city": "Ankara",
      "latitude": 39.981732214677,
      "longitude": 32.847393751144,
      "dutyStart": "2026-02-17T08:30:00.000Z",
      "dutyEnd": "2026-02-18T08:30:00.000Z"
    },
    {
      "id": "ankara-11",
      "name": "SEVDE ECZANESİ",
      "address": "General Dr.Tevfik Sağlam Cad.No:7/B Etlik /Keçiören/ ANKARA , Gülhane Hastanesi Karşısı 03123520662",
      "phone": "03123520662",
      "district": "Keçiören",
      "city": "Ankara",
      "latitude": 39.969128315209,
      "longitude": 32.840961813927,
      "dutyStart": "2026-02-17T08:30:00.000Z",
      "dutyEnd": "2026-02-18T08:30:00.000Z"
    },
    {
      "id": "ankara-12",
      "name": "GÜLCAN GÜZEL ECZANESİ",
      "address": "Başpınar Mah. Orhan Kemal Cad. No:65/G Altındağ/ ANKARA , Nettuning Karşısı-Bilal Habeşi Cami 03123751209",
      "phone": "03123751209",
      "district": "Altındağ",
      "city": "Ankara",
      "latitude": 39.968153944397,
      "longitude": 32.921946364131,
      "dutyStart": "2026-02-17T08:30:00.000Z",
      "dutyEnd": "2026-02-18T08:30:00.000Z"
    },
    {
      "id": "ankara-13",
      "name": "AHSEN ECZANESİ",
      "address": "Yeşilöz Mah. 490. Cad. (Nuri Paşa Cad) No:2/A Keçiören/ ANKARA , Fixgross Karşısı 03123386333",
      "phone": "03123386333",
      "district": "Keçiören",
      "city": "Ankara",
      "latitude": 39.983935397404,
      "longitude": 32.889461517334,
      "dutyStart": "2026-02-17T08:30:00.000Z",
      "dutyEnd": "2026-02-18T08:30:00.000Z"
    },
    {
      "id": "ankara-14",
      "name": "OYA ECZANESİ",
      "address": "Sanatoryum Cad. No: 222/D Keçiören / ANKARA , Sanatoryum Hastanesi Karşısı 03123579695",
      "phone": "03123579695",
      "district": "Keçiören",
      "city": "Ankara",
      "latitude": 39.999446094402,
      "longitude": 32.856813669205,
      "dutyStart": "2026-02-17T08:30:00.000Z",
      "dutyEnd": "2026-02-18T08:30:00.000Z"
    },
    {
      "id": "ankara-15",
      "name": "ATABEK ECZANESİ",
      "address": "Aziziye Mah. Cinnah Cad. No:52/B Çankaya /ANKARA , 03124426944",
      "phone": "03124426944",
      "district": "Çankaya",
      "city": "Ankara",
      "latitude": 39.893291481274,
      "longitude": 32.856333553791,
      "dutyStart": "2026-02-17T08:30:00.000Z",
      "dutyEnd": "2026-02-18T08:30:00.000Z"
    },
    {
      "id": "ankara-16",
      "name": "NOVA ÇINAR ECZANESİ",
      "address": "Mustafa Kemal Mah. Dumlupınar Bulvarı No:274/8B , Mahall Ankara - Bilkent Şehir Hastanesi karşısı 03124331728",
      "phone": "03124331728",
      "district": "Ankara",
      "city": "Ankara",
      "latitude": 39.908672547949,
      "longitude": 32.75349766016,
      "dutyStart": "2026-02-17T08:30:00.000Z",
      "dutyEnd": "2026-02-18T08:30:00.000Z"
    },
    {
      "id": "ankara-17",
      "name": "SARP ECZANESİ",
      "address": "Aydınlar Mah. Hürriyet Cad. No:164/A-B Çankaya/ANKARA , 29 Mayıs Hast.Acil Çıkışının 160mt aşağısı 03124790090",
      "phone": "03124790090",
      "district": "Çankaya",
      "city": "Ankara",
      "latitude": 39.877944012703,
      "longitude": 32.83569663763,
      "dutyStart": "2026-02-17T08:30:00.000Z",
      "dutyEnd": "2026-02-18T08:30:00.000Z"
    },
    {
      "id": "ankara-18",
      "name": "SEVİNÇ ECZANESİ",
      "address": "Mustafa Kemal Mah.Vural Baylan Bulvarı No:101/B Yenikent-Sincan/ ANKARA , Yenikent 3 Nolu Sağlık Ocağı Karşısı 03125434543",
      "phone": "03125434543",
      "district": "Sincan",
      "city": "Ankara",
      "latitude": 40.004155322689,
      "longitude": 32.513035867833,
      "dutyStart": "2026-02-17T08:30:00.000Z",
      "dutyEnd": "2026-02-18T08:30:00.000Z"
    },
    {
      "id": "ankara-19",
      "name": "KAYIRAN ECZANESİ",
      "address": "Camiatik Mah. Cumhuriyet Meydanı No:30/31 Ayaş / ANKARA , 03127121084",
      "phone": "03127121084",
      "district": "Ayaş",
      "city": "Ankara",
      "latitude": 40.019201307687,
      "longitude": 32.330703735352,
      "dutyStart": "2026-02-17T08:30:00.000Z",
      "dutyEnd": "2026-02-18T08:30:00.000Z"
    },
    {
      "id": "ankara-20",
      "name": "ATASU ECZANESİ",
      "address": "Atatürk Mah.4.Sok.No:3/A Sincan/ANKARA , Merkez PTT karşısı 03122695300",
      "phone": "03122695300",
      "district": "Sincan",
      "city": "Ankara",
      "latitude": 39.964441340996,
      "longitude": 32.58120059967,
      "dutyStart": "2026-02-17T08:30:00.000Z",
      "dutyEnd": "2026-02-18T08:30:00.000Z"
    },
    {
      "id": "ankara-21",
      "name": "BULUT ECZANESİ",
      "address": "Tandoğan Mah. Zeki Uğur Cad. No:5/C Sincan / ANKARA , 03122700876",
      "phone": "03122700876",
      "district": "Sincan",
      "city": "Ankara",
      "latitude": 39.965156742051,
      "longitude": 32.578024864197,
      "dutyStart": "2026-02-17T08:30:00.000Z",
      "dutyEnd": "2026-02-18T08:30:00.000Z"
    },
    {
      "id": "ankara-22",
      "name": "SİNCAN SÜHA ECZANESİ",
      "address": "Ulubatlı Hasan Mah. Candan Sok.No:1/2 Fatih/Sincan/ ANKARA , 2 Nolu Sağ. Ocağı kar. 03122720067",
      "phone": "03122720067",
      "district": "Sincan",
      "city": "Ankara",
      "latitude": 39.991917229359,
      "longitude": 32.594144940376,
      "dutyStart": "2026-02-17T08:30:00.000Z",
      "dutyEnd": "2026-02-18T08:30:00.000Z"
    },
    {
      "id": "ankara-23",
      "name": "KIVANÇ ECZANESİ",
      "address": "Beyazıt Mah. Sevda Cad. No:4/B Akyurt/ ANKARA , Benliler Market ve 1 Nolu ASM Karşısı 05523729072",
      "phone": "05523729072",
      "district": "Akyurt",
      "city": "Ankara",
      "latitude": 40.130862788476,
      "longitude": 33.081028542765,
      "dutyStart": "2026-02-17T08:30:00.000Z",
      "dutyEnd": "2026-02-18T08:30:00.000Z"
    },
    {
      "id": "ankara-24",
      "name": "EMRELLİ ECZANESİ",
      "address": "Beytepe Mah. Hoca Ahmet Yesevi Sok. No:18/20 Beypazarı/ANKARA , Eski Müftülük karşısı 03127631162",
      "phone": "03127631162",
      "district": "Beypazarı",
      "city": "Ankara",
      "latitude": 40.162936095519,
      "longitude": 31.914339065552,
      "dutyStart": "2026-02-17T08:30:00.000Z",
      "dutyEnd": "2026-02-18T08:30:00.000Z"
    },
    {
      "id": "ankara-25",
      "name": "TARIK ECZANESİ",
      "address": "Ayyıldız Mh.Trendlife Çarşısı 1624.Sok. No:3B/6 Elvankent/Etimesgut ANKARA , Ayyıldız Sağlık Ocağı arkası 03122610619",
      "phone": "03122610619",
      "district": "Ankara",
      "city": "Ankara",
      "latitude": 39.941495200042,
      "longitude": 32.614717483521,
      "dutyStart": "2026-02-17T08:30:00.000Z",
      "dutyEnd": "2026-02-18T08:30:00.000Z"
    },
    {
      "id": "ankara-26",
      "name": "NEFES ECZANESİ",
      "address": "Bağlıca Mah. Tekdal Cad. No:3/C Etimesgut/ ANKARA , Bağlıca Anadolu Lisesi Karşısı 03125148177",
      "phone": "03125148177",
      "district": "Etimesgut",
      "city": "Ankara",
      "latitude": 39.887092810069,
      "longitude": 32.619610410329,
      "dutyStart": "2026-02-17T08:30:00.000Z",
      "dutyEnd": "2026-02-18T08:30:00.000Z"
    },
    {
      "id": "ankara-27",
      "name": "AİLE ECZANESİ",
      "address": "Süvari Mah. 1682.Cad. No:14/B Etimesgut/ ANKARA , Özgüneş Tren İstasyonu yakını 03122267488",
      "phone": "03122267488",
      "district": "Etimesgut",
      "city": "Ankara",
      "latitude": 39.949850049131,
      "longitude": 32.648553550243,
      "dutyStart": "2026-02-17T08:30:00.000Z",
      "dutyEnd": "2026-02-18T08:30:00.000Z"
    },
    {
      "id": "ankara-28",
      "name": "CADDE ERYAMAN ECZANESİ",
      "address": "Altay Mah. Söğüt Cad. No:16 A-G/8 Eryaman/ Etimesgut/ANKARA , Adem Doruk Restorant yanı 03125446300",
      "phone": "03125446300",
      "district": "Etimesgut",
      "city": "Ankara",
      "latitude": 39.966221606768,
      "longitude": 32.643368840218,
      "dutyStart": "2026-02-17T08:30:00.000Z",
      "dutyEnd": "2026-02-18T08:30:00.000Z"
    },
    {
      "id": "ankara-29",
      "name": "MERVE ECZANESİ",
      "address": "Medrese Mah. Karahoca Cad. Pazar Sok. No:6/B Haymana/ANKARA , Sağlık Ocağı Karşısı 03126580027",
      "phone": "03126580027",
      "district": "Haymana",
      "city": "Ankara",
      "latitude": 39.432791419498,
      "longitude": 32.49464655295,
      "dutyStart": "2026-02-17T08:30:00.000Z",
      "dutyEnd": "2026-02-18T08:30:00.000Z"
    },
    {
      "id": "ankara-30",
      "name": "DİREN ECZANESİ",
      "address": "Atatürk Mah. Mehmet Akif Ersoy Cad. No:23/A Kahramankazan/ ANKARA , 03123609699 05334159699",
      "phone": "05334159699",
      "district": "Kahramankazan",
      "city": "Ankara",
      "latitude": 40.202009026061,
      "longitude": 32.679868340492,
      "dutyStart": "2026-02-17T08:30:00.000Z",
      "dutyEnd": "2026-02-18T08:30:00.000Z"
    },
    {
      "id": "ankara-31",
      "name": "KERİM ECZANESİ",
      "address": "Akçay Mah. Cengiz Topel Cad.No:6/B Kızılcahamam /ANKARA , 03127361195",
      "phone": "03127361195",
      "district": "Kızılcahamam",
      "city": "Ankara",
      "latitude": 40.470772588791,
      "longitude": 32.648403095081,
      "dutyStart": "2026-02-17T08:30:00.000Z",
      "dutyEnd": "2026-02-18T08:30:00.000Z"
    },
    {
      "id": "ankara-32",
      "name": "MÜFTÜOĞLU ECZANESİ",
      "address": "Lalahan Mah.Lalapaşa Cad.3/B Lalahan/ / ANKARA ((312865 18 85) , “ÖZEL NÖBET BÖLGESİ LÜTFEN ECZANEYİ TELEFON İLE ARAYİNİZ.\" 05408651885",
      "phone": "05408651885",
      "district": "Ankara",
      "city": "Ankara",
      "latitude": 39.970676179525,
      "longitude": 33.114105784334,
      "dutyStart": "2026-02-17T08:30:00.000Z",
      "dutyEnd": "2026-02-18T08:30:00.000Z"
    },
    {
      "id": "ankara-33",
      "name": "ATAY ECZANESİ",
      "address": "Nasuh Paşa Mah. Ankara İstanbul Devlet Yolu Cad. No:92/C Nallıhan/ ANKARA , 03127851818",
      "phone": "03127851818",
      "district": "Nallıhan",
      "city": "Ankara",
      "latitude": 0,
      "longitude": 0,
      "dutyStart": "2026-02-17T08:30:00.000Z",
      "dutyEnd": "2026-02-18T08:30:00.000Z"
    },
    {
      "id": "ankara-34",
      "name": "KİRAZ ECZANESİ",
      "address": "Zafer Mah.Turan Cad.No:30/B Polatlı/ANKARA , Kız Meslek Lisesi karşısı 03126222215",
      "phone": "03126222215",
      "district": "Polatlı",
      "city": "Ankara",
      "latitude": 39.58008148027,
      "longitude": 32.142688930035,
      "dutyStart": "2026-02-17T08:30:00.000Z",
      "dutyEnd": "2026-02-18T08:30:00.000Z"
    },
    {
      "id": "ankara-35",
      "name": "ÖZNUR ECZANESİ",
      "address": "Mimar Sinan Mah. Alperen-1 Caddesi No:11/A Pursaklar/ ANKARA , Otobüs Son Durağı Özyel Sit.Kar. 03123288180",
      "phone": "03123288180",
      "district": "Pursaklar",
      "city": "Ankara",
      "latitude": 40.048242342504,
      "longitude": 32.882894966751,
      "dutyStart": "2026-02-17T08:30:00.000Z",
      "dutyEnd": "2026-02-18T08:30:00.000Z"
    },
    {
      "id": "ankara-36",
      "name": "RABİA YILMAZ ECZANESİ",
      "address": "Seyrantepe Mah. Şehit Onbaşı Murat Sıtkı Cad.No:150/1C (43 Numaralı Ofis/İşyeri) Yahşihan/ KIRIKKALE , Podium ilerisi-Polis Okulu Karşısı 03185023636",
      "phone": "03185023636",
      "district": "Ankara",
      "city": "Ankara",
      "latitude": 39.85437380657,
      "longitude": 33.48099052906,
      "dutyStart": "2026-02-17T08:30:00.000Z",
      "dutyEnd": "2026-02-18T08:30:00.000Z"
    },
    {
      "id": "ankara-37",
      "name": "KEREM ECZANESİ",
      "address": "Sarıkaya Mah. Göçmenler Sok.No:2-3-4 Şereflikoçhisar/ ANKARA , 03126864832",
      "phone": "03126864832",
      "district": "Şereflikoçhisar",
      "city": "Ankara",
      "latitude": 0,
      "longitude": 0,
      "dutyStart": "2026-02-17T08:30:00.000Z",
      "dutyEnd": "2026-02-18T08:30:00.000Z"
    },
    {
      "id": "ankara-38",
      "name": "KARAKEÇİLİ ECZANESİ",
      "address": "Fatih Sultan Mehmet Mah.Hürriyet Cad.No:4/A Karakeçili/ KIRIKKALE , 03184743643",
      "phone": "03184743643",
      "district": "Ankara",
      "city": "Ankara",
      "latitude": 39.993750206346,
      "longitude": 33.533243363199,
      "dutyStart": "2026-02-17T08:30:00.000Z",
      "dutyEnd": "2026-02-18T08:30:00.000Z"
    },
    {
      "id": "ankara-39",
      "name": "SAĞLIK ECZANESİ",
      "address": "Halit Cevri Aslangil Mah. Çağlar Cad. No:20.Sok. No:12/B Kalecik/ ANKARA , Kalecik Devlet Hastanesi Karşısı 03128571110",
      "phone": "03128571110",
      "district": "Kalecik",
      "city": "Ankara",
      "latitude": 40.111110189041,
      "longitude": 33.409390577835,
      "dutyStart": "2026-02-17T08:30:00.000Z",
      "dutyEnd": "2026-02-18T08:30:00.000Z"
    },
    {
      "id": "ankara-40",
      "name": "GÖLBAŞI ECZANESİ",
      "address": "Bahçelievler Mah. 320 Sok.No:6/C-D Gölbaşı/ANKARA , (Eski Hastane karşısı) 03124841442",
      "phone": "03124841442",
      "district": "Gölbaşı",
      "city": "Ankara",
      "latitude": 39.783629039347,
      "longitude": 32.806935310364,
      "dutyStart": "2026-02-17T08:30:00.000Z",
      "dutyEnd": "2026-02-18T08:30:00.000Z"
    },
    {
      "id": "ankara-41",
      "name": "BAŞKENT ECZANESİ",
      "address": "Yenidoğan Mah. Zafer Caddesi No:12/D Merkez/ KIRIKKALE , Kuru Kahveciler Altı 03182251200",
      "phone": "03182251200",
      "district": "Ankara",
      "city": "Ankara",
      "latitude": 39.840897951364,
      "longitude": 33.505833148956,
      "dutyStart": "2026-02-17T08:30:00.000Z",
      "dutyEnd": "2026-02-18T08:30:00.000Z"
    },
    {
      "id": "ankara-42",
      "name": "YAŞAM ECZANESİ",
      "address": "Ovacık Mah. 575.Sokak No:6/A Merkez/ KIRIKKALE , Özel Yaşam Hastanesi arkası 03182127071",
      "phone": "03182127071",
      "district": "Ankara",
      "city": "Ankara",
      "latitude": 39.849754134936,
      "longitude": 33.50256152451,
      "dutyStart": "2026-02-17T08:30:00.000Z",
      "dutyEnd": "2026-02-18T08:30:00.000Z"
    },
    {
      "id": "ankara-43",
      "name": "DENİZ KUZUDİŞLİ ECZANESİ",
      "address": "Alacaatlı Mah. 3381/1. Cad. C Blok No:36/C-N/14 Çankaya/ ANKARA , Anka Gross arkası-Avent Çayyolu 03125129612",
      "phone": "03125129612",
      "district": "Çankaya",
      "city": "Ankara",
      "latitude": 39.860231601384,
      "longitude": 32.677785961914,
      "dutyStart": "2026-02-17T08:30:00.000Z",
      "dutyEnd": "2026-02-18T08:30:00.000Z"
    },
    {
      "id": "ankara-44",
      "name": "DERİN ECZANESİ",
      "address": "Kanuni Sultan Süleyman Bulv. (Alacaatlı Mh. Alacaatlı Cd.) Sinpaş Sok. Sinpaş İncek Blue Çarşısı No:65/232 İncek/ Çankaya/ ANKARA , Bahçeşehir Koleji yakını 03124364878",
      "phone": "03124364878",
      "district": "Çankaya",
      "city": "Ankara",
      "latitude": 39.829153844034,
      "longitude": 32.710547447205,
      "dutyStart": "2026-02-17T08:30:00.000Z",
      "dutyEnd": "2026-02-18T08:30:00.000Z"
    },
    {
      "id": "ankara-45",
      "name": "ESRA ECZANESİ",
      "address": "Barbaros Mah. Sultan Ahmet Cad. Funda Sok.No:2/B Çubuk/ANKARA , 5 Nolu ASM yanı 03125048302",
      "phone": "03125048302",
      "district": "Çubuk",
      "city": "Ankara",
      "latitude": 40.242549955422,
      "longitude": 33.024359297024,
      "dutyStart": "2026-02-17T08:30:00.000Z",
      "dutyEnd": "2026-02-18T08:30:00.000Z"
    },
    {
      "id": "ankara-46",
      "name": "CENNET ECZANESİ",
      "address": "Cumhuriyet Mah.Ankara Cad. No:34/A Delice KIRIKKALE , 03186185433",
      "phone": "03186185433",
      "district": "Ankara",
      "city": "Ankara",
      "latitude": 0,
      "longitude": 0,
      "dutyStart": "2026-02-17T08:30:00.000Z",
      "dutyEnd": "2026-02-18T08:30:00.000Z"
    },
    {
      "id": "ankara-47",
      "name": "VERESELİ GÜDÜL ECZANESİ",
      "address": "Yukarı Gençlik Cad. No:10/A Güdül / ANKARA , 03127281533",
      "phone": "03127281533",
      "district": "Güdül",
      "city": "Ankara",
      "latitude": 40.20877009282,
      "longitude": 32.244186401367,
      "dutyStart": "2026-02-17T08:30:00.000Z",
      "dutyEnd": "2026-02-18T08:30:00.000Z"
    },
    {
      "id": "ankara-48",
      "name": "ŞENBABA ECZANESİ",
      "address": "Kartaltepe Mah. Alparslan Türkeş Bulvarı No:22/A Bala/ ANKARA , 03128761555",
      "phone": "03128761555",
      "district": "Bala",
      "city": "Ankara",
      "latitude": 39.551987767008,
      "longitude": 33.12433719635,
      "dutyStart": "2026-02-17T08:30:00.000Z",
      "dutyEnd": "2026-02-18T08:30:00.000Z"
    },
    {
      "id": "ankara-49",
      "name": "YILMAZ ECZANESİ",
      "address": "Menderes Bulvarı Sağlık 1. Sok. No:2 Hasanoğlan /Elmadağ/ ANKARA (2.Tel:3128661233) , 03128663771",
      "phone": "03128663771",
      "district": "Elmadağ",
      "city": "Ankara",
      "latitude": 39.998689957679,
      "longitude": 33.180084228516,
      "dutyStart": "2026-02-17T08:30:00.000Z",
      "dutyEnd": "2026-02-18T08:30:00.000Z"
    },
    {
      "id": "ankara-50",
      "name": "KESKİN MERKEZ ECZANESİ",
      "address": "Yenice Mah. Prof. Dr. Beşir Atalay Cad. No:18/A Keskin/Kırıkkale , 03185152023",
      "phone": "03185152023",
      "district": "Ankara",
      "city": "Ankara",
      "latitude": 39.67366974166,
      "longitude": 33.615289656445,
      "dutyStart": "2026-02-17T08:30:00.000Z",
      "dutyEnd": "2026-02-18T08:30:00.000Z"
    },
    {
      "id": "ankara-51",
      "name": "ALTINTAŞ ECZANESİ",
      "address": "TEMELLİ-Cumhuriyet Mah. Hürriyet Cad. No:18/18 Temelli/ Sincan/ANKARA , Kasap Ali Yanı 05362810884",
      "phone": "05362810884",
      "district": "Sincan",
      "city": "Ankara",
      "latitude": 39.726681681766,
      "longitude": 32.354539185762,
      "dutyStart": "2026-02-17T08:30:00.000Z",
      "dutyEnd": "2026-02-18T08:30:00.000Z"
    },
    {
      "id": "ankara-52",
      "name": "BALIŞEYH ECZANESİ",
      "address": "Yeni Mah. 43.Sok. No:14/B Balışeyh/KIRIKKALE , Balışeyh Toplum Sağlığı Merkezi Karşısı 03182333318",
      "phone": "03182333318",
      "district": "Ankara",
      "city": "Ankara",
      "latitude": 39.916098977986,
      "longitude": 33.715695217252,
      "dutyStart": "2026-02-17T08:30:00.000Z",
      "dutyEnd": "2026-02-18T08:30:00.000Z"
    },
    {
      "id": "ankara-53",
      "name": "OZAN TÜRK ECZANESİ",
      "address": "Kemalpaşa Mah. Ali Eysen Sokak No:6/A Elmadağ/ ANKARA , Lale Pastanesi arkası 03128631245",
      "phone": "03128631245",
      "district": "Elmadağ",
      "city": "Ankara",
      "latitude": 39.921139480541,
      "longitude": 33.226707726717,
      "dutyStart": "2026-02-17T08:30:00.000Z",
      "dutyEnd": "2026-02-18T08:30:00.000Z"
    },
    {
      "id": "ankara-54",
      "name": "ALBAYRAK ECZANESİ",
      "address": "Yeni Batı Mah. 2361. Sok. 2 Mesa Sitesi Küme Evleri No:4/B Batıkent-Yenimahalle , Y.Mah.Devlet Hast. yakını-MESA 03122550300",
      "phone": "03122550300",
      "district": "Ankara",
      "city": "Ankara",
      "latitude": 39.968158055695,
      "longitude": 32.698359489441,
      "dutyStart": "2026-02-17T08:30:00.000Z",
      "dutyEnd": "2026-02-18T08:30:00.000Z"
    },
    {
      "id": "ankara-55",
      "name": "GÜNHAN ECZANESİ",
      "address": "Macun Mah. Bağdat Cad. No:101/3 Yenimahalle/ ANKARA , Gimatgross Market yanı 03123976916",
      "phone": "03123976916",
      "district": "Yenimahalle",
      "city": "Ankara",
      "latitude": 39.960802547352,
      "longitude": 32.767822835594,
      "dutyStart": "2026-02-17T08:30:00.000Z",
      "dutyEnd": "2026-02-18T08:30:00.000Z"
    },
    {
      "id": "ankara-56",
      "name": "Nöbetçi Eczane Bulunamadı",
      "address": "Aradığınız kriterlere uygun nöbetçi eczane bulunamadı. Lütfen farklı bir arama deneyin.",
      "phone": "",
      "district": "Ankara",
      "city": "Ankara",
      "latitude": 0,
      "longitude": 0,
      "dutyStart": "2026-02-17T08:30:00.000Z",
      "dutyEnd": "2026-02-18T08:30:00.000Z"
    }
  ]
}