{
  "city": "kocaeli",
  "cityName": "Kocaeli",
  "cityId": 41,
  "date": "2026-02-17",
  "updatedAt": "2026-02-17T01:00:03.978Z",
  "count": 20,
  "pharmacies": [
    {
      "id": "kocaeli-0",
      "name": "FEYZANUR ECZANESİ",
      "address": "ÖMERAĞA MAH. HÜRRİYET CAD. IŞILAY APT. NO:131/A İZMİT",
      "phone": "02623215331",
      "district": "İzmit",
      "city": "Kocaeli",
      "latitude": 40.763761,
      "longitude": 29.929213,
      "dutyStart": "2026-02-17T08:30:00.000Z",
      "dutyEnd": "2026-02-18T08:30:00.000Z"
    },
    {
      "id": "kocaeli-1",
      "name": "İLKHAYAT ECZANESİ",
      "address": "CEDİT MAH. TURAN GÜNEŞ CAD. NO:53/3 İZMİT",
      "phone": "02623224289",
      "district": "İzmit",
      "city": "Kocaeli",
      "latitude": 40.767995,
      "longitude": 29.937436,
      "dutyStart": "2026-02-17T08:30:00.000Z",
      "dutyEnd": "2026-02-18T08:30:00.000Z"
    },
    {
      "id": "kocaeli-2",
      "name": "ŞİRİNTEPE ECZANESİ",
      "address": "SIRINTEPE MAH. SIRIN SOK. NO:10/A İZMİT",
      "phone": "02622293913",
      "district": "İzmit",
      "city": "Kocaeli",
      "latitude": 40.760468,
      "longitude": 29.860945,
      "dutyStart": "2026-02-17T08:30:00.000Z",
      "dutyEnd": "2026-02-18T08:30:00.000Z"
    },
    {
      "id": "kocaeli-3",
      "name": "PINAR ECZANESİ",
      "address": "YEŞİLOVA MAH.BÜŞRA SOK.NO:5/A",
      "phone": "02623254001",
      "district": "İzmit",
      "city": "Kocaeli",
      "latitude": 40.788823,
      "longitude": 29.973918,
      "dutyStart": "2026-02-17T08:30:00.000Z",
      "dutyEnd": "2026-02-18T08:30:00.000Z"
    },
    {
      "id": "kocaeli-4",
      "name": "BERRA ECZANESİ",
      "address": "YEŞİLYURT MAH.HÜRLER CAD.OKKA SİTESİ D BLOK NO:260/B BAŞİSKELE",
      "phone": "05383943769",
      "district": "Başiskele",
      "city": "Kocaeli",
      "latitude": 40.720261,
      "longitude": 29.968242,
      "dutyStart": "2026-02-17T08:30:00.000Z",
      "dutyEnd": "2026-02-18T08:30:00.000Z"
    },
    {
      "id": "kocaeli-5",
      "name": "HİLAL ECZANESİ",
      "address": "ÇAYIROVA MAH.ALİ HAYDAR EFENDİ CAD. NO:12/A ÇAYIROVA",
      "phone": "02627421777",
      "district": "Çayırova",
      "city": "Kocaeli",
      "latitude": 40.815443,
      "longitude": 29.371356,
      "dutyStart": "2026-02-17T08:30:00.000Z",
      "dutyEnd": "2026-02-18T08:30:00.000Z"
    },
    {
      "id": "kocaeli-6",
      "name": "TOLGA ECZANESİ",
      "address": "BAYRAMOĞLU MAH.YILDIRIM BEYAZIT CAD.NO:48/A DARICA",
      "phone": "05337192767",
      "district": "Darıca",
      "city": "Kocaeli",
      "latitude": 40.790925,
      "longitude": 29.360142,
      "dutyStart": "2026-02-17T08:30:00.000Z",
      "dutyEnd": "2026-02-18T08:30:00.000Z"
    },
    {
      "id": "kocaeli-7",
      "name": "ÇANKAYA ECZANESİ",
      "address": "ABDI IPEKÇI MAH.1542/2 SOK. NO:2 DARICA",
      "phone": "02626558012",
      "district": "Dilovası",
      "city": "Kocaeli",
      "latitude": 40.7824,
      "longitude": 29.406836,
      "dutyStart": "2026-02-17T08:30:00.000Z",
      "dutyEnd": "2026-02-18T08:30:00.000Z"
    },
    {
      "id": "kocaeli-8",
      "name": "ARIN ECZANESİ",
      "address": "CUMHURİYET MAH.BAĞDAT CAD.NO:68/E DİLOVASI",
      "phone": "02627542001",
      "district": "Kartepe",
      "city": "Kocaeli",
      "latitude": 40.785878,
      "longitude": 29.538682,
      "dutyStart": "2026-02-17T08:30:00.000Z",
      "dutyEnd": "2026-02-18T08:30:00.000Z"
    },
    {
      "id": "kocaeli-9",
      "name": "VEGA ECZANESİ",
      "address": "DUMLUPINAR MAH.ŞEHİT TURGUT ÇİÇEK CAD.B BLOK NO:4/A",
      "phone": "02625261217",
      "district": "Gebze",
      "city": "Kocaeli",
      "latitude": 40.755678,
      "longitude": 30.023672,
      "dutyStart": "2026-02-17T08:30:00.000Z",
      "dutyEnd": "2026-02-18T08:30:00.000Z"
    },
    {
      "id": "kocaeli-10",
      "name": "BAHADIR ECZANESİ",
      "address": "BARIŞ MAH. DR. ZEKİ ACAR CAD. NO:48/A GEBZE",
      "phone": "02625038485",
      "district": "Gebze",
      "city": "Kocaeli",
      "latitude": 40.785073,
      "longitude": 29.436711,
      "dutyStart": "2026-02-17T08:30:00.000Z",
      "dutyEnd": "2026-02-18T08:30:00.000Z"
    },
    {
      "id": "kocaeli-11",
      "name": "FİLİBE ECZANESİ",
      "address": "ARAPÇEŞME MAH. NAMIK KEMAL CAD. NO:17/B GEBZE",
      "phone": "02626463863",
      "district": "Gebze",
      "city": "Kocaeli",
      "latitude": 40.808385,
      "longitude": 29.440408,
      "dutyStart": "2026-02-17T08:30:00.000Z",
      "dutyEnd": "2026-02-18T08:30:00.000Z"
    },
    {
      "id": "kocaeli-12",
      "name": "EMİN ECZANESİ",
      "address": "KÖŞKLÜÇEŞME MAH.538/1 SOK.NO:9/A GEBZE",
      "phone": "05461010947",
      "district": "Gölcük",
      "city": "Kocaeli",
      "latitude": 40.796311,
      "longitude": 29.415013,
      "dutyStart": "2026-02-17T08:30:00.000Z",
      "dutyEnd": "2026-02-18T08:30:00.000Z"
    },
    {
      "id": "kocaeli-13",
      "name": "SAĞLIK ECZANESİ",
      "address": "MERKEZ MAH. 19 MAYIS CAD. NO:45/F GÖLCÜK",
      "phone": "02624148090",
      "district": "Gölcük",
      "city": "Kocaeli",
      "latitude": 40.718956,
      "longitude": 29.822224,
      "dutyStart": "2026-02-17T08:30:00.000Z",
      "dutyEnd": "2026-02-18T08:30:00.000Z"
    },
    {
      "id": "kocaeli-14",
      "name": "KAYRA ECZANESİ",
      "address": "ATATÜRK MAH.3037 SOK.NO:5/A",
      "phone": "02624270405",
      "district": "Gölcük",
      "city": "Kocaeli",
      "latitude": 40.717744,
      "longitude": 29.785547,
      "dutyStart": "2026-02-17T08:30:00.000Z",
      "dutyEnd": "2026-02-18T08:30:00.000Z"
    },
    {
      "id": "kocaeli-15",
      "name": "İHSANİYE ECZANESİ",
      "address": "İHSANİYE MERKEZ MAH. BEYOĞLU CAD. NO: 36/A GÖLCÜK",
      "phone": "02624357570",
      "district": "Kandıra",
      "city": "Kocaeli",
      "latitude": 40.690477,
      "longitude": 29.831367,
      "dutyStart": "2026-02-17T08:30:00.000Z",
      "dutyEnd": "2026-02-18T08:30:00.000Z"
    },
    {
      "id": "kocaeli-16",
      "name": "ALKAN ECZANESİ",
      "address": "ÇARSI MAH. ÇARSI CAD. NO:3/A KANDIRA",
      "phone": "02625515565",
      "district": "Karamürsel",
      "city": "Kocaeli",
      "latitude": 41.070302,
      "longitude": 30.152024,
      "dutyStart": "2026-02-17T08:30:00.000Z",
      "dutyEnd": "2026-02-18T08:30:00.000Z"
    },
    {
      "id": "kocaeli-17",
      "name": "ŞİFA ECZANESİ",
      "address": "4 TEMMUZ MAH. FATİH SULTAN MEHMET BULVARI NO:14/B KARAMÜRSEL",
      "phone": "02624526400",
      "district": "Körfez",
      "city": "Kocaeli",
      "latitude": 40.692155,
      "longitude": 29.615663,
      "dutyStart": "2026-02-17T08:30:00.000Z",
      "dutyEnd": "2026-02-18T08:30:00.000Z"
    },
    {
      "id": "kocaeli-18",
      "name": "ERDOĞAN ECZANESİ",
      "address": "YENIYALI MAH. BELEN CAD. NO:42 KÖRFEZ",
      "phone": "05335264090",
      "district": "Derince",
      "city": "Kocaeli",
      "latitude": 40.766794,
      "longitude": 29.786009,
      "dutyStart": "2026-02-17T08:30:00.000Z",
      "dutyEnd": "2026-02-18T08:30:00.000Z"
    },
    {
      "id": "kocaeli-19",
      "name": "İBNİ SİNA ECZANESİ",
      "address": "İBNİ SİNA MAH. UFUK SOK. NO:52/1 DERİNCE",
      "phone": "02622332690",
      "district": "İzmit",
      "city": "Kocaeli",
      "latitude": 40.763554,
      "longitude": 29.807537,
      "dutyStart": "2026-02-17T08:30:00.000Z",
      "dutyEnd": "2026-02-18T08:30:00.000Z"
    }
  ]
}