{
  "city": "konya",
  "cityName": "Konya",
  "cityId": 42,
  "date": "2026-02-17",
  "updatedAt": "2026-02-17T19:00:20.224Z",
  "count": 32,
  "pharmacies": [
    {
      "id": "konya-0",
      "name": "CANSU ECZANESİ",
      "address": "FERHUNİYE MAHALLESİ HASTANE CADDESİ NO:27C SELÇUKLU",
      "phone": "903323531535",
      "district": "Selçuklu",
      "city": "Konya",
      "latitude": 37.87811,
      "longitude": 32.49008,
      "dutyStart": "2026-02-17T09:00:00.000Z",
      "dutyEnd": "2026-02-18T09:00:00.000Z"
    },
    {
      "id": "konya-1",
      "name": "KEKİK ECZANESİ",
      "address": "KILINÇARSLAN MAHALLESİ KURTULDU SOKAK ADAPARK SİTESİ A-BLOK NO:2F SELÇUKLU",
      "phone": "903322476565",
      "district": "Selçuklu",
      "city": "Konya",
      "latitude": 37.88885,
      "longitude": 32.46783,
      "dutyStart": "2026-02-17T09:00:00.000Z",
      "dutyEnd": "2026-02-18T09:00:00.000Z"
    },
    {
      "id": "konya-2",
      "name": "MUSTAFA SAVRAN ECZANESİ",
      "address": "KÖYCEĞİZ MH. BEYŞEHİR CD. NO:240 MERAM",
      "phone": "903323230124",
      "district": "Meram",
      "city": "Konya",
      "latitude": 37.8774394,
      "longitude": 32.4296888,
      "dutyStart": "2026-02-17T09:00:00.000Z",
      "dutyEnd": "2026-02-18T09:00:00.000Z"
    },
    {
      "id": "konya-3",
      "name": "GALİP ECZANESİ",
      "address": "HAVZAN MAHALLESİ YENİ SANTRAL ELEKTRİK CADDESİ NO:33A MERAM",
      "phone": "903323210289",
      "district": "Meram",
      "city": "Konya",
      "latitude": 37.8631109,
      "longitude": 32.4712682,
      "dutyStart": "2026-02-17T09:00:00.000Z",
      "dutyEnd": "2026-02-18T09:00:00.000Z"
    },
    {
      "id": "konya-4",
      "name": "ULUKAN ECZANESİ",
      "address": "KEYKUBAT MAHALLESİ KIRBAŞI CADDESİ NO:49A-B KARATAY",
      "phone": "903322333420",
      "district": "Karatay",
      "city": "Konya",
      "latitude": 37.8891154,
      "longitude": 32.5143718,
      "dutyStart": "2026-02-17T09:00:00.000Z",
      "dutyEnd": "2026-02-18T09:00:00.000Z"
    },
    {
      "id": "konya-5",
      "name": "HEKİMOĞLU ECZANESİ",
      "address": "İHSANİYE MAHALLESİ MİLLET CADDESİ NO:23A-B SELÇUKLU",
      "phone": "903323204774",
      "district": "Meram",
      "city": "Konya",
      "latitude": 37.8706546,
      "longitude": 32.4802567,
      "dutyStart": "2026-02-17T09:00:00.000Z",
      "dutyEnd": "2026-02-18T09:00:00.000Z"
    },
    {
      "id": "konya-6",
      "name": "KIRMIZI ECZANESİ",
      "address": "ÇİMENLİK MAHALLESİ ALAADDİN KAP 1 BLOK CADDESİ NO:11B KARATAY",
      "phone": "903323550022",
      "district": "Karatay",
      "city": "Konya",
      "latitude": 37.8669611,
      "longitude": 32.5195341,
      "dutyStart": "2026-02-17T09:00:00.000Z",
      "dutyEnd": "2026-02-18T09:00:00.000Z"
    },
    {
      "id": "konya-7",
      "name": "PETEK ECZANESİ",
      "address": "ESENLER MAHALLESİ ESKİ SİLLE CADDESİ NO:124A SELÇUKLU",
      "phone": "903322474757",
      "district": "Selçuklu",
      "city": "Konya",
      "latitude": 37.89437,
      "longitude": 32.47177,
      "dutyStart": "2026-02-17T09:00:00.000Z",
      "dutyEnd": "2026-02-18T09:00:00.000Z"
    },
    {
      "id": "konya-8",
      "name": "SAYGI ECZANESİ",
      "address": "MALAZGİRT MAHALLESİ EYÜP SULTAN CADDESİ NO:55C SELÇUKLU",
      "phone": "903322482020",
      "district": "Selçuklu",
      "city": "Konya",
      "latitude": 37.936812,
      "longitude": 32.5009078,
      "dutyStart": "2026-02-17T09:00:00.000Z",
      "dutyEnd": "2026-02-18T09:00:00.000Z"
    },
    {
      "id": "konya-9",
      "name": "ATLAS ECZANESİ",
      "address": "YAZIR MAH. DR. SIDDIK ÖZMERZİFONLU CAD. NO:30C SELÇUKLU",
      "phone": "905536040042",
      "district": "Selçuklu",
      "city": "Konya",
      "latitude": 37.96888,
      "longitude": 32.5099,
      "dutyStart": "2026-02-17T09:00:00.000Z",
      "dutyEnd": "2026-02-18T09:00:00.000Z"
    },
    {
      "id": "konya-10",
      "name": "KARAKURT ECZANESİ",
      "address": "SANCAK MAHALLESİ GÜRKUYU SOKAK NO: 2C-D SELÇUKLU",
      "phone": "903322550329",
      "district": "Selçuklu",
      "city": "Konya",
      "latitude": 37.9504437,
      "longitude": 32.5277113,
      "dutyStart": "2026-02-17T09:00:00.000Z",
      "dutyEnd": "2026-02-18T09:00:00.000Z"
    },
    {
      "id": "konya-11",
      "name": "UYAR ECZANESİ",
      "address": "ULUIRMAK MAHALLESİ MARAŞ CADDESİ NO:22A MERAM",
      "phone": "903323510990",
      "district": "Karatay",
      "city": "Konya",
      "latitude": 37.8575104,
      "longitude": 32.4998936,
      "dutyStart": "2026-02-17T09:00:00.000Z",
      "dutyEnd": "2026-02-18T09:00:00.000Z"
    },
    {
      "id": "konya-12",
      "name": "DEVA ECZANESİ",
      "address": "SEYRAN MAHALLESİ 33219. SOKAK NO:3",
      "phone": "903328131276",
      "district": "Akşehi̇r",
      "city": "Konya",
      "latitude": 38.3458861,
      "longitude": 31.4428546,
      "dutyStart": "2026-02-17T09:00:00.000Z",
      "dutyEnd": "2026-02-18T09:00:00.000Z"
    },
    {
      "id": "konya-13",
      "name": "ELMALI ECZANESİ",
      "address": "ÖLMEZ MAHALLESİ MİLLET CADDESİ NO:10A",
      "phone": "903326312089",
      "district": "Altineki̇n",
      "city": "Konya",
      "latitude": 38.3072096,
      "longitude": 32.8632408,
      "dutyStart": "2026-02-17T09:00:00.000Z",
      "dutyEnd": "2026-02-18T09:00:00.000Z"
    },
    {
      "id": "konya-14",
      "name": "SAVAŞ ECZANESİ",
      "address": "EVSAT MAHALLESİ 40753 SOKAK NO:1B",
      "phone": "903325122727",
      "district": "Beyşehi̇r",
      "city": "Konya",
      "latitude": 37.6795689,
      "longitude": 31.7244612,
      "dutyStart": "2026-02-17T09:00:00.000Z",
      "dutyEnd": "2026-02-18T09:00:00.000Z"
    },
    {
      "id": "konya-15",
      "name": "GÜVEN ECZANESİ",
      "address": "CUMHURİYET MAHALLESİ CUMHURİYET CADDESİ NO:1A",
      "phone": "903324263433",
      "district": "Bozkir",
      "city": "Konya",
      "latitude": 37.1886728,
      "longitude": 32.2457219,
      "dutyStart": "2026-02-17T09:00:00.000Z",
      "dutyEnd": "2026-02-18T09:00:00.000Z"
    },
    {
      "id": "konya-16",
      "name": "BÜŞRA ECZANESİ",
      "address": "KÖPRÜBAŞI MAHALLESİ İNÖNÜ CADDESİ NO:65A-65B",
      "phone": "903326732526",
      "district": "Ci̇hanbeyli̇",
      "city": "Konya",
      "latitude": 38.6548364,
      "longitude": 32.92734,
      "dutyStart": "2026-02-17T09:00:00.000Z",
      "dutyEnd": "2026-02-18T09:00:00.000Z"
    },
    {
      "id": "konya-17",
      "name": "YENİCEOBA ECZANESİ",
      "address": "YENİCEOBA MAHALLESİ YENİCEOBA CADDESİ NO:110A",
      "phone": "903326761074",
      "district": "Ci̇hanbeyli̇",
      "city": "Konya",
      "latitude": 38.8700849,
      "longitude": 32.7917438,
      "dutyStart": "2026-02-17T09:00:00.000Z",
      "dutyEnd": "2026-02-18T09:00:00.000Z"
    },
    {
      "id": "konya-18",
      "name": "KAÇMAZ ECZANESİ",
      "address": "BAHÇELİEVLER MAHALLESİ 70025. SOKAK NO:30A",
      "phone": "905426388026",
      "district": "Çelti̇k",
      "city": "Konya",
      "latitude": 39.02085,
      "longitude": 31.79182,
      "dutyStart": "2026-02-17T09:00:00.000Z",
      "dutyEnd": "2026-02-18T09:00:00.000Z"
    },
    {
      "id": "konya-19",
      "name": "MERKEZ ECZANESİ",
      "address": "İZZETBEY MAHALLESİ GAZİ CADDESİ NO:9B",
      "phone": "903324471205",
      "district": "Çumra",
      "city": "Konya",
      "latitude": 37.5719601,
      "longitude": 32.7800748,
      "dutyStart": "2026-02-17T09:00:00.000Z",
      "dutyEnd": "2026-02-18T09:00:00.000Z"
    },
    {
      "id": "konya-20",
      "name": "HİSAR ECZANESİ",
      "address": "PAZAR MH. İSMET PAŞA CD. NO:71A",
      "phone": "903325561275",
      "district": "Doğanhi̇sar",
      "city": "Konya",
      "latitude": 38.14542,
      "longitude": 31.67704,
      "dutyStart": "2026-02-17T09:00:00.000Z",
      "dutyEnd": "2026-02-18T09:00:00.000Z"
    },
    {
      "id": "konya-21",
      "name": "KARATAŞ ECZANESİ",
      "address": "ÜÇGÖZ MAHALLESİ 90607 SOKAK NO: 16A",
      "phone": "903327124741",
      "district": "Ereğli̇",
      "city": "Konya",
      "latitude": 37.5047181,
      "longitude": 34.0400853,
      "dutyStart": "2026-02-17T09:00:00.000Z",
      "dutyEnd": "2026-02-18T09:00:00.000Z"
    },
    {
      "id": "konya-22",
      "name": "YÜCEL ECZANESİ",
      "address": "TOROS MAHALLESİ ŞEHİT METİN DÜZGÜN CADDESİ NO:20A-20",
      "phone": "903327105333",
      "district": "Ereğli̇",
      "city": "Konya",
      "latitude": 37.5087457,
      "longitude": 34.058179,
      "dutyStart": "2026-02-17T09:00:00.000Z",
      "dutyEnd": "2026-02-18T09:00:00.000Z"
    },
    {
      "id": "konya-23",
      "name": "BİLİR ECZANESİ",
      "address": "BAHÇELİEVLER MAHALLESİ 110222. SOKAK NO:5",
      "phone": "903325432007",
      "district": "Hüyük",
      "city": "Konya",
      "latitude": 37.9517934,
      "longitude": 31.5984432,
      "dutyStart": "2026-02-17T09:00:00.000Z",
      "dutyEnd": "2026-02-18T09:00:00.000Z"
    },
    {
      "id": "konya-24",
      "name": "SEVGİ ECZANESİ",
      "address": "CAMİİATİK MAHALLESİ NEVZAT İSPİR CADDESİ NO:26",
      "phone": "903328813742",
      "district": "Ilgin",
      "city": "Konya",
      "latitude": 38.2817482,
      "longitude": 31.9162039,
      "dutyStart": "2026-02-17T09:00:00.000Z",
      "dutyEnd": "2026-02-18T09:00:00.000Z"
    },
    {
      "id": "konya-25",
      "name": "BATUMAK ECZANESİ",
      "address": "TURGUTLU MAHALLESİ KONYA CADDESİ NO:175A",
      "phone": "903328342005",
      "district": "Kadinhani",
      "city": "Konya",
      "latitude": 38.2400385,
      "longitude": 32.2110813,
      "dutyStart": "2026-02-17T09:00:00.000Z",
      "dutyEnd": "2026-02-18T09:00:00.000Z"
    },
    {
      "id": "konya-26",
      "name": "YAŞAR ECZANESİ",
      "address": "APAK MAHALLESİ KONYA CADDESİ NO:42E",
      "phone": "903327555560",
      "district": "Karapinar",
      "city": "Konya",
      "latitude": 37.7147945,
      "longitude": 33.5433604,
      "dutyStart": "2026-02-17T09:00:00.000Z",
      "dutyEnd": "2026-02-18T09:00:00.000Z"
    },
    {
      "id": "konya-27",
      "name": "TAŞKIRAN ECZANESİ",
      "address": "CAMİKEBİR MAHALLESİ ATATÜRK CADDESİ NO:49B",
      "phone": "903326413040",
      "district": "Kulu",
      "city": "Konya",
      "latitude": 39.09144,
      "longitude": 33.07504,
      "dutyStart": "2026-02-17T09:00:00.000Z",
      "dutyEnd": "2026-02-18T09:00:00.000Z"
    },
    {
      "id": "konya-28",
      "name": "HÜLYA ECZANESİ",
      "address": "DOĞU İSTASYON MAHALLESİ YALÇIN CADDESİ NO:10A-B",
      "phone": "903326171220",
      "district": "Sarayönü",
      "city": "Konya",
      "latitude": 38.26074,
      "longitude": 32.4078,
      "dutyStart": "2026-02-17T09:00:00.000Z",
      "dutyEnd": "2026-02-18T09:00:00.000Z"
    },
    {
      "id": "konya-29",
      "name": "OLCAY ECZANESİ",
      "address": "ULUKAPI MAHALLESİ NECATİ KALAYCIOĞLU CADDESİ NO:26A",
      "phone": "903325823258",
      "district": "Seydi̇şehi̇r",
      "city": "Konya",
      "latitude": 37.4193929,
      "longitude": 31.8526048,
      "dutyStart": "2026-02-17T09:00:00.000Z",
      "dutyEnd": "2026-02-18T09:00:00.000Z"
    },
    {
      "id": "konya-30",
      "name": "ELÇİN ECZANESİ",
      "address": "PAZAR MAHALLESİ AKŞEHİR CADDESİ NO: 43A",
      "phone": "903328612747",
      "district": "Tuzlukçu",
      "city": "Konya",
      "latitude": 38.4756664,
      "longitude": 31.6266898,
      "dutyStart": "2026-02-17T09:00:00.000Z",
      "dutyEnd": "2026-02-18T09:00:00.000Z"
    },
    {
      "id": "konya-31",
      "name": "ÖZ SAĞLIK ECZANESİ",
      "address": "YENİ MAHALLE ANKARA CADDESİ NO:711",
      "phone": "903328510307",
      "district": "Yunak",
      "city": "Konya",
      "latitude": 38.8147637,
      "longitude": 31.7349535,
      "dutyStart": "2026-02-17T09:00:00.000Z",
      "dutyEnd": "2026-02-18T09:00:00.000Z"
    }
  ]
}