{
  "city": "sinop",
  "cityName": "Sinop",
  "cityId": 57,
  "date": "2026-02-17",
  "updatedAt": "2026-02-17T14:30:07.662Z",
  "count": 6,
  "pharmacies": [
    {
      "id": "sinop-20",
      "name": "DRAMALI  ECZANESİ",
      "address": "CAMİKEBİR MAH.SAKARYA CAD.NO:51/A",
      "phone": "03682616179",
      "district": "Merkez",
      "city": "Sinop",
      "latitude": 42.025966,
      "longitude": 35.14749,
      "dutyStart": "2026-02-17T08:30:00.000Z",
      "dutyEnd": "2026-02-18T08:30:00.000Z"
    },
    {
      "id": "sinop-21",
      "name": "YÜKSEL  ECZANESİ",
      "address": "YALI MAH.ATATÜRK CAD.NO:26/A",
      "phone": "03686131631",
      "district": "Ayancık",
      "city": "Sinop",
      "latitude": 41.9434,
      "longitude": 34.588255,
      "dutyStart": "2026-02-17T08:30:00.000Z",
      "dutyEnd": "2026-02-18T08:30:00.000Z"
    },
    {
      "id": "sinop-22",
      "name": "BÜYÜK  ECZANESİ",
      "address": "KUMLUK MAH. STADYUM CAD. NO:17",
      "phone": "03683152785",
      "district": "Boyabat",
      "city": "Sinop",
      "latitude": 41.464199,
      "longitude": 34.770528,
      "dutyStart": "2026-02-17T08:30:00.000Z",
      "dutyEnd": "2026-02-18T08:30:00.000Z"
    },
    {
      "id": "sinop-23",
      "name": "ERDOĞAN  ECZANESİ",
      "address": "MERKEZ MAH. YUSUF KEMAL TENGİRŞEK CAD. NO:30",
      "phone": "03684162277",
      "district": "Durağan",
      "city": "Sinop",
      "latitude": 41.419614,
      "longitude": 35.053526,
      "dutyStart": "2026-02-17T08:30:00.000Z",
      "dutyEnd": "2026-02-18T08:30:00.000Z"
    },
    {
      "id": "sinop-24",
      "name": "KUMSAL ECZANESİ",
      "address": "MERKEZ MAH. ÇINARLIK CAD. NO:20/B",
      "phone": "03685112000",
      "district": "Erfelek",
      "city": "Sinop",
      "latitude": 41.879619,
      "longitude": 34.890881,
      "dutyStart": "2026-02-17T08:30:00.000Z",
      "dutyEnd": "2026-02-18T08:30:00.000Z"
    },
    {
      "id": "sinop-25",
      "name": "SERAY ECZANESİ",
      "address": "ÇARŞI MAH. CUMHURİYET MEYDANINO:1/A",
      "phone": "03687182020",
      "district": "Gerze",
      "city": "Sinop",
      "latitude": 41.802629,
      "longitude": 35.198403,
      "dutyStart": "2026-02-17T08:30:00.000Z",
      "dutyEnd": "2026-02-18T08:30:00.000Z"
    }
  ]
}