{
  "city": "istanbul",
  "cityName": "İstanbul",
  "cityId": 34,
  "date": "2026-03-08",
  "updatedAt": "2026-03-07T21:30:16.289Z",
  "count": 146,
  "pharmacies": [
    {
      "id": "istanbul-23642",
      "name": "4. LEVENT METRO ECZANESİ",
      "address": "Emniyetevleri Mahallesi, Lala Paşa Sokak, 9/B",
      "phone": "+902122829283",
      "district": "KAĞITHANE",
      "city": "İstanbul",
      "latitude": 41.08680700010846,
      "longitude": 29.006222999477508,
      "dutyStart": "2026-03-07T21:00:00.000Z",
      "dutyEnd": "2026-03-08T20:59:59.000Z"
    },
    {
      "id": "istanbul-25476",
      "name": "ACİL ECZANESİ",
      "address": "Şehitler Mahallesi, Cumhuriyet Caddesi, 84E",
      "phone": "+902126892140",
      "district": "ESENYURT",
      "city": "İstanbul",
      "latitude": 41.03576230411674,
      "longitude": 28.656847179205364,
      "dutyStart": "2026-03-07T21:00:00.000Z",
      "dutyEnd": "2026-03-08T20:59:59.000Z"
    },
    {
      "id": "istanbul-31140",
      "name": "AKAN ECZANESİ",
      "address": "Fevzi Çakmak Mahallesi, 1134. Sokak, No:9A",
      "phone": "+902124815805",
      "district": "ESENLER",
      "city": "İstanbul",
      "latitude": 41.048584999754986,
      "longitude": 28.879245999415293,
      "dutyStart": "2026-03-07T21:00:00.000Z",
      "dutyEnd": "2026-03-08T20:59:59.000Z"
    },
    {
      "id": "istanbul-22904",
      "name": "AKASYA ECZANESİ",
      "address": "Yeni Mahallesi, Nedim Beyazgül Sokak, 5/A",
      "phone": "+902127290059",
      "district": "SİLİVRİ",
      "city": "İstanbul",
      "latitude": 41.07766499998489,
      "longitude": 28.24934799984436,
      "dutyStart": "2026-03-07T21:00:00.000Z",
      "dutyEnd": "2026-03-08T20:59:59.000Z"
    },
    {
      "id": "istanbul-21474",
      "name": "AKSU ECZANESİ",
      "address": "Üçevler Mahallesi, Pazaryolu Caddesi, No:61/A",
      "phone": "+902127589999",
      "district": "ESENYURT",
      "city": "İstanbul",
      "latitude": 41.02464199990661,
      "longitude": 28.675813999946335,
      "dutyStart": "2026-03-07T21:00:00.000Z",
      "dutyEnd": "2026-03-08T20:59:59.000Z"
    },
    {
      "id": "istanbul-29268",
      "name": "ALEYNA ÇAKIRGÖZ ECZANESİ",
      "address": "Kavaklı Mahallesi, Kocatepe Caddesi, 319/4D/12",
      "phone": "+902128437497",
      "district": "BEYLİKDÜZÜ",
      "city": "İstanbul",
      "latitude": 40.98105835690267,
      "longitude": 28.662114703718682,
      "dutyStart": "2026-03-07T21:00:00.000Z",
      "dutyEnd": "2026-03-08T20:59:59.000Z"
    },
    {
      "id": "istanbul-19268",
      "name": "APAK ECZANESİ",
      "address": "19 Mayıs Mahallesi, 19 Mayıs Caddesi, 25/D",
      "phone": "+902122592991",
      "district": "ŞİŞLİ",
      "city": "İstanbul",
      "latitude": 41.0586458767054,
      "longitude": 28.993090170908108,
      "dutyStart": "2026-03-07T21:00:00.000Z",
      "dutyEnd": "2026-03-08T20:59:59.000Z"
    },
    {
      "id": "istanbul-27200",
      "name": "AVRUPA PLUS ECZANESİ",
      "address": "Yeni Mahalle Mahallesi, Mahmutbey Caddesi, No:164-176AE",
      "phone": "+902128719201",
      "district": "BAĞCILAR",
      "city": "İstanbul",
      "latitude": 41.04102102172101,
      "longitude": 28.83298108399179,
      "dutyStart": "2026-03-07T21:00:00.000Z",
      "dutyEnd": "2026-03-08T20:59:59.000Z"
    },
    {
      "id": "istanbul-19200",
      "name": "AVŞAR ECZANESİ",
      "address": "Yeşilkent Mahallesi, 2011. Sokak, 16B/9",
      "phone": "+902124235410",
      "district": "ESENYURT",
      "city": "İstanbul",
      "latitude": 41.026151836754536,
      "longitude": 28.65884893409866,
      "dutyStart": "2026-03-07T21:00:00.000Z",
      "dutyEnd": "2026-03-08T20:59:59.000Z"
    },
    {
      "id": "istanbul-16684",
      "name": "AYAZMA ECZANESİ",
      "address": "Ahmediye Mahallesi, Halk Caddesi, 33B",
      "phone": "+902165326812",
      "district": "ÜSKÜDAR",
      "city": "İstanbul",
      "latitude": 41.020227347297336,
      "longitude": 29.014953631766648,
      "dutyStart": "2026-03-07T21:00:00.000Z",
      "dutyEnd": "2026-03-08T20:59:59.000Z"
    },
    {
      "id": "istanbul-15276",
      "name": "AYDIN ECZANESİ",
      "address": "Yıldırım Mahallesi, Ali Fuat Başgil Caddesi, 22/1B",
      "phone": "+902126180051",
      "district": "BAYRAMPAŞA",
      "city": "İstanbul",
      "latitude": 41.06694104243994,
      "longitude": 28.895342096750113,
      "dutyStart": "2026-03-07T21:00:00.000Z",
      "dutyEnd": "2026-03-08T20:59:59.000Z"
    },
    {
      "id": "istanbul-28198",
      "name": "AYSUN ECZANESİ",
      "address": "Mithatpaşa Mahallesi, Abdülhamit Han Caddesi, 135/A",
      "phone": "+902125767272",
      "district": "EYÜPSULTAN",
      "city": "İstanbul",
      "latitude": 41.160414000026314,
      "longitude": 28.911325000330553,
      "dutyStart": "2026-03-07T21:00:00.000Z",
      "dutyEnd": "2026-03-08T20:59:59.000Z"
    },
    {
      "id": "istanbul-20076",
      "name": "AİRPORT ECZANESİ",
      "address": "Ataköy 7-8-9-10.  Kısım Mahallesi, Çobançeşme E-5 Yan Yol Caddesi, No:14 Airport AVM Zemin Kat Z 21/A ",
      "phone": "+902124663800",
      "district": "BAKIRKÖY",
      "city": "İstanbul",
      "latitude": 40.99118954467113,
      "longitude": 28.830158782873887,
      "dutyStart": "2026-03-07T21:00:00.000Z",
      "dutyEnd": "2026-03-08T20:59:59.000Z"
    },
    {
      "id": "istanbul-22940",
      "name": "BADEM ECZANESİ",
      "address": "Mustafa Kemal Paşa Mahallesi, Mareşal Caddesi, 27/A",
      "phone": "+902124237359",
      "district": "AVCILAR",
      "city": "İstanbul",
      "latitude": 40.997921000085014,
      "longitude": 28.70827000040396,
      "dutyStart": "2026-03-07T21:00:00.000Z",
      "dutyEnd": "2026-03-08T20:59:59.000Z"
    },
    {
      "id": "istanbul-16026",
      "name": "BATI ECZANESİ",
      "address": "Mimar Sinan Merkez Mahallesi, Çizmeci Sokak, 2A",
      "phone": "+902128824020",
      "district": "BÜYÜKÇEKMECE",
      "city": "İstanbul",
      "latitude": 41.017097000156326,
      "longitude": 28.556985000075702,
      "dutyStart": "2026-03-07T21:00:00.000Z",
      "dutyEnd": "2026-03-08T20:59:59.000Z"
    },
    {
      "id": "istanbul-31878",
      "name": "BEYATLI ECZANESİ",
      "address": "Cumhuriyet Mahallesi, Dr. Sadık Ahmet Caddesi, 60/A",
      "phone": "+905057976725",
      "district": "KÜÇÜKÇEKMECE",
      "city": "İstanbul",
      "latitude": 41.002568970605175,
      "longitude": 28.77849701775945,
      "dutyStart": "2026-03-07T21:00:00.000Z",
      "dutyEnd": "2026-03-08T20:59:59.000Z"
    },
    {
      "id": "istanbul-21382",
      "name": "BEŞYILDIZ ECZANESİ",
      "address": "Mimar Sinan Mahallesi, Yavuz Selim Caddesi, 3/2",
      "phone": "+902166422854",
      "district": "ÇEKMEKÖY",
      "city": "İstanbul",
      "latitude": 41.028693595281766,
      "longitude": 29.17593953237968,
      "dutyStart": "2026-03-07T21:00:00.000Z",
      "dutyEnd": "2026-03-08T20:59:59.000Z"
    },
    {
      "id": "istanbul-18482",
      "name": "BOZKIR ECZANESİ",
      "address": "Telsiz Mahallesi, 86/1. Sokak, 7/C",
      "phone": "+902124162747",
      "district": "ZEYTİNBURNU",
      "city": "İstanbul",
      "latitude": 40.99741700033872,
      "longitude": 28.91260999972065,
      "dutyStart": "2026-03-07T21:00:00.000Z",
      "dutyEnd": "2026-03-08T20:59:59.000Z"
    },
    {
      "id": "istanbul-2338",
      "name": "BURGAZADA ECZANESİ",
      "address": "Burgazadası Mahallesi, Çınarlık Sokak, 3",
      "phone": "+902163812112",
      "district": "ADALAR",
      "city": "İstanbul",
      "latitude": 40.87998754997831,
      "longitude": 29.06919493887321,
      "dutyStart": "2026-03-07T21:00:00.000Z",
      "dutyEnd": "2026-03-08T20:59:59.000Z"
    },
    {
      "id": "istanbul-13282",
      "name": "BÜYÜK UMUT ECZANESİ",
      "address": "Yeşilköy Mahallesi Çekmece Caddesi 11/B",
      "phone": "+902125731787",
      "district": "BAKIRKÖY",
      "city": "İstanbul",
      "latitude": 40.95964790746123,
      "longitude": 28.819573322782695,
      "dutyStart": "2026-03-07T21:00:00.000Z",
      "dutyEnd": "2026-03-08T20:59:59.000Z"
    },
    {
      "id": "istanbul-25130",
      "name": "CADDE ECZANESİ",
      "address": "Turgut Özal Mahallesi, Tonguç Baba Caddesi, 18A",
      "phone": "+902124231913",
      "district": "ESENYURT",
      "city": "İstanbul",
      "latitude": 41.004167670722005,
      "longitude": 28.691517412730438,
      "dutyStart": "2026-03-07T21:00:00.000Z",
      "dutyEnd": "2026-03-08T20:59:59.000Z"
    },
    {
      "id": "istanbul-4608",
      "name": "CELAL ECZANESİ",
      "address": "Osmangazi Mahallesi, Genç Osman Caddesi, 26/A",
      "phone": "+902165610347",
      "district": "SANCAKTEPE",
      "city": "İstanbul",
      "latitude": 40.98890600180728,
      "longitude": 29.251082876724556,
      "dutyStart": "2026-03-07T21:00:00.000Z",
      "dutyEnd": "2026-03-08T20:59:59.000Z"
    },
    {
      "id": "istanbul-20538",
      "name": "DEFNE ECZANESİ",
      "address": "Rüzgarlıbahçe Mahallesi, Şehit Ömer Balıkçı Sokak, 26",
      "phone": "+902164134801",
      "district": "BEYKOZ",
      "city": "İstanbul",
      "latitude": 41.09709879405154,
      "longitude": 29.098908214326002,
      "dutyStart": "2026-03-07T21:00:00.000Z",
      "dutyEnd": "2026-03-08T20:59:59.000Z"
    },
    {
      "id": "istanbul-17988",
      "name": "DEMET ECZANESİ",
      "address": "Sinanpaşa Mahallesi, Ortabahçe Caddesi, 7",
      "phone": "+902122605042",
      "district": "BEŞİKTAŞ",
      "city": "İstanbul",
      "latitude": 41.042156118524986,
      "longitude": 29.004678133557174,
      "dutyStart": "2026-03-07T21:00:00.000Z",
      "dutyEnd": "2026-03-08T20:59:59.000Z"
    },
    {
      "id": "istanbul-25516",
      "name": "DEMİRCİOĞLU ECZANESİ",
      "address": "Atalar Mahallesi, Üsküdar Caddesi, 152/A",
      "phone": "+902164885073",
      "district": "KARTAL",
      "city": "İstanbul",
      "latitude": 40.901182739985806,
      "longitude": 29.167455995516733,
      "dutyStart": "2026-03-07T21:00:00.000Z",
      "dutyEnd": "2026-03-08T20:59:59.000Z"
    },
    {
      "id": "istanbul-30884",
      "name": "DENİZ ECZANESİ",
      "address": "Bahçelievler Mahallesi, Zıpkın Sokak, No:9/A",
      "phone": "+902163901071",
      "district": "PENDİK",
      "city": "İstanbul",
      "latitude": 40.883147000070096,
      "longitude": 29.235904000041927,
      "dutyStart": "2026-03-07T21:00:00.000Z",
      "dutyEnd": "2026-03-08T20:59:59.000Z"
    },
    {
      "id": "istanbul-24096",
      "name": "DEREBOYU ECZANESİ",
      "address": "Mecidiye Mahallesi, Dereboyu Caddesi, 47/A",
      "phone": "+902122270017",
      "district": "BEŞİKTAŞ",
      "city": "İstanbul",
      "latitude": 41.04982727307131,
      "longitude": 29.02554657182132,
      "dutyStart": "2026-03-07T21:00:00.000Z",
      "dutyEnd": "2026-03-08T20:59:59.000Z"
    },
    {
      "id": "istanbul-19216",
      "name": "DERMAKO ECZANESİ",
      "address": "Bebek Mahallesi, Küçükbebek Caddesi, 5",
      "phone": "+902122875219",
      "district": "BEŞİKTAŞ",
      "city": "İstanbul",
      "latitude": 41.078907400618945,
      "longitude": 29.044997671447096,
      "dutyStart": "2026-03-07T21:00:00.000Z",
      "dutyEnd": "2026-03-08T20:59:59.000Z"
    },
    {
      "id": "istanbul-28854",
      "name": "DEVA ECZANESİ",
      "address": "Atatürk Mahallesi, Parmaksız Caddesi, B Blok no:33A-1",
      "phone": "+902128812295",
      "district": "BÜYÜKÇEKMECE",
      "city": "İstanbul",
      "latitude": 41.01281159831885,
      "longitude": 28.605171952328405,
      "dutyStart": "2026-03-07T21:00:00.000Z",
      "dutyEnd": "2026-03-08T20:59:59.000Z"
    },
    {
      "id": "istanbul-24976",
      "name": "DEVA ECZANESİ",
      "address": "İncirtepe Mahallesi, Okurlar Caddesi, 63A",
      "phone": "+902126202079",
      "district": "ESENYURT",
      "city": "İstanbul",
      "latitude": 41.020924105087474,
      "longitude": 28.69664968217466,
      "dutyStart": "2026-03-07T21:00:00.000Z",
      "dutyEnd": "2026-03-08T20:59:59.000Z"
    },
    {
      "id": "istanbul-18278",
      "name": "DOĞAN ECZANESİ",
      "address": "Abdurrahman Nafiz Gürman Mahallesi, Şair Ahmet Kutsi Tecer Caddesi, 37",
      "phone": "+902126412490",
      "district": "GÜNGÖREN",
      "city": "İstanbul",
      "latitude": 41.00726911781711,
      "longitude": 28.88762712422362,
      "dutyStart": "2026-03-07T21:00:00.000Z",
      "dutyEnd": "2026-03-08T20:59:59.000Z"
    },
    {
      "id": "istanbul-20304",
      "name": "DİLŞAT ECZANESİ",
      "address": "Karlıktepe Mahallesi, Yaşardoğu Caddesi, 3A",
      "phone": "+902163876540",
      "district": "KARTAL",
      "city": "İstanbul",
      "latitude": 40.90124599961759,
      "longitude": 29.19034199997296,
      "dutyStart": "2026-03-07T21:00:00.000Z",
      "dutyEnd": "2026-03-08T20:59:59.000Z"
    },
    {
      "id": "istanbul-20056",
      "name": "ECZANE BEHİCE",
      "address": "Saray Mahallesi, Alemdağ Caddesi, Sezer Sokak, 7/1",
      "phone": "+902166320636",
      "district": "ÜMRANİYE",
      "city": "İstanbul",
      "latitude": 41.021973146169984,
      "longitude": 29.12004194859514,
      "dutyStart": "2026-03-07T21:00:00.000Z",
      "dutyEnd": "2026-03-08T20:59:59.000Z"
    },
    {
      "id": "istanbul-26294",
      "name": "ECZANE MENTOL",
      "address": "Emek Mahallesi, Kayalar Caddesi, 75A",
      "phone": "+902162323333",
      "district": "SANCAKTEPE",
      "city": "İstanbul",
      "latitude": 41.004387934145946,
      "longitude": 29.19878705302764,
      "dutyStart": "2026-03-07T21:00:00.000Z",
      "dutyEnd": "2026-03-08T20:59:59.000Z"
    },
    {
      "id": "istanbul-21898",
      "name": "EKİN ECZANESİ",
      "address": "Harmantepe Mahallesi Abdi İpekçi Caddesi 3/B",
      "phone": "+902122700302",
      "district": "KAĞITHANE",
      "city": "İstanbul",
      "latitude": 41.081057954445754,
      "longitude": 28.99202994035163,
      "dutyStart": "2026-03-07T21:00:00.000Z",
      "dutyEnd": "2026-03-08T20:59:59.000Z"
    },
    {
      "id": "istanbul-24074",
      "name": "EKŞİNAR ECZANESİ",
      "address": "Şenlikköy Mahallesi, Florya Caddesi, 59C",
      "phone": "+902126011144",
      "district": "BAKIRKÖY",
      "city": "İstanbul",
      "latitude": 40.98517120219209,
      "longitude": 28.795836308254124,
      "dutyStart": "2026-03-07T21:00:00.000Z",
      "dutyEnd": "2026-03-08T20:59:59.000Z"
    },
    {
      "id": "istanbul-22804",
      "name": "ELÇİOĞLU ECZANESİ",
      "address": "İsmetpaşa Mahallesi, Kenar Sokak, 83/A",
      "phone": "+902125440327",
      "district": "BAYRAMPAŞA",
      "city": "İstanbul",
      "latitude": 41.04185290150696,
      "longitude": 28.90364397321699,
      "dutyStart": "2026-03-07T21:00:00.000Z",
      "dutyEnd": "2026-03-08T20:59:59.000Z"
    },
    {
      "id": "istanbul-27098",
      "name": "ELİF ASLAN ECZANESİ",
      "address": "Kayabaşı Mahallesi, Kayaşehir Bulvarı, 15B",
      "phone": "+902128139010",
      "district": "BAŞAKŞEHİR",
      "city": "İstanbul",
      "latitude": 41.10211099995015,
      "longitude": 28.762115000482773,
      "dutyStart": "2026-03-07T21:00:00.000Z",
      "dutyEnd": "2026-03-08T20:59:59.000Z"
    },
    {
      "id": "istanbul-21728",
      "name": "ELİF ECZANESİ",
      "address": "Bahçelievler Mahallesi, Şevket Dağ Sokak, 4/A",
      "phone": "+902125557560",
      "district": "BAHÇELİEVLER",
      "city": "İstanbul",
      "latitude": 41.007025999971866,
      "longitude": 28.869491000405834,
      "dutyStart": "2026-03-07T21:00:00.000Z",
      "dutyEnd": "2026-03-08T20:59:59.000Z"
    },
    {
      "id": "istanbul-7372",
      "name": "EMEL ECZANESİ",
      "address": "Ferhatpaşa Mahallesi, Atatürk Caddesi, 47/2",
      "phone": "+902127892771",
      "district": "ÇATALCA",
      "city": "İstanbul",
      "latitude": 41.14068211009276,
      "longitude": 28.4640694405952,
      "dutyStart": "2026-03-07T21:00:00.000Z",
      "dutyEnd": "2026-03-08T20:59:59.000Z"
    },
    {
      "id": "istanbul-20572",
      "name": "EMİR ECZANESİ",
      "address": "Zafer Mahallesi, Atatürk Caddesi, 34/B",
      "phone": "+902125034742",
      "district": "BAHÇELİEVLER",
      "city": "İstanbul",
      "latitude": 41.01436617088958,
      "longitude": 28.835079296065228,
      "dutyStart": "2026-03-07T21:00:00.000Z",
      "dutyEnd": "2026-03-08T20:59:59.000Z"
    },
    {
      "id": "istanbul-33892",
      "name": "ERDEM ECZANESİ",
      "address": "Şifa Mahallesi, Emiroğlu Caddesi, 91 B",
      "phone": "+905312491921",
      "district": "TUZLA",
      "city": "İstanbul",
      "latitude": 40.834294326922645,
      "longitude": 29.36126534042517,
      "dutyStart": "2026-03-07T21:00:00.000Z",
      "dutyEnd": "2026-03-08T20:59:59.000Z"
    },
    {
      "id": "istanbul-14364",
      "name": "ERDİL ECZANESİ",
      "address": "Mehmet Akif Mahallesi, Onur Sokak, 44/A",
      "phone": "+902126116482",
      "district": "KÜÇÜKÇEKMECE",
      "city": "İstanbul",
      "latitude": 41.057638397783215,
      "longitude": 28.80097252343508,
      "dutyStart": "2026-03-07T21:00:00.000Z",
      "dutyEnd": "2026-03-08T20:59:59.000Z"
    },
    {
      "id": "istanbul-14088",
      "name": "ERTEM ECZANESİ",
      "address": "Atakent Mahallesi, Kent Bulvarı, 14/2",
      "phone": "+902126986570",
      "district": "KÜÇÜKÇEKMECE",
      "city": "İstanbul",
      "latitude": 41.055767892785866,
      "longitude": 28.78608895499324,
      "dutyStart": "2026-03-07T21:00:00.000Z",
      "dutyEnd": "2026-03-08T20:59:59.000Z"
    },
    {
      "id": "istanbul-31706",
      "name": "ESİN KAYA ECZANESİ",
      "address": "Bağlarbaşı Mahallesi, Feyzullah Caddesi, 28/D",
      "phone": "+902164419477",
      "district": "MALTEPE",
      "city": "İstanbul",
      "latitude": 40.924861937549835,
      "longitude": 29.13539360903363,
      "dutyStart": "2026-03-07T21:00:00.000Z",
      "dutyEnd": "2026-03-08T20:59:59.000Z"
    },
    {
      "id": "istanbul-31738",
      "name": "EYMEN ECZANESİ",
      "address": "Kartaltepe Mahallesi, 1. Malazgirt Caddesi, 10/2A",
      "phone": "+902126132223",
      "district": "KÜÇÜKÇEKMECE",
      "city": "İstanbul",
      "latitude": 41.00543399968034,
      "longitude": 28.80898899965068,
      "dutyStart": "2026-03-07T21:00:00.000Z",
      "dutyEnd": "2026-03-08T20:59:59.000Z"
    },
    {
      "id": "istanbul-10812",
      "name": "FATOŞ ECZANESİ",
      "address": "Söğütlüçeşme Mahallesi, Camialtı Sokak, 32",
      "phone": "+905335644353",
      "district": "KÜÇÜKÇEKMECE",
      "city": "İstanbul",
      "latitude": 41.01724667391681,
      "longitude": 28.78452171982375,
      "dutyStart": "2026-03-07T21:00:00.000Z",
      "dutyEnd": "2026-03-08T20:59:59.000Z"
    },
    {
      "id": "istanbul-19566",
      "name": "FATİH ECZANESİ",
      "address": "Soğanlık Yeni Mahallesi, Mimar Sinan Caddesi, 35/A-35/C",
      "phone": "+902165668822",
      "district": "KARTAL",
      "city": "İstanbul",
      "latitude": 40.91785499980232,
      "longitude": 29.191851000174765,
      "dutyStart": "2026-03-07T21:00:00.000Z",
      "dutyEnd": "2026-03-08T20:59:59.000Z"
    },
    {
      "id": "istanbul-21152",
      "name": "FEYZA ECZANESİ",
      "address": "Güzelyalı Mahallesi, Hızır Reis Sokak, 13",
      "phone": "+902164943676",
      "district": "PENDİK",
      "city": "İstanbul",
      "latitude": 40.859567488054,
      "longitude": 29.279661336484608,
      "dutyStart": "2026-03-07T21:00:00.000Z",
      "dutyEnd": "2026-03-08T20:59:59.000Z"
    },
    {
      "id": "istanbul-29880",
      "name": "FLORA ECZANESİ",
      "address": "19 Mayıs Mahallesi, Mercan Sokak, 5/A",
      "phone": "+902164162779",
      "district": "KADIKÖY",
      "city": "İstanbul",
      "latitude": 40.9767169995555,
      "longitude": 29.09603700011053,
      "dutyStart": "2026-03-07T21:00:00.000Z",
      "dutyEnd": "2026-03-08T20:59:59.000Z"
    },
    {
      "id": "istanbul-33754",
      "name": "FLORA ECZANESİ",
      "address": "Sultançiftliği Mahallesi, Özveri Sokak, 1A/1C",
      "phone": "+905069083441",
      "district": "ÇEKMEKÖY",
      "city": "İstanbul",
      "latitude": 41.03003700027853,
      "longitude": 29.228645999698212,
      "dutyStart": "2026-03-07T21:00:00.000Z",
      "dutyEnd": "2026-03-08T20:59:59.000Z"
    },
    {
      "id": "istanbul-23284",
      "name": "G-PLUS ECZANESİ",
      "address": "Bağlar Mahallesi, Mimar Sinan Caddesi, 37B",
      "phone": "+902128030509",
      "district": "BAĞCILAR",
      "city": "İstanbul",
      "latitude": 41.0247607944024,
      "longitude": 28.81555080433003,
      "dutyStart": "2026-03-07T21:00:00.000Z",
      "dutyEnd": "2026-03-08T20:59:59.000Z"
    },
    {
      "id": "istanbul-22526",
      "name": "GAMZE ECZANESİ",
      "address": "Acıbadem Mahallesi, Acıbadem Caddesi, 103/A",
      "phone": "+902163260104",
      "district": "KADIKÖY",
      "city": "İstanbul",
      "latitude": 41.00441300028397,
      "longitude": 29.04458100008862,
      "dutyStart": "2026-03-07T21:00:00.000Z",
      "dutyEnd": "2026-03-08T20:59:59.000Z"
    },
    {
      "id": "istanbul-27854",
      "name": "GÖKSU ECZANESİ",
      "address": "Hürriyet Mahallesi, Abidei Hürriyet Caddesi, 166/A",
      "phone": "+902124030853",
      "district": "KAĞITHANE",
      "city": "İstanbul",
      "latitude": 41.06948907386462,
      "longitude": 28.98273631920063,
      "dutyStart": "2026-03-07T21:00:00.000Z",
      "dutyEnd": "2026-03-08T20:59:59.000Z"
    },
    {
      "id": "istanbul-25658",
      "name": "GÖNÜL ECZANESİ",
      "address": "Halıcıoğlu Mahallesi, Çakırbeyler Sokak, 18/B",
      "phone": "+902123691772",
      "district": "BEYOĞLU",
      "city": "İstanbul",
      "latitude": 41.04868767066735,
      "longitude": 28.951129898990917,
      "dutyStart": "2026-03-07T21:00:00.000Z",
      "dutyEnd": "2026-03-08T20:59:59.000Z"
    },
    {
      "id": "istanbul-15146",
      "name": "GÜNEŞ ECZANESİ",
      "address": "Ahmet Yesevi Mahallesi, Bosna Bulvarı, Hücre Sok. 1/B",
      "phone": "+902165929696",
      "district": "SULTANBEYLİ",
      "city": "İstanbul",
      "latitude": 40.9758449325551,
      "longitude": 29.26507429058457,
      "dutyStart": "2026-03-07T21:00:00.000Z",
      "dutyEnd": "2026-03-08T20:59:59.000Z"
    },
    {
      "id": "istanbul-8836",
      "name": "GÜNHAN ECZANESİ",
      "address": "Battalgazi Mahallesi, Hamzalar Sokak, 1B",
      "phone": "+905321388239",
      "district": "SULTANBEYLİ",
      "city": "İstanbul",
      "latitude": 40.98661164377756,
      "longitude": 29.28361637567101,
      "dutyStart": "2026-03-07T21:00:00.000Z",
      "dutyEnd": "2026-03-08T20:59:59.000Z"
    },
    {
      "id": "istanbul-9698",
      "name": "GÜRCAN ECZANESİ",
      "address": "Merkez Mahallesi, Çukurçeşme Caddesi, 2/4",
      "phone": "+902126167268",
      "district": "GAZİOSMANPAŞA",
      "city": "İstanbul",
      "latitude": 41.058220444613156,
      "longitude": 28.911929055103386,
      "dutyStart": "2026-03-07T21:00:00.000Z",
      "dutyEnd": "2026-03-08T20:59:59.000Z"
    },
    {
      "id": "istanbul-23074",
      "name": "HAYAL ECZANESİ",
      "address": "Atatürk Mahallesi, Çavuşbaşı Caddesi, 100/C",
      "phone": "+902165050309",
      "district": "ÜMRANİYE",
      "city": "İstanbul",
      "latitude": 41.02969864217022,
      "longitude": 29.096200650069203,
      "dutyStart": "2026-03-07T21:00:00.000Z",
      "dutyEnd": "2026-03-08T20:59:59.000Z"
    },
    {
      "id": "istanbul-35462",
      "name": "HEKİMOĞLU ECZANESİ",
      "address": "Fevzi Çakmak Mahallesi, Muhsin Yazıcıoğlu Caddesi, 15/5",
      "phone": "+902165972574",
      "district": "PENDİK",
      "city": "İstanbul",
      "latitude": 40.8882530897917,
      "longitude": 29.262777086007155,
      "dutyStart": "2026-03-07T21:00:00.000Z",
      "dutyEnd": "2026-03-08T20:59:59.000Z"
    },
    {
      "id": "istanbul-21594",
      "name": "HEKİMOĞLU ECZANESİ",
      "address": "Cumhuriyet Mahallesi, Esatpaşa Caddesi, No:21/AD",
      "phone": "+902164811734",
      "district": "ÜSKÜDAR",
      "city": "İstanbul",
      "latitude": 41.01095299956989,
      "longitude": 29.083711999412824,
      "dutyStart": "2026-03-07T21:00:00.000Z",
      "dutyEnd": "2026-03-08T20:59:59.000Z"
    },
    {
      "id": "istanbul-6296",
      "name": "HEYBELİADA ECZANESİ",
      "address": "Heybeliada Mahallesi, Ayyıldız Caddesi, No:25/D",
      "phone": "+902163518415",
      "district": "ADALAR",
      "city": "İstanbul",
      "latitude": 40.87751817989951,
      "longitude": 29.1001562048735,
      "dutyStart": "2026-03-07T21:00:00.000Z",
      "dutyEnd": "2026-03-08T20:59:59.000Z"
    },
    {
      "id": "istanbul-26360",
      "name": "HUZUR ECZANESİ",
      "address": "Kulaksız Mahallesi, Kulaksız Caddesi, 95D",
      "phone": "+905385160753",
      "district": "BEYOĞLU",
      "city": "İstanbul",
      "latitude": 41.03858933928532,
      "longitude": 28.962647800469096,
      "dutyStart": "2026-03-07T21:00:00.000Z",
      "dutyEnd": "2026-03-08T20:59:59.000Z"
    },
    {
      "id": "istanbul-26972",
      "name": "IHLAMUR ECZANESİ",
      "address": "Turgut Reis Mahallesi, Cengiz Topel Caddesi, 93/B",
      "phone": "+905301437976",
      "district": "ESENLER",
      "city": "İstanbul",
      "latitude": 41.060028999593996,
      "longitude": 28.86427100006934,
      "dutyStart": "2026-03-07T21:00:00.000Z",
      "dutyEnd": "2026-03-08T20:59:59.000Z"
    },
    {
      "id": "istanbul-27354",
      "name": "IHLAMUR ECZANESİ",
      "address": "Mimar Sinan Mahallesi, Mimar Sinan Caddesi, No:85/1A",
      "phone": "+902165042804",
      "district": "ÇEKMEKÖY",
      "city": "İstanbul",
      "latitude": 41.03092799963068,
      "longitude": 29.18735999984071,
      "dutyStart": "2026-03-07T21:00:00.000Z",
      "dutyEnd": "2026-03-08T20:59:59.000Z"
    },
    {
      "id": "istanbul-33038",
      "name": "IRMAK ECZANESİ",
      "address": "Mimar Sinan Mahallesi, Atatürk Caddesi, 3/A",
      "phone": "+902126117444",
      "district": "ESENLER",
      "city": "İstanbul",
      "latitude": 41.0340839997275,
      "longitude": 28.885732000046445,
      "dutyStart": "2026-03-07T21:00:00.000Z",
      "dutyEnd": "2026-03-08T20:59:59.000Z"
    },
    {
      "id": "istanbul-16816",
      "name": "IŞIK ECZANESİ",
      "address": "Kazım Karabekir Mahallesi, Kazım Karabekir Caddesi, 10A",
      "phone": "+902125629909",
      "district": "ESENLER",
      "city": "İstanbul",
      "latitude": 41.0442479087472,
      "longitude": 28.878474527126595,
      "dutyStart": "2026-03-07T21:00:00.000Z",
      "dutyEnd": "2026-03-08T20:59:59.000Z"
    },
    {
      "id": "istanbul-17018",
      "name": "KADIKÖY ÇARŞI ECZANESİ",
      "address": "Caferağa Mahallesi, Tavus Sokak, 18/B",
      "phone": "+902163384838",
      "district": "KADIKÖY",
      "city": "İstanbul",
      "latitude": 40.99095100001122,
      "longitude": 29.023992000251706,
      "dutyStart": "2026-03-07T21:00:00.000Z",
      "dutyEnd": "2026-03-08T20:59:59.000Z"
    },
    {
      "id": "istanbul-27824",
      "name": "KAYA ECZANESİ",
      "address": "Yeniçamlıca Mahallesi, Sakarya Caddesi, 61",
      "phone": "+902166601719",
      "district": "ATAŞEHİR",
      "city": "İstanbul",
      "latitude": 40.985560561888185,
      "longitude": 29.16295018424004,
      "dutyStart": "2026-03-07T21:00:00.000Z",
      "dutyEnd": "2026-03-08T20:59:59.000Z"
    },
    {
      "id": "istanbul-11344",
      "name": "KENT ECZANESİ",
      "address": "Fevzi Çakmak Mahallesi Cengiz Topel Caddesi 172",
      "phone": "+902125351170",
      "district": "GAZİOSMANPAŞA",
      "city": "İstanbul",
      "latitude": 41.07177735791658,
      "longitude": 28.90135095712654,
      "dutyStart": "2026-03-07T21:00:00.000Z",
      "dutyEnd": "2026-03-08T20:59:59.000Z"
    },
    {
      "id": "istanbul-13664",
      "name": "KEZBAN ECZANESİ",
      "address": "Namık Kemal Mahallesi, Cengiz Topel Caddesi, 11",
      "phone": "+902163166875",
      "district": "ÜMRANİYE",
      "city": "İstanbul",
      "latitude": 41.022382175797524,
      "longitude": 29.091795821943332,
      "dutyStart": "2026-03-07T21:00:00.000Z",
      "dutyEnd": "2026-03-08T20:59:59.000Z"
    },
    {
      "id": "istanbul-32286",
      "name": "KINALI ECZANESİ(V)",
      "address": "Kınalıada Mahallesi, Çarşı Caddesi, 20/A",
      "phone": "+902163814098",
      "district": "ADALAR",
      "city": "İstanbul",
      "latitude": 40.90800100012437,
      "longitude": 29.055135999790647,
      "dutyStart": "2026-03-07T21:00:00.000Z",
      "dutyEnd": "2026-03-08T20:59:59.000Z"
    },
    {
      "id": "istanbul-28852",
      "name": "LAVANTA ECZANESİ",
      "address": "Yeni Mahallesi, Hatipoğlu Sokak, Dış Kapı No:5E A Blok ",
      "phone": "+902128302822",
      "district": "SİLİVRİ",
      "city": "İstanbul",
      "latitude": 41.08724799983091,
      "longitude": 28.25199800031546,
      "dutyStart": "2026-03-07T21:00:00.000Z",
      "dutyEnd": "2026-03-08T20:59:59.000Z"
    },
    {
      "id": "istanbul-24608",
      "name": "LEVENT ECZANESİ",
      "address": "Şirinevler Mahallesi, Camcı Sokak, 4B",
      "phone": "+902125036061",
      "district": "BAHÇELİEVLER",
      "city": "İstanbul",
      "latitude": 41.00467020449651,
      "longitude": 28.843721872174378,
      "dutyStart": "2026-03-07T21:00:00.000Z",
      "dutyEnd": "2026-03-08T20:59:59.000Z"
    },
    {
      "id": "istanbul-15618",
      "name": "LOCA ECZANESİ (V)",
      "address": "Bahçeşehir 2.  Kısım Mahallesi, Avni Akyol Bulvarı, 3/2D",
      "phone": "+902126691200",
      "district": "BAŞAKŞEHİR",
      "city": "İstanbul",
      "latitude": 41.07047199997137,
      "longitude": 28.68729399983441,
      "dutyStart": "2026-03-07T21:00:00.000Z",
      "dutyEnd": "2026-03-08T20:59:59.000Z"
    },
    {
      "id": "istanbul-25576",
      "name": "MARMARA ECZANESİ",
      "address": "Anadolu Mahallesi, Necip Fazıl Caddesi, 33B",
      "phone": "+902125970293",
      "district": "ARNAVUTKÖY",
      "city": "İstanbul",
      "latitude": 41.184252661635654,
      "longitude": 28.74497652054351,
      "dutyStart": "2026-03-07T21:00:00.000Z",
      "dutyEnd": "2026-03-08T20:59:59.000Z"
    },
    {
      "id": "istanbul-18746",
      "name": "MELEK ECZANESİ",
      "address": "Muratpaşa Mahallesi, Cicoz Yolu Caddesi, 29",
      "phone": "+902124172609",
      "district": "BAYRAMPAŞA",
      "city": "İstanbul",
      "latitude": 41.054827519813614,
      "longitude": 28.907516630940233,
      "dutyStart": "2026-03-07T21:00:00.000Z",
      "dutyEnd": "2026-03-08T20:59:59.000Z"
    },
    {
      "id": "istanbul-25722",
      "name": "MERCAN ECZANESİ",
      "address": "Cami Mahallesi, İstasyon Caddesi, 48D",
      "phone": "+902163953306",
      "district": "TUZLA",
      "city": "İstanbul",
      "latitude": 40.81755191324498,
      "longitude": 29.304411074954785,
      "dutyStart": "2026-03-07T21:00:00.000Z",
      "dutyEnd": "2026-03-08T20:59:59.000Z"
    },
    {
      "id": "istanbul-32394",
      "name": "MERVE ECZANESİ",
      "address": "Bereketzade Mahallesi, Bankalar Caddesi, No:8/B",
      "phone": "+902126500840",
      "district": "BEYOĞLU",
      "city": "İstanbul",
      "latitude": 41.02377593265792,
      "longitude": 28.974343997865766,
      "dutyStart": "2026-03-07T21:00:00.000Z",
      "dutyEnd": "2026-03-08T20:59:59.000Z"
    },
    {
      "id": "istanbul-28400",
      "name": "MISRA KAN ECZANESİ",
      "address": "Erenköy Mahallesi, Şemsettin Günaltay Caddesi, 173/E",
      "phone": "+902163850096",
      "district": "KADIKÖY",
      "city": "İstanbul",
      "latitude": 40.97463339375594,
      "longitude": 29.08099418929167,
      "dutyStart": "2026-03-07T21:00:00.000Z",
      "dutyEnd": "2026-03-08T20:59:59.000Z"
    },
    {
      "id": "istanbul-11890",
      "name": "NATURA ECZANESİ",
      "address": "Karayolları Mahallesi, 621. Sokak 58-1/A",
      "phone": "+902124774415",
      "district": "GAZİOSMANPAŞA",
      "city": "İstanbul",
      "latitude": 41.086972644834766,
      "longitude": 28.897246819224176,
      "dutyStart": "2026-03-07T21:00:00.000Z",
      "dutyEnd": "2026-03-08T20:59:59.000Z"
    },
    {
      "id": "istanbul-33044",
      "name": "NATURA ECZANESİ",
      "address": "Atatürk Mahallesi, Girne Caddesi, 42",
      "phone": "+902164554921",
      "district": "ATAŞEHİR",
      "city": "İstanbul",
      "latitude": 40.987294989289424,
      "longitude": 29.131804092287734,
      "dutyStart": "2026-03-07T21:00:00.000Z",
      "dutyEnd": "2026-03-08T20:59:59.000Z"
    },
    {
      "id": "istanbul-26816",
      "name": "NEFES ECZANESİ",
      "address": "Meclis Mahallesi, Başarı Sokak, 1/D",
      "phone": "+905446130752",
      "district": "SANCAKTEPE",
      "city": "İstanbul",
      "latitude": 41.00895199996739,
      "longitude": 29.212360000355908,
      "dutyStart": "2026-03-07T21:00:00.000Z",
      "dutyEnd": "2026-03-08T20:59:59.000Z"
    },
    {
      "id": "istanbul-33382",
      "name": "NUH ECZANESİ",
      "address": "Fetih Mahallesi, Hicazkar (Örnek Mah) Sokak, Bağkur Sitesi No:10/1A",
      "phone": "+902163244696",
      "district": "ATAŞEHİR",
      "city": "İstanbul",
      "latitude": 40.99858386910748,
      "longitude": 29.07400883908881,
      "dutyStart": "2026-03-07T21:00:00.000Z",
      "dutyEnd": "2026-03-08T20:59:59.000Z"
    },
    {
      "id": "istanbul-28586",
      "name": "NİDA ECZANESİ",
      "address": "İsmetpaşa Mahallesi, 83. Sokak, 52/B",
      "phone": "+902129244968",
      "district": "SULTANGAZİ",
      "city": "İstanbul",
      "latitude": 41.11243726030735,
      "longitude": 28.854269933384153,
      "dutyStart": "2026-03-07T21:00:00.000Z",
      "dutyEnd": "2026-03-08T20:59:59.000Z"
    },
    {
      "id": "istanbul-34488",
      "name": "NİLSU ECZANESİ",
      "address": "Küçükbakkalköy Mahallesi, Cengiz Topel Caddesi, 38/A",
      "phone": "+902165722829",
      "district": "ATAŞEHİR",
      "city": "İstanbul",
      "latitude": 40.98230160421308,
      "longitude": 29.119459076359107,
      "dutyStart": "2026-03-07T21:00:00.000Z",
      "dutyEnd": "2026-03-08T20:59:59.000Z"
    },
    {
      "id": "istanbul-17074",
      "name": "NİMET ECZANESİ",
      "address": "Ptt Evleri Mahallesi, Bahçeköy Caddesi, 11",
      "phone": "+902122423208",
      "district": "SARIYER",
      "city": "İstanbul",
      "latitude": 41.157019424672676,
      "longitude": 29.025224002571335,
      "dutyStart": "2026-03-07T21:00:00.000Z",
      "dutyEnd": "2026-03-08T20:59:59.000Z"
    },
    {
      "id": "istanbul-19160",
      "name": "NİSAN ECZANESİ",
      "address": "Elmalıkent Mahallesi, Atatürk Caddesi, 13AB",
      "phone": "+902166301043",
      "district": "ÜMRANİYE",
      "city": "İstanbul",
      "latitude": 41.034642000095,
      "longitude": 29.098677999658605,
      "dutyStart": "2026-03-07T21:00:00.000Z",
      "dutyEnd": "2026-03-08T20:59:59.000Z"
    },
    {
      "id": "istanbul-21486",
      "name": "OYLUM ECZANESİ",
      "address": "Yenimahalle Mahallesi, General Kani Elitez Sokak, 5B",
      "phone": "+902126601101",
      "district": "BAKIRKÖY",
      "city": "İstanbul",
      "latitude": 40.97983890790114,
      "longitude": 28.88166628668927,
      "dutyStart": "2026-03-07T21:00:00.000Z",
      "dutyEnd": "2026-03-08T20:59:59.000Z"
    },
    {
      "id": "istanbul-18878",
      "name": "OĞUZ KAĞAN ECZANESİ",
      "address": "Mecidiyeköy Mahallesi, Mecidiye Caddesi, 10",
      "phone": "+902122131140",
      "district": "ŞİŞLİ",
      "city": "İstanbul",
      "latitude": 41.06760206888001,
      "longitude": 28.997547040114043,
      "dutyStart": "2026-03-07T21:00:00.000Z",
      "dutyEnd": "2026-03-08T20:59:59.000Z"
    },
    {
      "id": "istanbul-11836",
      "name": "PERLAVİSTA ECZANESİ",
      "address": "Adnan Kahveci Mahallesi, Yavuz Sultan Selim Bulvarı, C77",
      "phone": "+902128711341",
      "district": "BEYLİKDÜZÜ",
      "city": "İstanbul",
      "latitude": 41.016453199728915,
      "longitude": 28.62725385631932,
      "dutyStart": "2026-03-07T21:00:00.000Z",
      "dutyEnd": "2026-03-08T20:59:59.000Z"
    },
    {
      "id": "istanbul-27668",
      "name": "POLEN ECZANESİ",
      "address": "Çamlık Mahallesi, Selçuklu Caddesi, 20AE",
      "phone": "+902165195119",
      "district": "PENDİK",
      "city": "İstanbul",
      "latitude": 40.92564982848113,
      "longitude": 29.288287210391427,
      "dutyStart": "2026-03-07T21:00:00.000Z",
      "dutyEnd": "2026-03-08T20:59:59.000Z"
    },
    {
      "id": "istanbul-24422",
      "name": "REYHAN ECZANESİ",
      "address": "Bahçelievler Mahallesi, Nazım Hikmet Caddesi, 14/A",
      "phone": "+905065642625",
      "district": "PENDİK",
      "city": "İstanbul",
      "latitude": 40.889972000400164,
      "longitude": 29.23154799988268,
      "dutyStart": "2026-03-07T21:00:00.000Z",
      "dutyEnd": "2026-03-08T20:59:59.000Z"
    },
    {
      "id": "istanbul-35528",
      "name": "ROYAL ECZANESİ",
      "address": "Halide Edip Adıvar Mahallesi, Darülaceze Caddesi, 17A",
      "phone": "+902122191999",
      "district": "ŞİŞLİ",
      "city": "İstanbul",
      "latitude": 41.064673000229284,
      "longitude": 28.97939999995519,
      "dutyStart": "2026-03-07T21:00:00.000Z",
      "dutyEnd": "2026-03-08T20:59:59.000Z"
    },
    {
      "id": "istanbul-18042",
      "name": "RUMELİ 70 ECZANESİ",
      "address": "Meşrutiyet Mahallesi, Rumeli Caddesi, 68-70B",
      "phone": "+902122317070",
      "district": "ŞİŞLİ",
      "city": "İstanbul",
      "latitude": 41.05346730394592,
      "longitude": 28.98830059778517,
      "dutyStart": "2026-03-07T21:00:00.000Z",
      "dutyEnd": "2026-03-08T20:59:59.000Z"
    },
    {
      "id": "istanbul-20690",
      "name": "SAMUR ECZANESİ",
      "address": "İnönü Mahallesi, 408 Sokak, 24/A",
      "phone": "+902124332999",
      "district": "BAĞCILAR",
      "city": "İstanbul",
      "latitude": 41.03135556115818,
      "longitude": 28.850338543709316,
      "dutyStart": "2026-03-07T21:00:00.000Z",
      "dutyEnd": "2026-03-08T20:59:59.000Z"
    },
    {
      "id": "istanbul-23652",
      "name": "SEMERKAND LİNE ECZANESİ",
      "address": "Barış Mahallesi Peyami Safa Sokak 1/9",
      "phone": "+902128090249",
      "district": "BEYLİKDÜZÜ",
      "city": "İstanbul",
      "latitude": 41.00577329525157,
      "longitude": 28.651181167626287,
      "dutyStart": "2026-03-07T21:00:00.000Z",
      "dutyEnd": "2026-03-08T20:59:59.000Z"
    },
    {
      "id": "istanbul-23768",
      "name": "SERA ECZANESİ",
      "address": "75. Yıl Mahallesi İsmetpaşa Caddesi 26/A",
      "phone": "+902124191729",
      "district": "SULTANGAZİ",
      "city": "İstanbul",
      "latitude": 41.10091608493457,
      "longitude": 28.899046709989825,
      "dutyStart": "2026-03-07T21:00:00.000Z",
      "dutyEnd": "2026-03-08T20:59:59.000Z"
    },
    {
      "id": "istanbul-25530",
      "name": "SERDİL ECZANESİ",
      "address": "Feneryolu Mahallesi, Fahrettin Kerim Gökay Caddesi, 142B",
      "phone": "+902165658001",
      "district": "KADIKÖY",
      "city": "İstanbul",
      "latitude": 40.98419832369511,
      "longitude": 29.05735328743038,
      "dutyStart": "2026-03-07T21:00:00.000Z",
      "dutyEnd": "2026-03-08T20:59:59.000Z"
    },
    {
      "id": "istanbul-10526",
      "name": "SERHAT ECZANESİ",
      "address": "Ayazağa Mahallesi Atatürk Caddesi 63/B",
      "phone": "+902122895770",
      "district": "SARIYER",
      "city": "İstanbul",
      "latitude": 41.115540086611496,
      "longitude": 28.998365575317248,
      "dutyStart": "2026-03-07T21:00:00.000Z",
      "dutyEnd": "2026-03-08T20:59:59.000Z"
    },
    {
      "id": "istanbul-17388",
      "name": "SONAY ECZANESİ",
      "address": "Güneştepe Mahallesi, Şehit Piyade Er Hasan Sorma Sokak, 6",
      "phone": "+902124369426",
      "district": "GÜNGÖREN",
      "city": "İstanbul",
      "latitude": 41.02521600310014,
      "longitude": 28.861499319636298,
      "dutyStart": "2026-03-07T21:00:00.000Z",
      "dutyEnd": "2026-03-08T20:59:59.000Z"
    },
    {
      "id": "istanbul-21176",
      "name": "SUADİYE BANU ECZANESİ",
      "address": "Suadiye Mahallesi, Ayşeçavus Caddesi, 35B",
      "phone": "+902166586141",
      "district": "KADIKÖY",
      "city": "İstanbul",
      "latitude": 40.96414100016597,
      "longitude": 29.086074000153406,
      "dutyStart": "2026-03-07T21:00:00.000Z",
      "dutyEnd": "2026-03-08T20:59:59.000Z"
    },
    {
      "id": "istanbul-25104",
      "name": "SÜMEYRA ECZANESİ ",
      "address": "Adnan Kahveci Mahallesi, Yavuz Sultan Selim Bulvarı, 41I",
      "phone": "+902128558570",
      "district": "BEYLİKDÜZÜ",
      "city": "İstanbul",
      "latitude": 40.999823467254856,
      "longitude": 28.626136059464283,
      "dutyStart": "2026-03-07T21:00:00.000Z",
      "dutyEnd": "2026-03-08T20:59:59.000Z"
    },
    {
      "id": "istanbul-21032",
      "name": "SİNEM ECZANESİ",
      "address": "Levent Mahallesi, Binbirçiçek Sokak, 3/1",
      "phone": "+902122692682",
      "district": "BEŞİKTAŞ",
      "city": "İstanbul",
      "latitude": 41.07472790778699,
      "longitude": 29.01582586010801,
      "dutyStart": "2026-03-07T21:00:00.000Z",
      "dutyEnd": "2026-03-08T20:59:59.000Z"
    },
    {
      "id": "istanbul-31816",
      "name": "TARABYA İNCİ ECZANESİ",
      "address": "Tarabya Mahallesi, Arabayolu Caddesi, 200/B",
      "phone": "+902122625644",
      "district": "SARIYER",
      "city": "İstanbul",
      "latitude": 41.14334059783825,
      "longitude": 29.044853352931284,
      "dutyStart": "2026-03-07T21:00:00.000Z",
      "dutyEnd": "2026-03-08T20:59:59.000Z"
    },
    {
      "id": "istanbul-6474",
      "name": "TEOMAN ECZANESİ",
      "address": "Zümrütevler Mahallesi, Nil Caddesi, 47/1B",
      "phone": "+902164278000",
      "district": "MALTEPE",
      "city": "İstanbul",
      "latitude": 40.94178899980634,
      "longitude": 29.153475000581302,
      "dutyStart": "2026-03-07T21:00:00.000Z",
      "dutyEnd": "2026-03-08T20:59:59.000Z"
    },
    {
      "id": "istanbul-29200",
      "name": "TEVHİD ECZANESİ",
      "address": "İskenderpaşa Mahallesi, Kıztaşı Caddesi, 7",
      "phone": "+902125343823",
      "district": "FATİH",
      "city": "İstanbul",
      "latitude": 41.01567499997151,
      "longitude": 28.950374999829503,
      "dutyStart": "2026-03-07T21:00:00.000Z",
      "dutyEnd": "2026-03-08T20:59:59.000Z"
    },
    {
      "id": "istanbul-16498",
      "name": "TURNA ECZANESİ",
      "address": "Atakent Mahallesi, 242. Sokak, 6/G",
      "phone": "+905300604948",
      "district": "KÜÇÜKÇEKMECE",
      "city": "İstanbul",
      "latitude": 41.0371632654703,
      "longitude": 28.783694641686175,
      "dutyStart": "2026-03-07T21:00:00.000Z",
      "dutyEnd": "2026-03-08T20:59:59.000Z"
    },
    {
      "id": "istanbul-25630",
      "name": "UFUK ECZANESİ",
      "address": "Çavuş Mahallesi, Üsküdar Caddesi, 192A",
      "phone": "+902167042088",
      "district": "ŞİLE",
      "city": "İstanbul",
      "latitude": 41.17298441069368,
      "longitude": 29.6068597262489,
      "dutyStart": "2026-03-07T21:00:00.000Z",
      "dutyEnd": "2026-03-08T20:59:59.000Z"
    },
    {
      "id": "istanbul-33154",
      "name": "USLU ECZANESİ",
      "address": "Feyzullah Mahallesi, Şehit Hikmet Alp Caddesi, 38A",
      "phone": "+902164595950",
      "district": "MALTEPE",
      "city": "İstanbul",
      "latitude": 40.93483999994427,
      "longitude": 29.12313900004372,
      "dutyStart": "2026-03-07T21:00:00.000Z",
      "dutyEnd": "2026-03-08T20:59:59.000Z"
    },
    {
      "id": "istanbul-4708",
      "name": "YAKACIK ECZANESİ",
      "address": "Çarşı Mahallesi, Kartal Caddesi, 10C",
      "phone": "+902163771376",
      "district": "KARTAL",
      "city": "İstanbul",
      "latitude": 40.91821966080649,
      "longitude": 29.22456269204648,
      "dutyStart": "2026-03-07T21:00:00.000Z",
      "dutyEnd": "2026-03-08T20:59:59.000Z"
    },
    {
      "id": "istanbul-8810",
      "name": "YAMAN ECZANESİ",
      "address": "Cerrahpaşa Mahallesi, Koca Mustafapaşa Caddesi, 110/A",
      "phone": "+902125865566",
      "district": "FATİH",
      "city": "İstanbul",
      "latitude": 41.00582252839944,
      "longitude": 28.937829908092983,
      "dutyStart": "2026-03-07T21:00:00.000Z",
      "dutyEnd": "2026-03-08T20:59:59.000Z"
    },
    {
      "id": "istanbul-9058",
      "name": "YAYLALI ECZANESİ",
      "address": "Arnavutköy Merkez Mahallesi, 259. Sokak, 6/A",
      "phone": "+902125974462",
      "district": "ARNAVUTKÖY",
      "city": "İstanbul",
      "latitude": 41.17833100257966,
      "longitude": 28.746033000123916,
      "dutyStart": "2026-03-07T21:00:00.000Z",
      "dutyEnd": "2026-03-08T20:59:59.000Z"
    },
    {
      "id": "istanbul-13494",
      "name": "YENİ FISTIKAĞACI ECZANESİ",
      "address": "İcadiye Mahallesi, Çifteçınar Sokak, 53/A",
      "phone": "+902163349940",
      "district": "ÜSKÜDAR",
      "city": "İstanbul",
      "latitude": 41.02801036014583,
      "longitude": 29.030579443978795,
      "dutyStart": "2026-03-07T21:00:00.000Z",
      "dutyEnd": "2026-03-08T20:59:59.000Z"
    },
    {
      "id": "istanbul-27828",
      "name": "YENİ NESİL ECZANESİ",
      "address": "Caddebostan Mahallesi, Tanzimat Sokak, 13/A",
      "phone": "+902163570304",
      "district": "KADIKÖY",
      "city": "İstanbul",
      "latitude": 40.97160399956958,
      "longitude": 29.06357200036152,
      "dutyStart": "2026-03-07T21:00:00.000Z",
      "dutyEnd": "2026-03-08T20:59:59.000Z"
    },
    {
      "id": "istanbul-23898",
      "name": "YENİ SU ECZANESİ",
      "address": "Kemalpaşa Mahallesi, Bağlar Caddesi, 18/B",
      "phone": "+902125989840",
      "district": "KÜÇÜKÇEKMECE",
      "city": "İstanbul",
      "latitude": 41.00239899963844,
      "longitude": 28.792882000487165,
      "dutyStart": "2026-03-07T21:00:00.000Z",
      "dutyEnd": "2026-03-08T20:59:59.000Z"
    },
    {
      "id": "istanbul-24604",
      "name": "YENİ VEFA ECZANESİ",
      "address": "Çınar Mahallesi, 773. Sokak, 58/1",
      "phone": "+902126101066",
      "district": "BAĞCILAR",
      "city": "İstanbul",
      "latitude": 41.03880915833897,
      "longitude": 28.865443915352934,
      "dutyStart": "2026-03-07T21:00:00.000Z",
      "dutyEnd": "2026-03-08T20:59:59.000Z"
    },
    {
      "id": "istanbul-24664",
      "name": "YEŞİL ECZANESİ",
      "address": "Çamlık Mahallesi, Selçuklu Caddesi, 24A",
      "phone": "+905443082400",
      "district": "PENDİK",
      "city": "İstanbul",
      "latitude": 40.92371439794847,
      "longitude": 29.290123323947537,
      "dutyStart": "2026-03-07T21:00:00.000Z",
      "dutyEnd": "2026-03-08T20:59:59.000Z"
    },
    {
      "id": "istanbul-22944",
      "name": "YEŞİLTEPE SİNA ECZANESİ",
      "address": "Yeşiltepe Mahallesi, 56. Sokak, 74/B",
      "phone": "+902126659965",
      "district": "ZEYTİNBURNU",
      "city": "İstanbul",
      "latitude": 40.99157251679066,
      "longitude": 28.897836049965747,
      "dutyStart": "2026-03-07T21:00:00.000Z",
      "dutyEnd": "2026-03-08T20:59:59.000Z"
    },
    {
      "id": "istanbul-22780",
      "name": "YEŞİLÇAY ECZANESİ",
      "address": "Ağva Merkez Mahallesi, Yakuplu Caddesi, 9/C",
      "phone": "+902167218900",
      "district": "ŞİLE",
      "city": "İstanbul",
      "latitude": 41.138169014808206,
      "longitude": 29.85531572932006,
      "dutyStart": "2026-03-07T21:00:00.000Z",
      "dutyEnd": "2026-03-08T20:59:59.000Z"
    },
    {
      "id": "istanbul-29744",
      "name": "YILDIRIM ECZANESİ",
      "address": "Uğur Mumcu Mahallesi, 2114. Sokak, 28/A",
      "phone": "+902124764634",
      "district": "SULTANGAZİ",
      "city": "İstanbul",
      "latitude": 41.09594799961839,
      "longitude": 28.867028999758457,
      "dutyStart": "2026-03-07T21:00:00.000Z",
      "dutyEnd": "2026-03-08T20:59:59.000Z"
    },
    {
      "id": "istanbul-21190",
      "name": "YILMAZ ECZANESİ",
      "address": "Şahintepe Mahallesi, Kartal Sokak, 5/A",
      "phone": "+902126481631",
      "district": "BAŞAKŞEHİR",
      "city": "İstanbul",
      "latitude": 41.07200480277852,
      "longitude": 28.726207479681577,
      "dutyStart": "2026-03-07T21:00:00.000Z",
      "dutyEnd": "2026-03-08T20:59:59.000Z"
    },
    {
      "id": "istanbul-31226",
      "name": "YÜKSEL ECZANESİ",
      "address": "Ulus Mahallesi, İstiklal Caddesi, A Blok No:33/C Bağımsız Bölüm:15",
      "phone": "+902128812242",
      "district": "BÜYÜKÇEKMECE",
      "city": "İstanbul",
      "latitude": 41.02833425872214,
      "longitude": 28.547333922169226,
      "dutyStart": "2026-03-07T21:00:00.000Z",
      "dutyEnd": "2026-03-08T20:59:59.000Z"
    },
    {
      "id": "istanbul-29524",
      "name": "ZAMBAK ECZANESİ",
      "address": "Bahçelievler Mahallesi, Zübeyde Hanım Caddesi, 24",
      "phone": "+902167552625",
      "district": "ÜSKÜDAR",
      "city": "İstanbul",
      "latitude": 41.052752378773704,
      "longitude": 29.07641172395766,
      "dutyStart": "2026-03-07T21:00:00.000Z",
      "dutyEnd": "2026-03-08T20:59:59.000Z"
    },
    {
      "id": "istanbul-28068",
      "name": "ÇAMLICA ŞİFA ECZANESİ",
      "address": "Kısıklı Mahallesi, Alemdağ Yan Yolu Caddesi, 24/B",
      "phone": "+902163299755",
      "district": "ÜSKÜDAR",
      "city": "İstanbul",
      "latitude": 41.02449199979361,
      "longitude": 29.08117000038049,
      "dutyStart": "2026-03-07T21:00:00.000Z",
      "dutyEnd": "2026-03-08T20:59:59.000Z"
    },
    {
      "id": "istanbul-31186",
      "name": "ÇAPA ECZANESİ",
      "address": "Şehremini Mahallesi, Turgut Özal Millet Caddesi, 127/B",
      "phone": "+902125334533",
      "district": "FATİH",
      "city": "İstanbul",
      "latitude": 41.01495400022216,
      "longitude": 28.93324399986857,
      "dutyStart": "2026-03-07T21:00:00.000Z",
      "dutyEnd": "2026-03-08T20:59:59.000Z"
    },
    {
      "id": "istanbul-28868",
      "name": "ÇAPAN ECZANESİ",
      "address": "Merve Mahallesi, Bahçelievler Caddesi, 78/C",
      "phone": "+902163115518",
      "district": "SANCAKTEPE",
      "city": "İstanbul",
      "latitude": 41.007090228213116,
      "longitude": 29.240498381627788,
      "dutyStart": "2026-03-07T21:00:00.000Z",
      "dutyEnd": "2026-03-08T20:59:59.000Z"
    },
    {
      "id": "istanbul-33718",
      "name": "ÇAĞRI ECZANESİ",
      "address": "İçerenköy Mahallesi, Başıbüyük Yolu Caddesi, No:9/A",
      "phone": "+902165761000",
      "district": "ATAŞEHİR",
      "city": "İstanbul",
      "latitude": 40.969091011924924,
      "longitude": 29.117723296852702,
      "dutyStart": "2026-03-07T21:00:00.000Z",
      "dutyEnd": "2026-03-08T20:59:59.000Z"
    },
    {
      "id": "istanbul-21606",
      "name": "ÇAĞRI YANCAR ECZANESİ",
      "address": "Başak Mahallesi, Yunus Emre Caddesi, 18/1-O",
      "phone": "+902124882774",
      "district": "BAŞAKŞEHİR",
      "city": "İstanbul",
      "latitude": 41.120345106756695,
      "longitude": 28.80697426796947,
      "dutyStart": "2026-03-07T21:00:00.000Z",
      "dutyEnd": "2026-03-08T20:59:59.000Z"
    },
    {
      "id": "istanbul-30972",
      "name": "ÇEVİK ECZANESİ",
      "address": "Ali Kuşcu Mahallesi, Yavuz Selim Caddesi, 6/A",
      "phone": "+902126315390",
      "district": "FATİH",
      "city": "İstanbul",
      "latitude": 41.022437999995056,
      "longitude": 28.9452729997089,
      "dutyStart": "2026-03-07T21:00:00.000Z",
      "dutyEnd": "2026-03-08T20:59:59.000Z"
    },
    {
      "id": "istanbul-21870",
      "name": "ÇINARLI ECZANESİ",
      "address": "Madenler Mahallesi, Arafat Sokak, 3",
      "phone": "+905306001012",
      "district": "ÜMRANİYE",
      "city": "İstanbul",
      "latitude": 41.01304120419062,
      "longitude": 29.19062299629417,
      "dutyStart": "2026-03-07T21:00:00.000Z",
      "dutyEnd": "2026-03-08T20:59:59.000Z"
    },
    {
      "id": "istanbul-29248",
      "name": "ÇİĞDEM ECZANESİ",
      "address": "Çiğdem Mahallesi, Katırcı Caddesi, 100/1A",
      "phone": "+902163224477",
      "district": "BEYKOZ",
      "city": "İstanbul",
      "latitude": 41.11103199960142,
      "longitude": 29.101642000533698,
      "dutyStart": "2026-03-07T21:00:00.000Z",
      "dutyEnd": "2026-03-08T20:59:59.000Z"
    },
    {
      "id": "istanbul-12068",
      "name": "ÖZEN KÜÇÜKYALI ECZANESİ",
      "address": "İdealtepe Mahallesi, Mızrak Sokak, 2A",
      "phone": "+902163885074",
      "district": "MALTEPE",
      "city": "İstanbul",
      "latitude": 40.941243999825865,
      "longitude": 29.11612300006773,
      "dutyStart": "2026-03-07T21:00:00.000Z",
      "dutyEnd": "2026-03-08T20:59:59.000Z"
    },
    {
      "id": "istanbul-27478",
      "name": "ÖZGE ECZANESİ",
      "address": "Yeşilkent Mahallesi, Bahçeşehir Yan Yol Caddesi, 18/4B",
      "phone": "+902128122882",
      "district": "AVCILAR",
      "city": "İstanbul",
      "latitude": 41.05548066297064,
      "longitude": 28.687014976173078,
      "dutyStart": "2026-03-07T21:00:00.000Z",
      "dutyEnd": "2026-03-08T20:59:59.000Z"
    },
    {
      "id": "istanbul-27232",
      "name": "ÖZLEM KOÇ ECZANESİ",
      "address": "Karadolap Mahallesi, Vardar Bulvarı, 64/D",
      "phone": "+902127411155",
      "district": "EYÜPSULTAN",
      "city": "İstanbul",
      "latitude": 41.07135600035677,
      "longitude": 28.935553000401583,
      "dutyStart": "2026-03-07T21:00:00.000Z",
      "dutyEnd": "2026-03-08T20:59:59.000Z"
    },
    {
      "id": "istanbul-15038",
      "name": "ÖZLER ECZANESİ",
      "address": "Fatih Mahallesi, 1795. Sokak, 30/A",
      "phone": "+902124459296",
      "district": "BAĞCILAR",
      "city": "İstanbul",
      "latitude": 41.05417703334287,
      "longitude": 28.84858106456744,
      "dutyStart": "2026-03-07T21:00:00.000Z",
      "dutyEnd": "2026-03-08T20:59:59.000Z"
    },
    {
      "id": "istanbul-24672",
      "name": "İHSAN BURAK ECZANESİ",
      "address": "Soğanlı Mahallesi, 2. Altın Sokak, 12BB",
      "phone": "+902125052026",
      "district": "BAHÇELİEVLER",
      "city": "İstanbul",
      "latitude": 41.00841877780703,
      "longitude": 28.848525882249692,
      "dutyStart": "2026-03-07T21:00:00.000Z",
      "dutyEnd": "2026-03-08T20:59:59.000Z"
    },
    {
      "id": "istanbul-29288",
      "name": "İKİZLER ECZANESİ",
      "address": "Cebeci Mahallesi, 1. Cebeci Caddesi, 66/B",
      "phone": "+902126680071",
      "district": "SULTANGAZİ",
      "city": "İstanbul",
      "latitude": 41.10918400024861,
      "longitude": 28.86776600052018,
      "dutyStart": "2026-03-07T21:00:00.000Z",
      "dutyEnd": "2026-03-08T20:59:59.000Z"
    },
    {
      "id": "istanbul-15270",
      "name": "İLKYAZ ECZANESİ",
      "address": "Mehmet Akif Mahallesi, Cami Caddesi, 24/A",
      "phone": "+902163980760",
      "district": "SULTANBEYLİ",
      "city": "İstanbul",
      "latitude": 40.965462414975605,
      "longitude": 29.265694432017135,
      "dutyStart": "2026-03-07T21:00:00.000Z",
      "dutyEnd": "2026-03-08T20:59:59.000Z"
    },
    {
      "id": "istanbul-19868",
      "name": "İSTANBUL ECZANESİ",
      "address": "Eyüp Merkez Mahallesi, Silahtarağa Caddesi, 59",
      "phone": "+902125639968",
      "district": "EYÜPSULTAN",
      "city": "İstanbul",
      "latitude": 41.05743236054245,
      "longitude": 28.941502314001443,
      "dutyStart": "2026-03-07T21:00:00.000Z",
      "dutyEnd": "2026-03-08T20:59:59.000Z"
    },
    {
      "id": "istanbul-17278",
      "name": "ŞANSLI ECZANESİ",
      "address": "Selimpaşa Merkez Mahallesi, İskender Özcan Caddesi, 6/C",
      "phone": "+902127315777",
      "district": "SİLİVRİ",
      "city": "İstanbul",
      "latitude": 41.05666007101979,
      "longitude": 28.36378591724368,
      "dutyStart": "2026-03-07T21:00:00.000Z",
      "dutyEnd": "2026-03-08T20:59:59.000Z"
    },
    {
      "id": "istanbul-5756",
      "name": "ŞEHZADEBAŞI ECZANESİ",
      "address": "Kemalpaşa Mahallesi, Şehzadebaşı Caddesi, 5/D",
      "phone": "+902125280907",
      "district": "FATİH",
      "city": "İstanbul",
      "latitude": 41.01267168538086,
      "longitude": 28.957872470584114,
      "dutyStart": "2026-03-07T21:00:00.000Z",
      "dutyEnd": "2026-03-08T20:59:59.000Z"
    },
    {
      "id": "istanbul-6644",
      "name": "ŞEHİR ECZANESİ",
      "address": "Fevzi Çakmak Mahallesi, Selanik Sokak, 5/B",
      "phone": "+902165972008",
      "district": "PENDİK",
      "city": "İstanbul",
      "latitude": 40.88651499984542,
      "longitude": 29.26022200013168,
      "dutyStart": "2026-03-07T21:00:00.000Z",
      "dutyEnd": "2026-03-08T20:59:59.000Z"
    },
    {
      "id": "istanbul-24404",
      "name": "ŞEYMA CANER ECZANESİ",
      "address": "Fenerbahçe Mahallesi, Fener Kalamış Caddesi, 67/1B",
      "phone": "+902167841193",
      "district": "KADIKÖY",
      "city": "İstanbul",
      "latitude": 40.972782000136164,
      "longitude": 29.040430999859623,
      "dutyStart": "2026-03-07T21:00:00.000Z",
      "dutyEnd": "2026-03-08T20:59:59.000Z"
    },
    {
      "id": "istanbul-11078",
      "name": "ŞİFA ECZANESİ",
      "address": "Avcılar Merkez Mahallesi, Reşit Paşa Caddesi, 109",
      "phone": "+902129650835",
      "district": "AVCILAR",
      "city": "İstanbul",
      "latitude": 40.98142799970166,
      "longitude": 28.71330099974752,
      "dutyStart": "2026-03-07T21:00:00.000Z",
      "dutyEnd": "2026-03-08T20:59:59.000Z"
    },
    {
      "id": "istanbul-18372",
      "name": "ŞİRİN ECZANESİ",
      "address": "Hadımköy Mahallesi Haraççı-Hadımköy Yolu 290",
      "phone": "+902127712149",
      "district": "ARNAVUTKÖY",
      "city": "İstanbul",
      "latitude": 41.15646836228462,
      "longitude": 28.623780848159114,
      "dutyStart": "2026-03-07T21:00:00.000Z",
      "dutyEnd": "2026-03-08T20:59:59.000Z"
    }
  ]
}