{
  "city": "istanbul",
  "cityName": "İstanbul",
  "cityId": 34,
  "date": "2026-03-07",
  "updatedAt": "2026-03-07T20:00:17.065Z",
  "count": 132,
  "pharmacies": [
    {
      "id": "istanbul-32004",
      "name": "AB-I HAYAT ECZANESİ",
      "address": "Barış Mahallesi, Mehmetçik Caddesi, 28/30",
      "phone": "+905413398021",
      "district": "BEYLİKDÜZÜ",
      "city": "İstanbul",
      "latitude": 41.00909063390044,
      "longitude": 28.65182511564609,
      "dutyStart": "2026-03-06T21:00:00.000Z",
      "dutyEnd": "2026-03-07T20:59:59.000Z"
    },
    {
      "id": "istanbul-20352",
      "name": "AKADEMİ ECZANESİ",
      "address": "İnkılap Mahallesi, Mabet Sokak, 20A",
      "phone": "+902166316441",
      "district": "ÜMRANİYE",
      "city": "İstanbul",
      "latitude": 41.03467126075853,
      "longitude": 29.110238843972564,
      "dutyStart": "2026-03-06T21:00:00.000Z",
      "dutyEnd": "2026-03-07T20:59:59.000Z"
    },
    {
      "id": "istanbul-24398",
      "name": "AKDENİZ ECZANESİ",
      "address": "Söğütlüçeşme Mahallesi, Camialtı Sokak, 22/A",
      "phone": "+902126970040",
      "district": "KÜÇÜKÇEKMECE",
      "city": "İstanbul",
      "latitude": 41.017655432716005,
      "longitude": 28.785055299670926,
      "dutyStart": "2026-03-06T21:00:00.000Z",
      "dutyEnd": "2026-03-07T20:59:59.000Z"
    },
    {
      "id": "istanbul-13350",
      "name": "ALPHAN ECZANESİ",
      "address": "Rüzgarlıbahçe Mahallesi, Cumhuriyet Caddesi, Acarlar İş Merkezi C Blok No: 10",
      "phone": "+902164138733",
      "district": "BEYKOZ",
      "city": "İstanbul",
      "latitude": 41.09500219143013,
      "longitude": 29.098729342719444,
      "dutyStart": "2026-03-06T21:00:00.000Z",
      "dutyEnd": "2026-03-07T20:59:59.000Z"
    },
    {
      "id": "istanbul-11394",
      "name": "ARDA ECZANESİ",
      "address": "İnönü Mahallesi, Maslak Çeşme Caddesi, 92",
      "phone": "+902124713950",
      "district": "KÜÇÜKÇEKMECE",
      "city": "İstanbul",
      "latitude": 41.021394464809795,
      "longitude": 28.797043711797873,
      "dutyStart": "2026-03-06T21:00:00.000Z",
      "dutyEnd": "2026-03-07T20:59:59.000Z"
    },
    {
      "id": "istanbul-21988",
      "name": "ARDA ECZANESİ",
      "address": "Hürriyet Mahallesi, Paşaçayırı Caddesi, 45",
      "phone": "+902126092007",
      "district": "GAZİOSMANPAŞA",
      "city": "İstanbul",
      "latitude": 41.06976224998692,
      "longitude": 28.897535568566965,
      "dutyStart": "2026-03-06T21:00:00.000Z",
      "dutyEnd": "2026-03-07T20:59:59.000Z"
    },
    {
      "id": "istanbul-23770",
      "name": "AYDINLAR ECZANESİ",
      "address": "Aydınlar Mahallesi, Sultangazi Caddesi, 59A",
      "phone": "+902164309061",
      "district": "ÇEKMEKÖY",
      "city": "İstanbul",
      "latitude": 41.01650052651672,
      "longitude": 29.22036091374714,
      "dutyStart": "2026-03-06T21:00:00.000Z",
      "dutyEnd": "2026-03-07T20:59:59.000Z"
    },
    {
      "id": "istanbul-2780",
      "name": "AYTAÇ ECZANESİ",
      "address": "Yeşilyurt Mahallesi, Ekin Sokak, 21",
      "phone": "+902125737466",
      "district": "BAKIRKÖY",
      "city": "İstanbul",
      "latitude": 40.963812346427225,
      "longitude": 28.837462161065364,
      "dutyStart": "2026-03-06T21:00:00.000Z",
      "dutyEnd": "2026-03-07T20:59:59.000Z"
    },
    {
      "id": "istanbul-30512",
      "name": "AYŞENUR ECZANESİ",
      "address": "Acıbadem Mahallesi, Acıbadem Caddesi, 220/E",
      "phone": "+902165147621",
      "district": "ÜSKÜDAR",
      "city": "İstanbul",
      "latitude": 41.0131779999932,
      "longitude": 29.0546420005802,
      "dutyStart": "2026-03-06T21:00:00.000Z",
      "dutyEnd": "2026-03-07T20:59:59.000Z"
    },
    {
      "id": "istanbul-14078",
      "name": "BARAN ECZANESİ",
      "address": "Ortabayır Mahallesi, Beller Sokak, 14/A",
      "phone": "+902123254980",
      "district": "KAĞITHANE",
      "city": "İstanbul",
      "latitude": 41.079759604583444,
      "longitude": 29.001951619056154,
      "dutyStart": "2026-03-06T21:00:00.000Z",
      "dutyEnd": "2026-03-07T20:59:59.000Z"
    },
    {
      "id": "istanbul-23226",
      "name": "BARIŞ ECZANESİ",
      "address": "Fatih Mahallesi, 1795. Sokak, 31/A",
      "phone": "+902124455855",
      "district": "BAĞCILAR",
      "city": "İstanbul",
      "latitude": 41.05439883508222,
      "longitude": 28.848471922854095,
      "dutyStart": "2026-03-06T21:00:00.000Z",
      "dutyEnd": "2026-03-07T20:59:59.000Z"
    },
    {
      "id": "istanbul-24994",
      "name": "BEYDAĞI ECZANESİ",
      "address": "Havaalanı Mahallesi, Galeri Sokak, 4A",
      "phone": "+902126293444",
      "district": "ESENLER",
      "city": "İstanbul",
      "latitude": 41.0557353312705,
      "longitude": 28.864833166345363,
      "dutyStart": "2026-03-06T21:00:00.000Z",
      "dutyEnd": "2026-03-07T20:59:59.000Z"
    },
    {
      "id": "istanbul-17512",
      "name": "BOTANİK ECZANESİ",
      "address": "Kayışdağı Mahallesi, Akyazı Caddesi, 110A",
      "phone": "+902164555530",
      "district": "ATAŞEHİR",
      "city": "İstanbul",
      "latitude": 40.987398088166614,
      "longitude": 29.144159407725553,
      "dutyStart": "2026-03-06T21:00:00.000Z",
      "dutyEnd": "2026-03-07T20:59:59.000Z"
    },
    {
      "id": "istanbul-21298",
      "name": "BOĞAZİÇİ ECZANESİ",
      "address": "Gümüşsuyu Mahallesi, Dereiçi Caddesi, 35-A",
      "phone": "+902164137445",
      "district": "BEYKOZ",
      "city": "İstanbul",
      "latitude": 41.12817811382497,
      "longitude": 29.10305202082244,
      "dutyStart": "2026-03-06T21:00:00.000Z",
      "dutyEnd": "2026-03-07T20:59:59.000Z"
    },
    {
      "id": "istanbul-20128",
      "name": "BRANDİUM ECZANESİ",
      "address": "Küçükbakkalköy Mahallesi, Dudullu Yolu Caddesi, Brandium AVM Erenköy Gümrük Karşısı No:13",
      "phone": "+902165650674",
      "district": "ATAŞEHİR",
      "city": "İstanbul",
      "latitude": 40.981782902595306,
      "longitude": 29.13217888495819,
      "dutyStart": "2026-03-06T21:00:00.000Z",
      "dutyEnd": "2026-03-07T20:59:59.000Z"
    },
    {
      "id": "istanbul-33676",
      "name": "BURAK CELEP ECZANESİ",
      "address": "İsmetpaşa Mahallesi, 91. Sokak, 115/1A",
      "phone": "+902128905058",
      "district": "SULTANGAZİ",
      "city": "İstanbul",
      "latitude": 41.10586899981241,
      "longitude": 28.85355499986829,
      "dutyStart": "2026-03-06T21:00:00.000Z",
      "dutyEnd": "2026-03-07T20:59:59.000Z"
    },
    {
      "id": "istanbul-31164",
      "name": "BURAK ECZANESİ",
      "address": "Cevizlik Mahallesi, Kırmızı Şebboy Sokak, 15/A",
      "phone": "+902125832803",
      "district": "BAKIRKÖY",
      "city": "İstanbul",
      "latitude": 40.97740400013473,
      "longitude": 28.877108000541764,
      "dutyStart": "2026-03-06T21:00:00.000Z",
      "dutyEnd": "2026-03-07T20:59:59.000Z"
    },
    {
      "id": "istanbul-27440",
      "name": "BURCU ECZANESİ",
      "address": "Süleymaniye Mahallesi, Ispartakule Caddesi, 91/A",
      "phone": "+905528576775",
      "district": "ESENYURT",
      "city": "İstanbul",
      "latitude": 41.04440199965013,
      "longitude": 28.68752799981297,
      "dutyStart": "2026-03-06T21:00:00.000Z",
      "dutyEnd": "2026-03-07T20:59:59.000Z"
    },
    {
      "id": "istanbul-15122",
      "name": "BURCU ECZANESİ",
      "address": "Çobançeşme Mahallesi, Fatih Caddesi, 103B",
      "phone": "+902126545644",
      "district": "BAHÇELİEVLER",
      "city": "İstanbul",
      "latitude": 41.00733903613065,
      "longitude": 28.830912219850404,
      "dutyStart": "2026-03-06T21:00:00.000Z",
      "dutyEnd": "2026-03-07T20:59:59.000Z"
    },
    {
      "id": "istanbul-2338",
      "name": "BURGAZADA ECZANESİ",
      "address": "Burgazadası Mahallesi, Çınarlık Sokak, 3",
      "phone": "+902163812112",
      "district": "ADALAR",
      "city": "İstanbul",
      "latitude": 40.87998754997831,
      "longitude": 29.06919493887321,
      "dutyStart": "2026-03-06T21:00:00.000Z",
      "dutyEnd": "2026-03-07T20:59:59.000Z"
    },
    {
      "id": "istanbul-27460",
      "name": "BİZİM ECZANESİ",
      "address": "Mimar Sinan Merkez Mahallesi, E-5 Londra Asfaltı Caddesi, 60J",
      "phone": "+902128816556",
      "district": "BÜYÜKÇEKMECE",
      "city": "İstanbul",
      "latitude": 41.0169703188364,
      "longitude": 28.557393914448365,
      "dutyStart": "2026-03-06T21:00:00.000Z",
      "dutyEnd": "2026-03-07T20:59:59.000Z"
    },
    {
      "id": "istanbul-28810",
      "name": "CANSU ECZANESİ",
      "address": "Şişli Merkez Mahallesi, Abidei Hürriyet Caddesi, 195B",
      "phone": "+905468201118",
      "district": "ŞİŞLİ",
      "city": "İstanbul",
      "latitude": 41.06380300036329,
      "longitude": 28.987492999844967,
      "dutyStart": "2026-03-06T21:00:00.000Z",
      "dutyEnd": "2026-03-07T20:59:59.000Z"
    },
    {
      "id": "istanbul-29236",
      "name": "CENNET ECZANESİ",
      "address": "Cennet Mahallesi, Hürriyet Caddesi, 46/D",
      "phone": "+902125987183",
      "district": "KÜÇÜKÇEKMECE",
      "city": "İstanbul",
      "latitude": 40.98923645832392,
      "longitude": 28.78050021827986,
      "dutyStart": "2026-03-06T21:00:00.000Z",
      "dutyEnd": "2026-03-07T20:59:59.000Z"
    },
    {
      "id": "istanbul-27094",
      "name": "CEYLAN ECZANESİ",
      "address": "Başakşehir Mahallesi, Erdem Bayazıt Caddesi, 3/2A Dükkan No:17",
      "phone": "+902124878181",
      "district": "BAŞAKŞEHİR",
      "city": "İstanbul",
      "latitude": 41.108376000396454,
      "longitude": 28.789620999927248,
      "dutyStart": "2026-03-06T21:00:00.000Z",
      "dutyEnd": "2026-03-07T20:59:59.000Z"
    },
    {
      "id": "istanbul-30692",
      "name": "CUMHURİYET ECZANESİ",
      "address": "Çavuş Mahallesi, Cumhuriyet Caddesi, No:57/F",
      "phone": "+902167121012",
      "district": "ŞİLE",
      "city": "İstanbul",
      "latitude": 41.17319582797621,
      "longitude": 29.609625141422754,
      "dutyStart": "2026-03-06T21:00:00.000Z",
      "dutyEnd": "2026-03-07T20:59:59.000Z"
    },
    {
      "id": "istanbul-22492",
      "name": "DEFNE ECZANESİ",
      "address": "Menderes Mahallesi, Pirireis Caddesi, 45A",
      "phone": "+902126118540",
      "district": "ESENLER",
      "city": "İstanbul",
      "latitude": 41.04197774930413,
      "longitude": 28.872593082141268,
      "dutyStart": "2026-03-06T21:00:00.000Z",
      "dutyEnd": "2026-03-07T20:59:59.000Z"
    },
    {
      "id": "istanbul-26148",
      "name": "DEMİR ECZANESİ",
      "address": "Atalar Mahallesi, Doğu Caddesi, 68B",
      "phone": "+902163749464",
      "district": "KARTAL",
      "city": "İstanbul",
      "latitude": 40.90811905825756,
      "longitude": 29.171615443556565,
      "dutyStart": "2026-03-06T21:00:00.000Z",
      "dutyEnd": "2026-03-07T20:59:59.000Z"
    },
    {
      "id": "istanbul-11538",
      "name": "DEMİRAY ECZANESİ",
      "address": "Orta Mahallesi, Yusuf Efendi Sokak, 4C",
      "phone": "+902163097099",
      "district": "KARTAL",
      "city": "İstanbul",
      "latitude": 40.914949662909784,
      "longitude": 29.20512557071329,
      "dutyStart": "2026-03-06T21:00:00.000Z",
      "dutyEnd": "2026-03-07T20:59:59.000Z"
    },
    {
      "id": "istanbul-6638",
      "name": "DENİZ ECZANESİ",
      "address": "Kınalıada Mahallesi, İskele Sokak, 3/B",
      "phone": "+902163815181",
      "district": "ADALAR",
      "city": "İstanbul",
      "latitude": 40.91038290210339,
      "longitude": 29.05476093340845,
      "dutyStart": "2026-03-06T21:00:00.000Z",
      "dutyEnd": "2026-03-07T20:59:59.000Z"
    },
    {
      "id": "istanbul-14680",
      "name": "DERYA ECZANESİ",
      "address": "Şirintepe Mahallesi, Gümüşhane Caddesi, Aşiyan Sokak,No:84/A",
      "phone": "+902122683335",
      "district": "KAĞITHANE",
      "city": "İstanbul",
      "latitude": 41.08821482515013,
      "longitude": 28.990717588889318,
      "dutyStart": "2026-03-06T21:00:00.000Z",
      "dutyEnd": "2026-03-07T20:59:59.000Z"
    },
    {
      "id": "istanbul-31238",
      "name": "DEYYAROĞLU ECZANESİ",
      "address": "Çarşı Mahallesi, Yakakent Caddesi, 15-A",
      "phone": "+902166710988",
      "district": "KARTAL",
      "city": "İstanbul",
      "latitude": 40.91903300034093,
      "longitude": 29.222322000161455,
      "dutyStart": "2026-03-06T21:00:00.000Z",
      "dutyEnd": "2026-03-07T20:59:59.000Z"
    },
    {
      "id": "istanbul-33014",
      "name": "DORA ECZANESİ",
      "address": "Halaskargazi Mahallesi, Rumeli Caddesi, 69/A",
      "phone": "+902122166586",
      "district": "ŞİŞLİ",
      "city": "İstanbul",
      "latitude": 41.05346934796565,
      "longitude": 28.9878650170166,
      "dutyStart": "2026-03-06T21:00:00.000Z",
      "dutyEnd": "2026-03-07T20:59:59.000Z"
    },
    {
      "id": "istanbul-27298",
      "name": "DOĞA ECZANESİ",
      "address": "Şifa Mahallesi, Başar Sokak, 32A",
      "phone": "+902164233642",
      "district": "TUZLA",
      "city": "İstanbul",
      "latitude": 40.831002723867336,
      "longitude": 29.356718807117833,
      "dutyStart": "2026-03-06T21:00:00.000Z",
      "dutyEnd": "2026-03-07T20:59:59.000Z"
    },
    {
      "id": "istanbul-19710",
      "name": "DOĞU ECZANESİ",
      "address": "Karayolları Mahallesi, Fatih Caddesi, 5B",
      "phone": "+902125377615",
      "district": "GAZİOSMANPAŞA",
      "city": "İstanbul",
      "latitude": 41.08778698035965,
      "longitude": 28.895608069893473,
      "dutyStart": "2026-03-06T21:00:00.000Z",
      "dutyEnd": "2026-03-07T20:59:59.000Z"
    },
    {
      "id": "istanbul-23200",
      "name": "DURU ECZANESİ",
      "address": "Bulgurlu Mahallesi, Yurtsever Sokak, 3",
      "phone": "+902166508681",
      "district": "ÜSKÜDAR",
      "city": "İstanbul",
      "latitude": 41.02137251418898,
      "longitude": 29.081127636105315,
      "dutyStart": "2026-03-06T21:00:00.000Z",
      "dutyEnd": "2026-03-07T20:59:59.000Z"
    },
    {
      "id": "istanbul-36438",
      "name": "DİDEM TOPRAK ECZANESİ",
      "address": "Feyzullah Mahallesi, Bağdat Caddesi, No:336-338C",
      "phone": "+905334450616",
      "district": "MALTEPE",
      "city": "İstanbul",
      "latitude": 40.92646771063635,
      "longitude": 29.12954523187833,
      "dutyStart": "2026-03-06T21:00:00.000Z",
      "dutyEnd": "2026-03-07T20:59:59.000Z"
    },
    {
      "id": "istanbul-11412",
      "name": "DİLEM ECZANESİ",
      "address": "Ulus Mahallesi, Atatürk Caddesi, 24/A",
      "phone": "+902128610622",
      "district": "BÜYÜKÇEKMECE",
      "city": "İstanbul",
      "latitude": 41.030270175553184,
      "longitude": 28.55205968562679,
      "dutyStart": "2026-03-06T21:00:00.000Z",
      "dutyEnd": "2026-03-07T20:59:59.000Z"
    },
    {
      "id": "istanbul-15402",
      "name": "DİLŞAT ECZANESİ",
      "address": "Göktürk Merkez Mahallesi, Çeşmebaşı Caddesi, 45",
      "phone": "+902123221288",
      "district": "EYÜPSULTAN",
      "city": "İstanbul",
      "latitude": 41.18414399988652,
      "longitude": 28.883602999653384,
      "dutyStart": "2026-03-06T21:00:00.000Z",
      "dutyEnd": "2026-03-07T20:59:59.000Z"
    },
    {
      "id": "istanbul-17050",
      "name": "ECEM ECZANESİ",
      "address": "Fevzi Çakmak Mahallesi, Atışalanı Caddesi, 56/B",
      "phone": "+902125689472",
      "district": "ESENLER",
      "city": "İstanbul",
      "latitude": 41.04101276196701,
      "longitude": 28.88152242386815,
      "dutyStart": "2026-03-06T21:00:00.000Z",
      "dutyEnd": "2026-03-07T20:59:59.000Z"
    },
    {
      "id": "istanbul-27244",
      "name": "EDİZ ECZANESİ",
      "address": "Yenidoğan Mahallesi, Ömer Hayyam Caddesi, 30/1A",
      "phone": "+902165091928",
      "district": "SANCAKTEPE",
      "city": "İstanbul",
      "latitude": 41.01166430117578,
      "longitude": 29.238191229587414,
      "dutyStart": "2026-03-06T21:00:00.000Z",
      "dutyEnd": "2026-03-07T20:59:59.000Z"
    },
    {
      "id": "istanbul-18090",
      "name": "EKİM ECZANESİ",
      "address": "Esenyalı Mahallesi, Yıldırım Sokak, 63/A",
      "phone": "+902164930016",
      "district": "PENDİK",
      "city": "İstanbul",
      "latitude": 40.86405454016361,
      "longitude": 29.297950826893246,
      "dutyStart": "2026-03-06T21:00:00.000Z",
      "dutyEnd": "2026-03-07T20:59:59.000Z"
    },
    {
      "id": "istanbul-29502",
      "name": "ELİF NUR ECZANESİ",
      "address": "50. Yıl Mahallesi, Muhsin Yazıcıoğlu Caddesi, 131-A",
      "phone": "+902126681798",
      "district": "SULTANGAZİ",
      "city": "İstanbul",
      "latitude": 41.09445200012205,
      "longitude": 28.865465999924254,
      "dutyStart": "2026-03-06T21:00:00.000Z",
      "dutyEnd": "2026-03-07T20:59:59.000Z"
    },
    {
      "id": "istanbul-17066",
      "name": "EROĞLU ECZANESİ",
      "address": "İçerenköy Mahallesi, Oyacı Sokak, 16/1/A",
      "phone": "+902165741733",
      "district": "ATAŞEHİR",
      "city": "İstanbul",
      "latitude": 40.97237630152969,
      "longitude": 29.112552220081035,
      "dutyStart": "2026-03-06T21:00:00.000Z",
      "dutyEnd": "2026-03-07T20:59:59.000Z"
    },
    {
      "id": "istanbul-25262",
      "name": "ESENLER ECZANESİ",
      "address": "Esenler Mahallesi, Rıfat Ilgaz Caddesi, 44/A",
      "phone": "+902163964373",
      "district": "PENDİK",
      "city": "İstanbul",
      "latitude": 40.88320907696785,
      "longitude": 29.272616226130896,
      "dutyStart": "2026-03-06T21:00:00.000Z",
      "dutyEnd": "2026-03-07T20:59:59.000Z"
    },
    {
      "id": "istanbul-33210",
      "name": "EYLÜL ECZANESİ",
      "address": "İstiklal Mahallesi, Mithatpaşa Caddesi, No:9/A",
      "phone": "+902165053955",
      "district": "ÜMRANİYE",
      "city": "İstanbul",
      "latitude": 41.02457694369,
      "longitude": 29.099230830411702,
      "dutyStart": "2026-03-06T21:00:00.000Z",
      "dutyEnd": "2026-03-07T20:59:59.000Z"
    },
    {
      "id": "istanbul-14806",
      "name": "FATOŞ ECZANESİ",
      "address": "Adnan Kahveci Mahallesi, Kalkan Sokak, 4-14",
      "phone": "+905443292630",
      "district": "BEYLİKDÜZÜ",
      "city": "İstanbul",
      "latitude": 40.998615000060134,
      "longitude": 28.633269999428393,
      "dutyStart": "2026-03-06T21:00:00.000Z",
      "dutyEnd": "2026-03-07T20:59:59.000Z"
    },
    {
      "id": "istanbul-12560",
      "name": "FERHAN ECZANESİ",
      "address": "Türkali Mahallesi, Ihlamurdere Caddesi, 105/B",
      "phone": "+902122272086",
      "district": "BEŞİKTAŞ",
      "city": "İstanbul",
      "latitude": 41.04782863155171,
      "longitude": 29.002100883061008,
      "dutyStart": "2026-03-06T21:00:00.000Z",
      "dutyEnd": "2026-03-07T20:59:59.000Z"
    },
    {
      "id": "istanbul-32908",
      "name": "GAYE ECZANESİ",
      "address": "İdealtepe Mahallesi, Rıfkı Tongsir Caddesi, 89/A",
      "phone": "+902165184081",
      "district": "MALTEPE",
      "city": "İstanbul",
      "latitude": 40.94526900022138,
      "longitude": 29.125528000237583,
      "dutyStart": "2026-03-06T21:00:00.000Z",
      "dutyEnd": "2026-03-07T20:59:59.000Z"
    },
    {
      "id": "istanbul-37058",
      "name": "GÖKŞEN ECZANESİ ",
      "address": "Ihlamurkuyu Mahallesi, Karakol Sokak, 3/11",
      "phone": "+902165145919",
      "district": "ÜMRANİYE",
      "city": "İstanbul",
      "latitude": 41.018138000170424,
      "longitude": 29.137701000049,
      "dutyStart": "2026-03-06T21:00:00.000Z",
      "dutyEnd": "2026-03-07T20:59:59.000Z"
    },
    {
      "id": "istanbul-26328",
      "name": "GÜNCE ECZANESİ",
      "address": "Ortaköy Mahallesi, Dereboyu Caddesi, 4A",
      "phone": "+902123203535",
      "district": "BEŞİKTAŞ",
      "city": "İstanbul",
      "latitude": 41.05573835109161,
      "longitude": 29.023153043720065,
      "dutyStart": "2026-03-06T21:00:00.000Z",
      "dutyEnd": "2026-03-07T20:59:59.000Z"
    },
    {
      "id": "istanbul-17408",
      "name": "GÜNER ECZANESİ",
      "address": "Yeni Mahallesi, Azra Sokak, 5/C",
      "phone": "+902127276878",
      "district": "SİLİVRİ",
      "city": "İstanbul",
      "latitude": 41.07736580807763,
      "longitude": 28.24921213401984,
      "dutyStart": "2026-03-06T21:00:00.000Z",
      "dutyEnd": "2026-03-07T20:59:59.000Z"
    },
    {
      "id": "istanbul-11996",
      "name": "GÜNEŞ ECZANESİ",
      "address": "Hürriyet Mahallesi, Hürriyet Caddesi, 70/A",
      "phone": "+902126549993",
      "district": "BAHÇELİEVLER",
      "city": "İstanbul",
      "latitude": 40.99613050234911,
      "longitude": 28.841029787881137,
      "dutyStart": "2026-03-06T21:00:00.000Z",
      "dutyEnd": "2026-03-07T20:59:59.000Z"
    },
    {
      "id": "istanbul-33362",
      "name": "GİZEM ECZANESİ",
      "address": "Atatürk Mahallesi, Çiftlik Sokak, 22/E",
      "phone": "+902163351431",
      "district": "ÜMRANİYE",
      "city": "İstanbul",
      "latitude": 41.02712499966647,
      "longitude": 29.091850999996993,
      "dutyStart": "2026-03-06T21:00:00.000Z",
      "dutyEnd": "2026-03-07T20:59:59.000Z"
    },
    {
      "id": "istanbul-24934",
      "name": "HACETTEPE ECZANESİ",
      "address": "Üçevler Mahallesi, Bahçeyolu Caddesi, 25A/80",
      "phone": "+902125962452",
      "district": "ESENYURT",
      "city": "İstanbul",
      "latitude": 41.0284722280653,
      "longitude": 28.681690937345678,
      "dutyStart": "2026-03-06T21:00:00.000Z",
      "dutyEnd": "2026-03-07T20:59:59.000Z"
    },
    {
      "id": "istanbul-27194",
      "name": "HALICIOĞLU ECZANESİ",
      "address": "Halıcıoğlu Mahallesi, Tunç Sokak, 1/A",
      "phone": "+902123694549",
      "district": "BEYOĞLU",
      "city": "İstanbul",
      "latitude": 41.049938399772685,
      "longitude": 28.94961305746283,
      "dutyStart": "2026-03-06T21:00:00.000Z",
      "dutyEnd": "2026-03-07T20:59:59.000Z"
    },
    {
      "id": "istanbul-30306",
      "name": "HALİTAĞA CADDE ECZANESİ",
      "address": "Rasimpaşa Mahallesi, Halit Ağa Caddesi, 36/A",
      "phone": "+902165757808",
      "district": "KADIKÖY",
      "city": "İstanbul",
      "latitude": 40.99265300034821,
      "longitude": 29.029803999905347,
      "dutyStart": "2026-03-06T21:00:00.000Z",
      "dutyEnd": "2026-03-07T20:59:59.000Z"
    },
    {
      "id": "istanbul-27344",
      "name": "HANDE ECZANESİ",
      "address": "Yeşilkent Mahallesi, 2011. Sokak, 16B/14",
      "phone": "+902128533331",
      "district": "ESENYURT",
      "city": "İstanbul",
      "latitude": 41.025941932043274,
      "longitude": 28.658756913212283,
      "dutyStart": "2026-03-06T21:00:00.000Z",
      "dutyEnd": "2026-03-07T20:59:59.000Z"
    },
    {
      "id": "istanbul-6296",
      "name": "HEYBELİADA ECZANESİ",
      "address": "Heybeliada Mahallesi, Ayyıldız Caddesi, No:25/D",
      "phone": "+902163518415",
      "district": "ADALAR",
      "city": "İstanbul",
      "latitude": 40.87751817989951,
      "longitude": 29.1001562048735,
      "dutyStart": "2026-03-06T21:00:00.000Z",
      "dutyEnd": "2026-03-07T20:59:59.000Z"
    },
    {
      "id": "istanbul-29460",
      "name": "HIZIR BEY ECZANESİ",
      "address": "Dumlupınar Mahallesi, Hızır Bey Caddesi, 207B",
      "phone": "+902165655001",
      "district": "KADIKÖY",
      "city": "İstanbul",
      "latitude": 40.98770207066654,
      "longitude": 29.057719157574216,
      "dutyStart": "2026-03-06T21:00:00.000Z",
      "dutyEnd": "2026-03-07T20:59:59.000Z"
    },
    {
      "id": "istanbul-17976",
      "name": "IŞIK ECZANESİ",
      "address": "Battalgazi Mahallesi, Paşaköy Caddesi, 61/A",
      "phone": "+905057760960",
      "district": "SULTANBEYLİ",
      "city": "İstanbul",
      "latitude": 40.98660919195434,
      "longitude": 29.283880299658335,
      "dutyStart": "2026-03-06T21:00:00.000Z",
      "dutyEnd": "2026-03-07T20:59:59.000Z"
    },
    {
      "id": "istanbul-22914",
      "name": "KARABİBER ECZANESİ",
      "address": "Şehsuvar Bey Mahallesi, Kadırga Limanı Caddesi, 31/C",
      "phone": "+902125170222",
      "district": "FATİH",
      "city": "İstanbul",
      "latitude": 41.00473100946075,
      "longitude": 28.967085486393014,
      "dutyStart": "2026-03-06T21:00:00.000Z",
      "dutyEnd": "2026-03-07T20:59:59.000Z"
    },
    {
      "id": "istanbul-24344",
      "name": "KAĞITHANE SAĞLIK ECZANESİ",
      "address": "Nurtepe Mahallesi, Şehit Mustafa Burcu Caddesi, 27A",
      "phone": "+902122431777",
      "district": "KAĞITHANE",
      "city": "İstanbul",
      "latitude": 41.07597689174474,
      "longitude": 28.962468199158167,
      "dutyStart": "2026-03-06T21:00:00.000Z",
      "dutyEnd": "2026-03-07T20:59:59.000Z"
    },
    {
      "id": "istanbul-25054",
      "name": "KOZMOS ECZANESİ",
      "address": "Caferağa Mahallesi, Leylek Sokak, 20B",
      "phone": "+902168037536",
      "district": "KADIKÖY",
      "city": "İstanbul",
      "latitude": 40.985662000142945,
      "longitude": 29.023713000180624,
      "dutyStart": "2026-03-06T21:00:00.000Z",
      "dutyEnd": "2026-03-07T20:59:59.000Z"
    },
    {
      "id": "istanbul-15722",
      "name": "KUL ECZANESİ",
      "address": "Girne Mahallesi, Başöğretmen Caddesi, 27",
      "phone": "+902163058454",
      "district": "MALTEPE",
      "city": "İstanbul",
      "latitude": 40.94001367704058,
      "longitude": 29.142160614924776,
      "dutyStart": "2026-03-06T21:00:00.000Z",
      "dutyEnd": "2026-03-07T20:59:59.000Z"
    },
    {
      "id": "istanbul-26096",
      "name": "KULE ECZANESİ ",
      "address": "Ergenekon Mahallesi, P. Roncalli (Ölçek) Sokak, 131A",
      "phone": "+902122305006",
      "district": "ŞİŞLİ",
      "city": "İstanbul",
      "latitude": 41.04734000036125,
      "longitude": 28.985992999544653,
      "dutyStart": "2026-03-06T21:00:00.000Z",
      "dutyEnd": "2026-03-07T20:59:59.000Z"
    },
    {
      "id": "istanbul-33850",
      "name": "KÖY ECZANESİ",
      "address": "Zekeriyaköy Mahallesi, Prof. Dr. Oktay Sinanoğlu Caddesi, 6 - B Blok İç Kapı No: 12-13",
      "phone": "+902122622225",
      "district": "SARIYER",
      "city": "İstanbul",
      "latitude": 41.20246881113648,
      "longitude": 29.034754290079437,
      "dutyStart": "2026-03-06T21:00:00.000Z",
      "dutyEnd": "2026-03-07T20:59:59.000Z"
    },
    {
      "id": "istanbul-31402",
      "name": "LİLYUM ECZANESİ",
      "address": "Fenerbahçe Mahallesi, Bağdat Caddesi, 92/B",
      "phone": "+902167664905",
      "district": "KADIKÖY",
      "city": "İstanbul",
      "latitude": 40.98014099993917,
      "longitude": 29.04242499964691,
      "dutyStart": "2026-03-06T21:00:00.000Z",
      "dutyEnd": "2026-03-07T20:59:59.000Z"
    },
    {
      "id": "istanbul-27178",
      "name": "LİMON ECZANESİ",
      "address": "Merdivenköy Mahallesi, Reşat Nuri Sokak, 2/C",
      "phone": "+902163554403",
      "district": "KADIKÖY",
      "city": "İstanbul",
      "latitude": 40.98766999994163,
      "longitude": 29.076939000487453,
      "dutyStart": "2026-03-06T21:00:00.000Z",
      "dutyEnd": "2026-03-07T20:59:59.000Z"
    },
    {
      "id": "istanbul-16160",
      "name": "MALL OF İSTANBUL ECZANESİ",
      "address": "Ziya Gökalp Mahallesi Süleyman Demirel Bulvarı 7",
      "phone": "+902128010710",
      "district": "BAŞAKŞEHİR",
      "city": "İstanbul",
      "latitude": 41.063876890658506,
      "longitude": 28.80662139497628,
      "dutyStart": "2026-03-06T21:00:00.000Z",
      "dutyEnd": "2026-03-07T20:59:59.000Z"
    },
    {
      "id": "istanbul-30004",
      "name": "MERKEZ ECZANESİ",
      "address": "Pınar Mahallesi, Ondokuz Mayıs Bulvarı, 50/A",
      "phone": "+902126205069",
      "district": "ESENYURT",
      "city": "İstanbul",
      "latitude": 41.02970136143513,
      "longitude": 28.66799947131637,
      "dutyStart": "2026-03-06T21:00:00.000Z",
      "dutyEnd": "2026-03-07T20:59:59.000Z"
    },
    {
      "id": "istanbul-32736",
      "name": "MERKEZ ÇARŞI ECZANESİ",
      "address": "Yenişehir Mahallesi, Mustafa Akyol Sokak, 11 İç Kapı No:36",
      "phone": "+902164821456",
      "district": "PENDİK",
      "city": "İstanbul",
      "latitude": 40.92766000038675,
      "longitude": 29.30773400055278,
      "dutyStart": "2026-03-06T21:00:00.000Z",
      "dutyEnd": "2026-03-07T20:59:59.000Z"
    },
    {
      "id": "istanbul-33214",
      "name": "MERT ECZANESİ",
      "address": "Kocamustafapaşa Mahallesi, Org. Abdurrahman Nafiz Gürman Caddesi, 85/A",
      "phone": "+902125305343",
      "district": "FATİH",
      "city": "İstanbul",
      "latitude": 41.00219499993563,
      "longitude": 28.936782999845363,
      "dutyStart": "2026-03-06T21:00:00.000Z",
      "dutyEnd": "2026-03-07T20:59:59.000Z"
    },
    {
      "id": "istanbul-25846",
      "name": "MERVE ECZANESİ",
      "address": "Çengelköy Mahallesi, Prof. Dr. Beynun Akyavaş Caddesi, 30/2A",
      "phone": "+902163219383",
      "district": "ÜSKÜDAR",
      "city": "İstanbul",
      "latitude": 41.050182999773504,
      "longitude": 29.061155000209826,
      "dutyStart": "2026-03-06T21:00:00.000Z",
      "dutyEnd": "2026-03-07T20:59:59.000Z"
    },
    {
      "id": "istanbul-15932",
      "name": "MURAT ECZANESİ",
      "address": "Cebeci Mahallesi, 1. Cebecı Yolu Caddesi, 50/D",
      "phone": "+902124769104",
      "district": "SULTANGAZİ",
      "city": "İstanbul",
      "latitude": 41.10882171432897,
      "longitude": 28.866571871210816,
      "dutyStart": "2026-03-06T21:00:00.000Z",
      "dutyEnd": "2026-03-07T20:59:59.000Z"
    },
    {
      "id": "istanbul-36956",
      "name": "MÜGE ECZANESİ",
      "address": "Şehremini Mahallesi, Turgut Özal Millet Caddesi, 135/D",
      "phone": "+902125860179",
      "district": "FATİH",
      "city": "İstanbul",
      "latitude": 41.01538200041909,
      "longitude": 28.93252499947828,
      "dutyStart": "2026-03-06T21:00:00.000Z",
      "dutyEnd": "2026-03-07T20:59:59.000Z"
    },
    {
      "id": "istanbul-19564",
      "name": "ONUR ECZANESİ",
      "address": "Gülbahar Mahallesi, Oya Sokak, 4B",
      "phone": "+902122176504",
      "district": "ŞİŞLİ",
      "city": "İstanbul",
      "latitude": 41.06792830890152,
      "longitude": 29.0032943250161,
      "dutyStart": "2026-03-06T21:00:00.000Z",
      "dutyEnd": "2026-03-07T20:59:59.000Z"
    },
    {
      "id": "istanbul-27368",
      "name": "ORGANİK ECZANESİ",
      "address": "Defterdar Mahallesi, Cebecibaşı Caddesi, 22/A",
      "phone": "+902125239908",
      "district": "EYÜPSULTAN",
      "city": "İstanbul",
      "latitude": 41.03538999967282,
      "longitude": 28.93727800031132,
      "dutyStart": "2026-03-06T21:00:00.000Z",
      "dutyEnd": "2026-03-07T20:59:59.000Z"
    },
    {
      "id": "istanbul-19520",
      "name": "OZAN ECZANESİ",
      "address": "Piyalepaşa Mahallesi, Sağlık Ocağı Sokak, 9/A",
      "phone": "+902122973013",
      "district": "BEYOĞLU",
      "city": "İstanbul",
      "latitude": 41.049178050729154,
      "longitude": 28.960246062604668,
      "dutyStart": "2026-03-06T21:00:00.000Z",
      "dutyEnd": "2026-03-07T20:59:59.000Z"
    },
    {
      "id": "istanbul-28184",
      "name": "OĞUZ CAN  ECZANESİ",
      "address": "Abdurrahmangazi Mahallesi, Alparslan Caddesi, 2/1E",
      "phone": "+902162083232",
      "district": "SANCAKTEPE",
      "city": "İstanbul",
      "latitude": 40.99093100010826,
      "longitude": 29.231898000088993,
      "dutyStart": "2026-03-06T21:00:00.000Z",
      "dutyEnd": "2026-03-07T20:59:59.000Z"
    },
    {
      "id": "istanbul-28152",
      "name": "PAKER ECZANESİ",
      "address": "Sultan Murat Mahallesi, Sultan Murat Caddesi, 104B",
      "phone": "+902125806317",
      "district": "KÜÇÜKÇEKMECE",
      "city": "İstanbul",
      "latitude": 41.00264399956091,
      "longitude": 28.78844500023316,
      "dutyStart": "2026-03-06T21:00:00.000Z",
      "dutyEnd": "2026-03-07T20:59:59.000Z"
    },
    {
      "id": "istanbul-31548",
      "name": "PERA ECZANESİ",
      "address": "Erenköy Mahallesi, Ethemefendi Caddesi, 26A",
      "phone": "+905330353048",
      "district": "KADIKÖY",
      "city": "İstanbul",
      "latitude": 40.96892099984242,
      "longitude": 29.07222199976023,
      "dutyStart": "2026-03-06T21:00:00.000Z",
      "dutyEnd": "2026-03-07T20:59:59.000Z"
    },
    {
      "id": "istanbul-20596",
      "name": "PHARMALİZ ECZANESİ",
      "address": "Aşık Veysel Mahallesi, Süleyman Demirel Caddesi, 4B",
      "phone": "+902126720644",
      "district": "ESENYURT",
      "city": "İstanbul",
      "latitude": 41.056497530856724,
      "longitude": 28.672010642771166,
      "dutyStart": "2026-03-06T21:00:00.000Z",
      "dutyEnd": "2026-03-07T20:59:59.000Z"
    },
    {
      "id": "istanbul-30126",
      "name": "REÇİNE ECZANESİ",
      "address": "Kayabaşı Mahallesi, Kayaşehir Bulvarı, AVRUPA KONUTLARI 2.ETAP NO:61E",
      "phone": "+902128125160",
      "district": "BAŞAKŞEHİR",
      "city": "İstanbul",
      "latitude": 41.126344651940876,
      "longitude": 28.77195830564188,
      "dutyStart": "2026-03-06T21:00:00.000Z",
      "dutyEnd": "2026-03-07T20:59:59.000Z"
    },
    {
      "id": "istanbul-25146",
      "name": "SAHRA ECZANESİ",
      "address": "Tahtakale Mahallesi, Ispartakule Bulvarı, 15/5E",
      "phone": "+905050140953",
      "district": "AVCILAR",
      "city": "İstanbul",
      "latitude": 41.07273600020592,
      "longitude": 28.709572999452085,
      "dutyStart": "2026-03-06T21:00:00.000Z",
      "dutyEnd": "2026-03-07T20:59:59.000Z"
    },
    {
      "id": "istanbul-30020",
      "name": "SARE ECZANESİ",
      "address": "Yeşilpınar Mahallesi, Gençlik Sokak, 30/A",
      "phone": "+902125381251",
      "district": "EYÜPSULTAN",
      "city": "İstanbul",
      "latitude": 41.072783999643555,
      "longitude": 28.919679999987096,
      "dutyStart": "2026-03-06T21:00:00.000Z",
      "dutyEnd": "2026-03-07T20:59:59.000Z"
    },
    {
      "id": "istanbul-27886",
      "name": "SARI ECZANESİ",
      "address": "İsmetpaşa Mahallesi, İsmet Paşa Caddesi, 66/A",
      "phone": "+902126138151",
      "district": "BAYRAMPAŞA",
      "city": "İstanbul",
      "latitude": 41.042432940263545,
      "longitude": 28.904164728317376,
      "dutyStart": "2026-03-06T21:00:00.000Z",
      "dutyEnd": "2026-03-07T20:59:59.000Z"
    },
    {
      "id": "istanbul-29810",
      "name": "SARIYER ECZANESİ",
      "address": "Merkez Mahallesi, Türbe Çeşme Sokak, 11",
      "phone": "+902122712278",
      "district": "SARIYER",
      "city": "İstanbul",
      "latitude": 41.16926599954915,
      "longitude": 29.057022999623477,
      "dutyStart": "2026-03-06T21:00:00.000Z",
      "dutyEnd": "2026-03-07T20:59:59.000Z"
    },
    {
      "id": "istanbul-22468",
      "name": "SEVRA ECZANESİ",
      "address": "Petroliş Mahallesi Üsküdar Caddesi 62/2",
      "phone": "+902165922244",
      "district": "KARTAL",
      "city": "İstanbul",
      "latitude": 40.89056267828769,
      "longitude": 29.178213721724134,
      "dutyStart": "2026-03-06T21:00:00.000Z",
      "dutyEnd": "2026-03-07T20:59:59.000Z"
    },
    {
      "id": "istanbul-10686",
      "name": "SİNAN ECZANESİ",
      "address": "Karlıtepe Mahallesi, Ordu Caddesi, 165/3",
      "phone": "+902125811064",
      "district": "GAZİOSMANPAŞA",
      "city": "İstanbul",
      "latitude": 41.05848149904783,
      "longitude": 28.926656293256286,
      "dutyStart": "2026-03-06T21:00:00.000Z",
      "dutyEnd": "2026-03-07T20:59:59.000Z"
    },
    {
      "id": "istanbul-19302",
      "name": "TAKSİM ÇİÇEK ECZANESİ",
      "address": "Hüseyinağa Mahallesi, Sahne Sokak, 1/B",
      "phone": "+902126502226",
      "district": "BEYOĞLU",
      "city": "İstanbul",
      "latitude": 41.03395499982878,
      "longitude": 28.977809999651885,
      "dutyStart": "2026-03-06T21:00:00.000Z",
      "dutyEnd": "2026-03-07T20:59:59.000Z"
    },
    {
      "id": "istanbul-21262",
      "name": "TAN ECZANESİ",
      "address": "Reşitpaşa Mahallesi, Eski Büyükdere Caddesi, 26/2",
      "phone": "+902125103334",
      "district": "SARIYER",
      "city": "İstanbul",
      "latitude": 41.108355000410555,
      "longitude": 29.01952700006674,
      "dutyStart": "2026-03-06T21:00:00.000Z",
      "dutyEnd": "2026-03-07T20:59:59.000Z"
    },
    {
      "id": "istanbul-24880",
      "name": "TAŞOLUK ŞİFA ECZANESİ",
      "address": "Mehmet Akif Ersoy Mahallesi, Atatürk Caddesi, No:53/B",
      "phone": "+905306615982",
      "district": "ARNAVUTKÖY",
      "city": "İstanbul",
      "latitude": 41.20432400027947,
      "longitude": 28.715995999657277,
      "dutyStart": "2026-03-06T21:00:00.000Z",
      "dutyEnd": "2026-03-07T20:59:59.000Z"
    },
    {
      "id": "istanbul-25422",
      "name": "TEKİN ECZANESİ",
      "address": "Osmaniye Mahallesi, Suna Sokak, 8D",
      "phone": "+902124660118",
      "district": "BAKIRKÖY",
      "city": "İstanbul",
      "latitude": 40.993657051698804,
      "longitude": 28.874321838103107,
      "dutyStart": "2026-03-06T21:00:00.000Z",
      "dutyEnd": "2026-03-07T20:59:59.000Z"
    },
    {
      "id": "istanbul-33840",
      "name": "TUNA ECZANESİ",
      "address": "Merkez Mahallesi, Merkez Cami Sokak, 9/A",
      "phone": "+902128303830",
      "district": "AVCILAR",
      "city": "İstanbul",
      "latitude": 40.97904500001999,
      "longitude": 28.720118999633023,
      "dutyStart": "2026-03-06T21:00:00.000Z",
      "dutyEnd": "2026-03-07T20:59:59.000Z"
    },
    {
      "id": "istanbul-32108",
      "name": "TUNÇ ECZANESİ",
      "address": "Kirazlı Mahallesi, Zübeyde Hanım Caddesi, 37/A",
      "phone": "+902125506223",
      "district": "BAĞCILAR",
      "city": "İstanbul",
      "latitude": 41.03478500007016,
      "longitude": 28.840646000076777,
      "dutyStart": "2026-03-06T21:00:00.000Z",
      "dutyEnd": "2026-03-07T20:59:59.000Z"
    },
    {
      "id": "istanbul-14752",
      "name": "TUĞBA ECZANESİ",
      "address": "Selimpaşa Merkez Mahallesi 202. Caddesi 23",
      "phone": "+902127316938",
      "district": "SİLİVRİ",
      "city": "İstanbul",
      "latitude": 41.054633822369,
      "longitude": 28.378304336625042,
      "dutyStart": "2026-03-06T21:00:00.000Z",
      "dutyEnd": "2026-03-07T20:59:59.000Z"
    },
    {
      "id": "istanbul-34448",
      "name": "TÜRKMEN ECZANESİ",
      "address": "Cihangir Mahallesi, Kirazlı Caddesi, 59/A",
      "phone": "+902124211717",
      "district": "AVCILAR",
      "city": "İstanbul",
      "latitude": 40.987049421983386,
      "longitude": 28.70950803709559,
      "dutyStart": "2026-03-06T21:00:00.000Z",
      "dutyEnd": "2026-03-07T20:59:59.000Z"
    },
    {
      "id": "istanbul-14258",
      "name": "UFUK ECZANESİ",
      "address": "Güngören Merkez Mahallesi, Abdi İpekçi Caddesi, 46",
      "phone": "+902126412016",
      "district": "GÜNGÖREN",
      "city": "İstanbul",
      "latitude": 41.020525678201736,
      "longitude": 28.867882997178352,
      "dutyStart": "2026-03-06T21:00:00.000Z",
      "dutyEnd": "2026-03-07T20:59:59.000Z"
    },
    {
      "id": "istanbul-29394",
      "name": "ULUSOY ECZANESİ",
      "address": "İnönü Mahallesi, Bağcılar Caddesi, 26/B",
      "phone": "+902124244404",
      "district": "BAĞCILAR",
      "city": "İstanbul",
      "latitude": 41.03128800039765,
      "longitude": 28.85621400009324,
      "dutyStart": "2026-03-06T21:00:00.000Z",
      "dutyEnd": "2026-03-07T20:59:59.000Z"
    },
    {
      "id": "istanbul-25602",
      "name": "UTKU ECZANESİ",
      "address": "Kavaklı Mahallesi, Kavaklı Caddesi, 42GG/6-7",
      "phone": "+902128762061",
      "district": "BEYLİKDÜZÜ",
      "city": "İstanbul",
      "latitude": 40.988981541138166,
      "longitude": 28.65985511333021,
      "dutyStart": "2026-03-06T21:00:00.000Z",
      "dutyEnd": "2026-03-07T20:59:59.000Z"
    },
    {
      "id": "istanbul-32660",
      "name": "VİLDAN ÜNAL ECZANESİ",
      "address": "Tozkoparan Mahallesi, Cevat Açıkalın Caddesi, 12/A",
      "phone": "+905015763401",
      "district": "GÜNGÖREN",
      "city": "İstanbul",
      "latitude": 41.01543000019352,
      "longitude": 28.896566000411443,
      "dutyStart": "2026-03-06T21:00:00.000Z",
      "dutyEnd": "2026-03-07T20:59:59.000Z"
    },
    {
      "id": "istanbul-34598",
      "name": "YAYLA ECZANESİ",
      "address": "Bahçelievler Mahallesi, Adnan Kahveci Bulvarı, No:113/B",
      "phone": "+902124413748",
      "district": "BAHÇELİEVLER",
      "city": "İstanbul",
      "latitude": 41.00012398136159,
      "longitude": 28.86088344238714,
      "dutyStart": "2026-03-06T21:00:00.000Z",
      "dutyEnd": "2026-03-07T20:59:59.000Z"
    },
    {
      "id": "istanbul-25452",
      "name": "YAŞAM ECZANESİ",
      "address": "Gökalp Mahallesi, 58. Bulvar Caddesi, 58/A",
      "phone": "+902125826457",
      "district": "ZEYTİNBURNU",
      "city": "İstanbul",
      "latitude": 40.991531594558566,
      "longitude": 28.903660377421804,
      "dutyStart": "2026-03-06T21:00:00.000Z",
      "dutyEnd": "2026-03-07T20:59:59.000Z"
    },
    {
      "id": "istanbul-25484",
      "name": "YEDİKULE MERKEZ ECZANESİ",
      "address": "Kazlıçeşme Mahallesi, Asım Kazancıgil Caddesi, 38/BY",
      "phone": "+902125584161",
      "district": "ZEYTİNBURNU",
      "city": "İstanbul",
      "latitude": 41.00317812712764,
      "longitude": 28.91460894910403,
      "dutyStart": "2026-03-06T21:00:00.000Z",
      "dutyEnd": "2026-03-07T20:59:59.000Z"
    },
    {
      "id": "istanbul-27836",
      "name": "YENİ ANDROMEDA ECZANESİ",
      "address": "Barbaros Mahallesi, Mor Leylak Sokak, 2V",
      "phone": "+902166885330",
      "district": "ATAŞEHİR",
      "city": "İstanbul",
      "latitude": 40.99179479502881,
      "longitude": 29.106799488593577,
      "dutyStart": "2026-03-06T21:00:00.000Z",
      "dutyEnd": "2026-03-07T20:59:59.000Z"
    },
    {
      "id": "istanbul-12058",
      "name": "YENİ CEREN ECZANESİ",
      "address": "Yayla Mahallesi, Şinasi Dural Caddesi, No:33",
      "phone": "+902164462430",
      "district": "TUZLA",
      "city": "İstanbul",
      "latitude": 40.83195888165153,
      "longitude": 29.305684431610835,
      "dutyStart": "2026-03-06T21:00:00.000Z",
      "dutyEnd": "2026-03-07T20:59:59.000Z"
    },
    {
      "id": "istanbul-16808",
      "name": "YENİ ECZANESİ",
      "address": "Cevatpaşa Mahallesi, Tevfik Fikret Caddesi, 76",
      "phone": "+902126491966",
      "district": "BAYRAMPAŞA",
      "city": "İstanbul",
      "latitude": 41.070205637058514,
      "longitude": 28.884482045268324,
      "dutyStart": "2026-03-06T21:00:00.000Z",
      "dutyEnd": "2026-03-07T20:59:59.000Z"
    },
    {
      "id": "istanbul-24596",
      "name": "YENİ HİLAL ECZANESİ",
      "address": "Şerifali Mahallesi, İbrahim Hakkı Sokak, 13A",
      "phone": "+902165081070",
      "district": "ÜMRANİYE",
      "city": "İstanbul",
      "latitude": 41.003210741702425,
      "longitude": 29.145288169070316,
      "dutyStart": "2026-03-06T21:00:00.000Z",
      "dutyEnd": "2026-03-07T20:59:59.000Z"
    },
    {
      "id": "istanbul-23638",
      "name": "YILDIRIM ECZANESİ",
      "address": "Fatih Mahallesi, Mimoza Sokak, 6A",
      "phone": "+902128833292",
      "district": "BÜYÜKÇEKMECE",
      "city": "İstanbul",
      "latitude": 41.01885960221158,
      "longitude": 28.59936735175006,
      "dutyStart": "2026-03-06T21:00:00.000Z",
      "dutyEnd": "2026-03-07T20:59:59.000Z"
    },
    {
      "id": "istanbul-9462",
      "name": "YÜCEL ECZANESİ",
      "address": "Kaleiçi Mahallesi, Tevfik Erdönmez Caddesi, Kızılay İş Hanı",
      "phone": "+902127891238",
      "district": "ÇATALCA",
      "city": "İstanbul",
      "latitude": 41.142913133082345,
      "longitude": 28.45847624982343,
      "dutyStart": "2026-03-06T21:00:00.000Z",
      "dutyEnd": "2026-03-07T20:59:59.000Z"
    },
    {
      "id": "istanbul-24268",
      "name": "YİĞİTOĞLU ECZANESİ",
      "address": "Batı Mahallesi, Ortanca Caddesi, 2A",
      "phone": "+902163904195",
      "district": "PENDİK",
      "city": "İstanbul",
      "latitude": 40.87686150213655,
      "longitude": 29.229107693986993,
      "dutyStart": "2026-03-06T21:00:00.000Z",
      "dutyEnd": "2026-03-07T20:59:59.000Z"
    },
    {
      "id": "istanbul-29648",
      "name": "ZERDEÇAL ECZANESİ",
      "address": "Kültür Mahallesi, İett Blokları Yolu Sokak, 23",
      "phone": "+902122876896",
      "district": "BEŞİKTAŞ",
      "city": "İstanbul",
      "latitude": 41.07405500006522,
      "longitude": 29.034061999748374,
      "dutyStart": "2026-03-06T21:00:00.000Z",
      "dutyEnd": "2026-03-07T20:59:59.000Z"
    },
    {
      "id": "istanbul-24726",
      "name": "ZEYNEP ŞİFA ECZANESİ",
      "address": "Valideiatik Mahallesi, Dr. Fahri Atabey Caddesi, 97A",
      "phone": "+902165534445",
      "district": "ÜSKÜDAR",
      "city": "İstanbul",
      "latitude": 41.015615836213115,
      "longitude": 29.02734607438847,
      "dutyStart": "2026-03-06T21:00:00.000Z",
      "dutyEnd": "2026-03-07T20:59:59.000Z"
    },
    {
      "id": "istanbul-9754",
      "name": "ZEYTİN ECZANESİ",
      "address": "Siyavuşpaşa Mahallesi, Mustafa Kemalpaşa Caddesi, Kaman Sokak,No:7/A",
      "phone": "+902125531516",
      "district": "BAHÇELİEVLER",
      "city": "İstanbul",
      "latitude": 41.00355599994004,
      "longitude": 28.85153300044656,
      "dutyStart": "2026-03-06T21:00:00.000Z",
      "dutyEnd": "2026-03-07T20:59:59.000Z"
    },
    {
      "id": "istanbul-11780",
      "name": "ÇAMSANPARK ECZANESİ",
      "address": "Sarıgazi Mahallesi, Yenice Sokak, 24B",
      "phone": "+905413737490",
      "district": "SANCAKTEPE",
      "city": "İstanbul",
      "latitude": 41.007601561942636,
      "longitude": 29.199186681305246,
      "dutyStart": "2026-03-06T21:00:00.000Z",
      "dutyEnd": "2026-03-07T20:59:59.000Z"
    },
    {
      "id": "istanbul-22436",
      "name": "ÇINAR ECZANESİ",
      "address": "Çınar Mahallesi, Osman Gazi Caddesi, 64/A",
      "phone": "+902124331379",
      "district": "BAĞCILAR",
      "city": "İstanbul",
      "latitude": 41.04015988166847,
      "longitude": 28.85938223731056,
      "dutyStart": "2026-03-06T21:00:00.000Z",
      "dutyEnd": "2026-03-07T20:59:59.000Z"
    },
    {
      "id": "istanbul-30170",
      "name": "ÇİLEK ECZANESİ",
      "address": "Hadımköy Mahallesi, Göçmen Sokak, 22C",
      "phone": "+905352369780",
      "district": "ARNAVUTKÖY",
      "city": "İstanbul",
      "latitude": 41.15772500019295,
      "longitude": 28.622265000067202,
      "dutyStart": "2026-03-06T21:00:00.000Z",
      "dutyEnd": "2026-03-07T20:59:59.000Z"
    },
    {
      "id": "istanbul-16756",
      "name": "ÖZGE ECZANESİ",
      "address": "Ferahevler Mahallesi, Muhtar Caddesi, No:1",
      "phone": "+902122620660",
      "district": "SARIYER",
      "city": "İstanbul",
      "latitude": 41.13193074437328,
      "longitude": 29.04119693362173,
      "dutyStart": "2026-03-06T21:00:00.000Z",
      "dutyEnd": "2026-03-07T20:59:59.000Z"
    },
    {
      "id": "istanbul-28744",
      "name": "ÖZLEM ECZANESİ",
      "address": "Orhangazi Mahallesi, Antalya Caddesi, 113/A",
      "phone": "+902164870561",
      "district": "SULTANBEYLİ",
      "city": "İstanbul",
      "latitude": 40.94474499967163,
      "longitude": 29.284369000457882,
      "dutyStart": "2026-03-06T21:00:00.000Z",
      "dutyEnd": "2026-03-07T20:59:59.000Z"
    },
    {
      "id": "istanbul-37566",
      "name": "ÜMİT ECZANESİ",
      "address": "Merkez Mahallesi, Eski Edirne Cad., No:1175/A",
      "phone": "+905413425490",
      "district": "ARNAVUTKÖY",
      "city": "İstanbul",
      "latitude": 41.17892888103538,
      "longitude": 28.74647559740422,
      "dutyStart": "2026-03-06T21:00:00.000Z",
      "dutyEnd": "2026-03-07T20:59:59.000Z"
    },
    {
      "id": "istanbul-21494",
      "name": "İLKSİN ECZANESİ",
      "address": "Mimar Sinan Mahallesi Ethem Sokak 13/A",
      "phone": "+902166405891",
      "district": "ÇEKMEKÖY",
      "city": "İstanbul",
      "latitude": 41.030464945764756,
      "longitude": 29.173768479768487,
      "dutyStart": "2026-03-06T21:00:00.000Z",
      "dutyEnd": "2026-03-07T20:59:59.000Z"
    },
    {
      "id": "istanbul-19040",
      "name": "İNAN ECZANESİ",
      "address": "Şenlikköy Mahallesi, Florya Caddesi, 21/C",
      "phone": "+905073024495",
      "district": "BAKIRKÖY",
      "city": "İstanbul",
      "latitude": 40.980646586163225,
      "longitude": 28.793090744382173,
      "dutyStart": "2026-03-06T21:00:00.000Z",
      "dutyEnd": "2026-03-07T20:59:59.000Z"
    },
    {
      "id": "istanbul-29990",
      "name": "İNCİR ECZANESİ",
      "address": "19 Mayıs Mahallesi, Yazar Sokak, 7/B",
      "phone": "+905495462470",
      "district": "KADIKÖY",
      "city": "İstanbul",
      "latitude": 40.97789272279169,
      "longitude": 29.091488722702902,
      "dutyStart": "2026-03-06T21:00:00.000Z",
      "dutyEnd": "2026-03-07T20:59:59.000Z"
    },
    {
      "id": "istanbul-19948",
      "name": "İPEK ECZANESİ",
      "address": "Atakent Mahallesi, Cumhuriyet Caddesi, 1/AB",
      "phone": "+902126989795",
      "district": "KÜÇÜKÇEKMECE",
      "city": "İstanbul",
      "latitude": 41.04586361763737,
      "longitude": 28.79825165837877,
      "dutyStart": "2026-03-06T21:00:00.000Z",
      "dutyEnd": "2026-03-07T20:59:59.000Z"
    },
    {
      "id": "istanbul-25412",
      "name": "İREM ECZANESİ",
      "address": "Kozyatağı Mahallesi, Şemsettin Günaltay Caddesi, 32-34/A",
      "phone": "+902164635051",
      "district": "KADIKÖY",
      "city": "İstanbul",
      "latitude": 40.960878999811136,
      "longitude": 29.093746000195967,
      "dutyStart": "2026-03-06T21:00:00.000Z",
      "dutyEnd": "2026-03-07T20:59:59.000Z"
    },
    {
      "id": "istanbul-20032",
      "name": "İSTANBUL DENİZ ECZANESİ",
      "address": "Güneşli Mahallesi, Üsküp Caddesi, No:7-9A",
      "phone": "+902125500723",
      "district": "BAĞCILAR",
      "city": "İstanbul",
      "latitude": 41.0325703958952,
      "longitude": 28.82698010177375,
      "dutyStart": "2026-03-06T21:00:00.000Z",
      "dutyEnd": "2026-03-07T20:59:59.000Z"
    },
    {
      "id": "istanbul-27286",
      "name": "İSTANBUL ECZANESİ",
      "address": "Yeni Mahallesi, Varnalı Caddesi, 32B",
      "phone": "+905385540000",
      "district": "SİLİVRİ",
      "city": "İstanbul",
      "latitude": 41.08631148234861,
      "longitude": 28.2483997128512,
      "dutyStart": "2026-03-06T21:00:00.000Z",
      "dutyEnd": "2026-03-07T20:59:59.000Z"
    },
    {
      "id": "istanbul-22958",
      "name": "İSTANBUL ECZANESİ",
      "address": "Hırka-i Şerif Mahallesi, Kocasinan Caddesi, 90/A",
      "phone": "+902126219227",
      "district": "FATİH",
      "city": "İstanbul",
      "latitude": 41.01985744351712,
      "longitude": 28.939924340784945,
      "dutyStart": "2026-03-06T21:00:00.000Z",
      "dutyEnd": "2026-03-07T20:59:59.000Z"
    },
    {
      "id": "istanbul-29578",
      "name": "ŞAHİN ECZANESİ",
      "address": "Zübeyde Hanım Mahallesi, 1285. Sokak, 26/A",
      "phone": "+902126505095",
      "district": "SULTANGAZİ",
      "city": "İstanbul",
      "latitude": 41.1024768587299,
      "longitude": 28.907851510392117,
      "dutyStart": "2026-03-06T21:00:00.000Z",
      "dutyEnd": "2026-03-07T20:59:59.000Z"
    },
    {
      "id": "istanbul-28264",
      "name": "ŞARA ECZANESİ",
      "address": "Saadetdere Mahallesi, Fevzi Çakmak Caddesi, 87/A",
      "phone": "+902123024633",
      "district": "ESENYURT",
      "city": "İstanbul",
      "latitude": 41.008973000151705,
      "longitude": 28.694184000445656,
      "dutyStart": "2026-03-06T21:00:00.000Z",
      "dutyEnd": "2026-03-07T20:59:59.000Z"
    },
    {
      "id": "istanbul-23422",
      "name": "ŞEHİR ECZANESİ",
      "address": "Sarıgazi Mahallesi, Osmangazi Caddesi, 32B",
      "phone": "+902166212164",
      "district": "SANCAKTEPE",
      "city": "İstanbul",
      "latitude": 41.00593099993496,
      "longitude": 29.215728000031632,
      "dutyStart": "2026-03-06T21:00:00.000Z",
      "dutyEnd": "2026-03-07T20:59:59.000Z"
    },
    {
      "id": "istanbul-8976",
      "name": "ŞİFA ECZANESİ",
      "address": "Ağva Merkez Mahallesi, Yakuplu Caddesi, 7",
      "phone": "+902167218169",
      "district": "ŞİLE",
      "city": "İstanbul",
      "latitude": 41.139166752321906,
      "longitude": 29.85684207593813,
      "dutyStart": "2026-03-06T21:00:00.000Z",
      "dutyEnd": "2026-03-07T20:59:59.000Z"
    }
  ]
}