{
  "city": "samsun",
  "cityName": "Samsun",
  "cityId": 55,
  "date": "2026-03-07",
  "updatedAt": "2026-03-06T22:00:21.681Z",
  "count": 20,
  "pharmacies": [
    {
      "id": "samsun-0",
      "name": "İSTİKAMET EYLÜL ECZANESİ",
      "address": "ZAFER MAH. CUMHURİYET CAD. NO.21/2",
      "phone": "03624312587",
      "district": "İlkadım",
      "city": "Samsun",
      "latitude": 41.287507,
      "longitude": 36.33823,
      "dutyStart": "2026-03-06T08:30:00.000Z",
      "dutyEnd": "2026-03-07T08:30:00.000Z"
    },
    {
      "id": "samsun-1",
      "name": "SAADET ECZANESİ",
      "address": "KILIÇDEDE MAH.MUHITTIN ÖZKEFELI BULVARI NO:16",
      "phone": "03622348636",
      "district": "İlkadım",
      "city": "Samsun",
      "latitude": 41.279608,
      "longitude": 36.347604,
      "dutyStart": "2026-03-06T08:30:00.000Z",
      "dutyEnd": "2026-03-07T08:30:00.000Z"
    },
    {
      "id": "samsun-2",
      "name": "SEVİL ECZANESİ",
      "address": "FEVZİ ÇAKMAK MAH. İBNİ SİNA CAD. NO:2/A",
      "phone": "03622314892",
      "district": "İlkadım",
      "city": "Samsun",
      "latitude": 41.278871,
      "longitude": 36.332604,
      "dutyStart": "2026-03-06T08:30:00.000Z",
      "dutyEnd": "2026-03-07T08:30:00.000Z"
    },
    {
      "id": "samsun-3",
      "name": "AKOĞLU ECZANESİ",
      "address": "KARSIYAKA MAH. KIRKLARELI SOK NO:29",
      "phone": "03622284855",
      "district": "Canik",
      "city": "Samsun",
      "latitude": 41.266656,
      "longitude": 36.359533,
      "dutyStart": "2026-03-06T08:30:00.000Z",
      "dutyEnd": "2026-03-07T08:30:00.000Z"
    },
    {
      "id": "samsun-4",
      "name": "ÇİĞDEM  ECZANESİ",
      "address": "YENİMAHALLE MAH. ATAKENT BULVARI NO:83/A",
      "phone": "03629995257",
      "district": "Atakum",
      "city": "Samsun",
      "latitude": 41.341242,
      "longitude": 36.243541,
      "dutyStart": "2026-03-06T08:30:00.000Z",
      "dutyEnd": "2026-03-07T08:30:00.000Z"
    },
    {
      "id": "samsun-5",
      "name": "EGE ECZANESİ",
      "address": "MİMAR SİNAN MAH. ABDULLAH GÜL BULVARI NO:24/A",
      "phone": "03629993345",
      "district": "Atakum",
      "city": "Samsun",
      "latitude": 41.325963,
      "longitude": 36.282663,
      "dutyStart": "2026-03-06T08:30:00.000Z",
      "dutyEnd": "2026-03-07T08:30:00.000Z"
    },
    {
      "id": "samsun-6",
      "name": "ÇELİK ECZANESİ",
      "address": "19 MAYIS MAH. 669. CAD. NO.1/A",
      "phone": "03625023000",
      "district": "Tekkeköy",
      "city": "Samsun",
      "latitude": 41.216158,
      "longitude": 36.45952,
      "dutyStart": "2026-03-06T08:30:00.000Z",
      "dutyEnd": "2026-03-07T08:30:00.000Z"
    },
    {
      "id": "samsun-7",
      "name": "ALAÇAM ECZANESİ",
      "address": "YENİ CAMİ MAH. BAFRA CAD. NO:16/A",
      "phone": "03626220110",
      "district": "Alaçam",
      "city": "Samsun",
      "latitude": 41.607546,
      "longitude": 35.597291,
      "dutyStart": "2026-03-06T08:30:00.000Z",
      "dutyEnd": "2026-03-07T08:30:00.000Z"
    },
    {
      "id": "samsun-8",
      "name": "CEDİT ECZANESİ",
      "address": "BİÇİMCİK MAH.ESEN SOK.NO:11",
      "phone": "03627913256",
      "district": "Asarcık",
      "city": "Samsun",
      "latitude": 41.036344,
      "longitude": 36.225344,
      "dutyStart": "2026-03-06T08:30:00.000Z",
      "dutyEnd": "2026-03-07T08:30:00.000Z"
    },
    {
      "id": "samsun-9",
      "name": "UMUT ECZANESİ",
      "address": "ORHANGAZİ MAH.ATATÜRK BULVARI NO:23/A",
      "phone": "03628114010",
      "district": "Ayvacık",
      "city": "Samsun",
      "latitude": 40.988226,
      "longitude": 36.630657,
      "dutyStart": "2026-03-06T08:30:00.000Z",
      "dutyEnd": "2026-03-07T08:30:00.000Z"
    },
    {
      "id": "samsun-10",
      "name": "MEVLANA ECZANESİ",
      "address": "MEVLANA MAH. YUKARI BAKIRPINAR SOK. NO.20/A",
      "phone": "03625040724",
      "district": "Bafra",
      "city": "Samsun",
      "latitude": 41.567912,
      "longitude": 35.920528,
      "dutyStart": "2026-03-06T08:30:00.000Z",
      "dutyEnd": "2026-03-07T08:30:00.000Z"
    },
    {
      "id": "samsun-11",
      "name": "ÇARŞAMBA  ECZANESİ",
      "address": "ORTA MAH.ŞEHİT AST.SB.TUNCAY KOCABAŞ SOK. CEMİL ŞENSOY KÜLTÜR MERKEZİ ALTI NO:2/B",
      "phone": "03628331130",
      "district": "Çarşamba",
      "city": "Samsun",
      "latitude": 41.199498,
      "longitude": 36.726889,
      "dutyStart": "2026-03-06T08:30:00.000Z",
      "dutyEnd": "2026-03-07T08:30:00.000Z"
    },
    {
      "id": "samsun-12",
      "name": "DENİZ ECZANESİ",
      "address": "ICADIYE MAH KAZIMPASA CAD. NO:6",
      "phone": "03627145443",
      "district": "Havza",
      "city": "Samsun",
      "latitude": 40.96883,
      "longitude": 35.663566,
      "dutyStart": "2026-03-06T08:30:00.000Z",
      "dutyEnd": "2026-03-07T08:30:00.000Z"
    },
    {
      "id": "samsun-13",
      "name": "YAŞARDOĞU ECZANESİ",
      "address": "19 MAYIS MAH. GÜNAY SOKAK NO:2/A",
      "phone": "03627412904",
      "district": "Kavak",
      "city": "Samsun",
      "latitude": 41.073098,
      "longitude": 36.035142,
      "dutyStart": "2026-03-06T08:30:00.000Z",
      "dutyEnd": "2026-03-07T08:30:00.000Z"
    },
    {
      "id": "samsun-14",
      "name": "LADİK ELİF ECZANESİ",
      "address": "BAHŞİ MAH.GAZİ CAD.NO:56/A",
      "phone": "03627713091",
      "district": "Ladik",
      "city": "Samsun",
      "latitude": 40.911071,
      "longitude": 35.894904,
      "dutyStart": "2026-03-06T08:30:00.000Z",
      "dutyEnd": "2026-03-07T08:30:00.000Z"
    },
    {
      "id": "samsun-15",
      "name": "ENGİZ ECZANESİ",
      "address": "PAZAR MAH. FATİH CAD. NO:3",
      "phone": "03625112888",
      "district": "Ondokuzmayıs",
      "city": "Samsun",
      "latitude": 41.494216,
      "longitude": 36.078044,
      "dutyStart": "2026-03-06T08:30:00.000Z",
      "dutyEnd": "2026-03-07T08:30:00.000Z"
    },
    {
      "id": "samsun-16",
      "name": "SEDA ECZANESİ",
      "address": "ORTA MAH. MUSA KÜÇÜKKURT CAD. NO:2/A",
      "phone": "03628213333",
      "district": "Salıpazarı",
      "city": "Samsun",
      "latitude": 41.081211,
      "longitude": 36.825702,
      "dutyStart": "2026-03-06T08:30:00.000Z",
      "dutyEnd": "2026-03-07T08:30:00.000Z"
    },
    {
      "id": "samsun-17",
      "name": "SIHHAT ECZANESİ",
      "address": "ÇAY MAH. ÇAĞLAYAN CAD. NO:5",
      "phone": "03628762760",
      "district": "Terme",
      "city": "Samsun",
      "latitude": 41.207958,
      "longitude": 36.972913,
      "dutyStart": "2026-03-06T08:30:00.000Z",
      "dutyEnd": "2026-03-07T08:30:00.000Z"
    },
    {
      "id": "samsun-18",
      "name": "FAZIL ECZANESİ",
      "address": "FAZIL PAŞA MAH. FAZIL MUSTAFA PAŞA CAD. NO:50/1",
      "phone": "03626470101",
      "district": "Vezirköprü",
      "city": "Samsun",
      "latitude": 41.142133,
      "longitude": 35.461665,
      "dutyStart": "2026-03-06T08:30:00.000Z",
      "dutyEnd": "2026-03-07T08:30:00.000Z"
    },
    {
      "id": "samsun-25",
      "name": "ÖZLEM  ECZANESİ",
      "address": "GÜZELYURT MAH.CUMHURİYET CAD.NO:10/B",
      "phone": "03686712692",
      "district": "Türkeli",
      "city": "Samsun",
      "latitude": 41.946565,
      "longitude": 34.336792,
      "dutyStart": "2026-03-06T08:30:00.000Z",
      "dutyEnd": "2026-03-07T08:30:00.000Z"
    }
  ]
}