{
  "city": "antalya",
  "cityName": "Antalya",
  "cityId": 7,
  "date": "2026-02-26",
  "updatedAt": "2026-02-26T04:01:03.377Z",
  "count": 39,
  "pharmacies": [
    {
      "id": "antalya-0",
      "name": "GÜVENÇ ECZANESİ",
      "address": "",
      "phone": "02422385489",
      "district": "Muratpaşa",
      "city": "Antalya",
      "latitude": 36.8894762303,
      "longitude": 30.6799511909,
      "dutyStart": "2026-02-26T08:00:00.000Z",
      "dutyEnd": "2026-02-27T08:00:00.000Z"
    },
    {
      "id": "antalya-1",
      "name": "GÜNEŞ ECZANESİ",
      "address": "VARLIK MH. KAZIM KARABEKIR. CD. NO: 26/1 EGITIM ARASTIRMA HASTANESI KARS.",
      "phone": "02422423552",
      "district": "Antalya",
      "city": "Antalya",
      "latitude": 36.8944517316,
      "longitude": 30.6925699659,
      "dutyStart": "2026-02-26T08:00:00.000Z",
      "dutyEnd": "2026-02-27T08:00:00.000Z"
    },
    {
      "id": "antalya-2",
      "name": "GAMZEM ECZANESİ",
      "address": "TRT (TONGUÇ) CD. TRT - GÜLLÜK KAVSAGI KENT PASTANESİ KARŞISI",
      "phone": "02429999135",
      "district": "Antalya",
      "city": "Antalya",
      "latitude": 36.89685126907794,
      "longitude": 30.73398470878601,
      "dutyStart": "2026-02-26T08:00:00.000Z",
      "dutyEnd": "2026-02-27T08:00:00.000Z"
    },
    {
      "id": "antalya-3",
      "name": "BOTANİK ECZANESİ",
      "address": "DOĞUYAKA MAH.1216 SOK.NO:7/B MURATPAŞA ( DOĞUYAKA ASM YANI, ASSİM SİVİL TOPLUM MERKEZİ ÇAPRAZI)",
      "phone": "05411600307",
      "district": "Antalya",
      "city": "Antalya",
      "latitude": 36.88884420681893,
      "longitude": 30.712487558988983,
      "dutyStart": "2026-02-26T08:00:00.000Z",
      "dutyEnd": "2026-02-27T08:00:00.000Z"
    },
    {
      "id": "antalya-4",
      "name": "CADDE LARA ECZANESİ",
      "address": "ÇAYBAŞI MAH. CEBESOY CAD. NO.1/81 MURATPAŞA ANTALYA (DOĞRU GARAJI TRAMVAY DURAĞI KARŞISI - DOĞU GARAJI KÜLTÜR VE TİCARET MERKEZİ)",
      "phone": "05464168064",
      "district": "Antalya",
      "city": "Antalya",
      "latitude": 36.85956403626227,
      "longitude": 30.733394342632486,
      "dutyStart": "2026-02-26T08:00:00.000Z",
      "dutyEnd": "2026-02-27T08:00:00.000Z"
    },
    {
      "id": "antalya-5",
      "name": "YENİ FULYA ECZANESİ",
      "address": "ŞİRİNYALI MAH.İSMET GÖKŞEN CAD.43/A MURATPAŞA ANTALYA ADONİS ÇİÇEK TAKSİ KARŞISI AKBANK YANI",
      "phone": "02423165565",
      "district": "Antalya",
      "city": "Antalya",
      "latitude": 36.85170726251558,
      "longitude": 30.756282129839338,
      "dutyStart": "2026-02-26T08:00:00.000Z",
      "dutyEnd": "2026-02-27T08:00:00.000Z"
    },
    {
      "id": "antalya-6",
      "name": "LARA SAĞLIK ECZANESİ",
      "address": "FENER MAH. TEKELİOĞLU CAD. ASTUR CEYLAN SİTESİ C BLOK MURATPAŞA ANTALYA (TERRA CİTY KARŞISI)",
      "phone": "02423170444",
      "district": "Antalya",
      "city": "Antalya",
      "latitude": 36.858785016138846,
      "longitude": 30.790809988975525,
      "dutyStart": "2026-02-26T08:00:00.000Z",
      "dutyEnd": "2026-02-27T08:00:00.000Z"
    },
    {
      "id": "antalya-7",
      "name": "GÖMBE ECZANESİ",
      "address": "GÜZELOBA MAH. 2148 SOK. NO:4/A MURATPAŞA (GÜZELOBA PTT YANTARAFI)",
      "phone": "02423460666",
      "district": "Kepez",
      "city": "Antalya",
      "latitude": 36.90904532887552,
      "longitude": 30.68354483700716,
      "dutyStart": "2026-02-26T08:00:00.000Z",
      "dutyEnd": "2026-02-27T08:00:00.000Z"
    },
    {
      "id": "antalya-8",
      "name": "SAKARYA ECZANESİ",
      "address": "ULUS MAH. RASİH KAPLAN CAD. EVREN BÜFE AŞAĞISI TAHTAKALE KARŞISI - DOKUMA",
      "phone": "02423257232",
      "district": "Antalya",
      "city": "Antalya",
      "latitude": 36.91735,
      "longitude": 30.71485,
      "dutyStart": "2026-02-26T08:00:00.000Z",
      "dutyEnd": "2026-02-27T08:00:00.000Z"
    },
    {
      "id": "antalya-9",
      "name": "EREN ECZANESİ",
      "address": "EMEK MH.YESILIRMAK CD.41/2 SAKARYA PARKI KARSISI SELALE TIP MERKEZI YANI VAN GÖLÜ LOKANTASI KARŞISI",
      "phone": "02423259234",
      "district": "Antalya",
      "city": "Antalya",
      "latitude": 36.9256045643154,
      "longitude": 30.686894389059084,
      "dutyStart": "2026-02-26T08:00:00.000Z",
      "dutyEnd": "2026-02-27T08:00:00.000Z"
    },
    {
      "id": "antalya-10",
      "name": "GÖKHAN ECZANESİ",
      "address": "BARIŞ MAH.GALİP KUŞÇUOĞLU CAD.2906 SOK.NO:18/1 KEPEZ/ANTALYA (24 NOLU BARIŞ ASM ÇAPRAZI)",
      "phone": "02423266767",
      "district": "Antalya",
      "city": "Antalya",
      "latitude": 36.923337589552965,
      "longitude": 30.71434001339913,
      "dutyStart": "2026-02-26T08:00:00.000Z",
      "dutyEnd": "2026-02-27T08:00:00.000Z"
    },
    {
      "id": "antalya-11",
      "name": "ELİF ECZANESİ",
      "address": "MEHMET AKİF ERSOY MAH. YEŞİLIRMAK CAD. NO:48/B KEPEZ (ESKİ ANADOLU REKLAM KARŞI ÇAPRAZI/YEŞİLIRMAK TRAMVAY DURAĞI YAKINI)",
      "phone": "02422273086",
      "district": "Antalya",
      "city": "Antalya",
      "latitude": 36.9038236228,
      "longitude": 30.6617877185,
      "dutyStart": "2026-02-26T08:00:00.000Z",
      "dutyEnd": "2026-02-27T08:00:00.000Z"
    },
    {
      "id": "antalya-12",
      "name": "LEYLA ECZANESİ",
      "address": "KÜLTÜR MAH. YENI ÖGRETMENEVI ARKASI KÜLTÜR SAGLIK OCAGI YANI",
      "phone": "05521528000",
      "district": "Antalya",
      "city": "Antalya",
      "latitude": 36.87680401357433,
      "longitude": 30.625017336263774,
      "dutyStart": "2026-02-26T08:00:00.000Z",
      "dutyEnd": "2026-02-27T08:00:00.000Z"
    },
    {
      "id": "antalya-13",
      "name": "EGE BORA ECZANESİ",
      "address": "ULUÇ MAH.GÜNEYKENT SİTESİ 1155. SOKAK - JET MARKET YANI-CASA LUNA KARŞISI KONYAALTI",
      "phone": "05470330707",
      "district": "Antalya",
      "city": "Antalya",
      "latitude": 36.8724933617,
      "longitude": 30.6409332785,
      "dutyStart": "2026-02-26T08:00:00.000Z",
      "dutyEnd": "2026-02-27T08:00:00.000Z"
    },
    {
      "id": "antalya-14",
      "name": "UZMAN ECZANESİ",
      "address": "ÖGRETMENEVLERI MAH. 924 SK. AKIN APT. 4 / 3 CANET ARKASI KONYAALTI",
      "phone": "02424214480",
      "district": "Antalya",
      "city": "Antalya",
      "latitude": 37.03464215553515,
      "longitude": 30.603095591068268,
      "dutyStart": "2026-02-26T08:00:00.000Z",
      "dutyEnd": "2026-02-27T08:00:00.000Z"
    },
    {
      "id": "antalya-15",
      "name": "GÜZELYURT ECZANESİ",
      "address": "ÖZEL ŞELALE TERMESSOS HASTANESİ KARŞISI .YENİKÖY MAH.74.SOKAK.NO:55/2-3 DÖŞEMEALTI .",
      "phone": "02424631045",
      "district": "Aksu",
      "city": "Antalya",
      "latitude": 36.936442166230925,
      "longitude": 30.81950694322586,
      "dutyStart": "2026-02-26T08:00:00.000Z",
      "dutyEnd": "2026-02-27T08:00:00.000Z"
    },
    {
      "id": "antalya-16",
      "name": "KÜBRA ECZANESİ",
      "address": "GÜZELYURT MAH. SH. ER MUSTAFA GÖKTÜRK CAD. NO:16/A",
      "phone": "02425136567",
      "district": "Alanya",
      "city": "Antalya",
      "latitude": 36.546473451059335,
      "longitude": 31.99457935988903,
      "dutyStart": "2026-02-26T08:00:00.000Z",
      "dutyEnd": "2026-02-27T08:00:00.000Z"
    },
    {
      "id": "antalya-17",
      "name": "CEREN ECZANESİ",
      "address": "SARAY MAH. BAŞKENT SOK.NO:24D BAŞKENT HASTANESİ ACİL KARŞISI ALANYA ANTALYA",
      "phone": "02425171881",
      "district": "Antalya",
      "city": "Antalya",
      "latitude": 36.547424468553956,
      "longitude": 32.014140216891796,
      "dutyStart": "2026-02-26T08:00:00.000Z",
      "dutyEnd": "2026-02-27T08:00:00.000Z"
    },
    {
      "id": "antalya-18",
      "name": "AY ECZANESİ",
      "address": "GÜLLEPINARI MAH. HASAN AKÇALIOĞLU CAD. 51/A ALANYA ANTALYA",
      "phone": "02425151718",
      "district": "Antalya",
      "city": "Antalya",
      "latitude": 36.54709134245772,
      "longitude": 32.02662169933319,
      "dutyStart": "2026-02-26T08:00:00.000Z",
      "dutyEnd": "2026-02-27T08:00:00.000Z"
    },
    {
      "id": "antalya-19",
      "name": "BURCU AYDOĞDU ECZANESİ",
      "address": "CİKCİLLİ MEYDAN PAZARI GİRİŞİ 5M MİGROS KARŞISI",
      "phone": "02425285800",
      "district": "Antalya",
      "city": "Antalya",
      "latitude": 36.48159900855206,
      "longitude": 32.103070013175135,
      "dutyStart": "2026-02-26T08:00:00.000Z",
      "dutyEnd": "2026-02-27T08:00:00.000Z"
    },
    {
      "id": "antalya-20",
      "name": "ÇAĞRICI ECZANESİ",
      "address": "MAHMUTLAR MAH.BARBAROS CAD.NO:136 A/B ALANYA (CANTAŞ YAPI MALZEMELERİ ÇAPRAZI)",
      "phone": "02425653771",
      "district": "Antalya",
      "city": "Antalya",
      "latitude": 36.59225352347388,
      "longitude": 31.868162155151367,
      "dutyStart": "2026-02-26T08:00:00.000Z",
      "dutyEnd": "2026-02-27T08:00:00.000Z"
    },
    {
      "id": "antalya-21",
      "name": "ÖZYILMAZ ECZANESİ",
      "address": "KONAKLI MAH. KEMAL ATLI SEMT POLİKLİNİĞİ ARKASI - YAVUZ ELEKTRİK YANI KONAKLI/ALANYA",
      "phone": "05432958707",
      "district": "Manavgat",
      "city": "Antalya",
      "latitude": 36.80512,
      "longitude": 31.423282,
      "dutyStart": "2026-02-26T08:00:00.000Z",
      "dutyEnd": "2026-02-27T08:00:00.000Z"
    },
    {
      "id": "antalya-22",
      "name": "GAMZE KÜÇÜK ECZANESİ",
      "address": "SARILAR MAH.MUHİTTİN ERSOY BUL.NO:54/A (ECE DÜĞÜN SALONU YANI)",
      "phone": "02427460704",
      "district": "Antalya",
      "city": "Antalya",
      "latitude": 36.793726,
      "longitude": 31.441053,
      "dutyStart": "2026-02-26T08:00:00.000Z",
      "dutyEnd": "2026-02-27T08:00:00.000Z"
    },
    {
      "id": "antalya-23",
      "name": "CELAL KOÇ ECZANESİ",
      "address": "ÇAĞLAYAN MAH.HASTANE CAD.NO:54/B MANAVGAT/ANTALYA",
      "phone": "02426433900",
      "district": "Antalya",
      "city": "Antalya",
      "latitude": 37.06605461147729,
      "longitude": 30.19767165184021,
      "dutyStart": "2026-02-26T08:00:00.000Z",
      "dutyEnd": "2026-02-27T08:00:00.000Z"
    },
    {
      "id": "antalya-24",
      "name": "GÜÇLÜ ECZANESİ",
      "address": "YENİ DEVLET HASTANESİ KARŞISI KORKUTELİ",
      "phone": "02426186143",
      "district": "Antalya",
      "city": "Antalya",
      "latitude": 36.73178070559058,
      "longitude": 29.93823221297925,
      "dutyStart": "2026-02-26T08:00:00.000Z",
      "dutyEnd": "2026-02-27T08:00:00.000Z"
    },
    {
      "id": "antalya-25",
      "name": "ÜLKE ECZANESİ",
      "address": "YENİ MAH. ELMALILI MUHAMMED HAMDİ YAZIR BUL. NO:106/C ELMALI",
      "phone": "02428361402",
      "district": "Kaş",
      "city": "Antalya",
      "latitude": 36.1998641277,
      "longitude": 29.6398045162,
      "dutyStart": "2026-02-26T08:00:00.000Z",
      "dutyEnd": "2026-02-27T08:00:00.000Z"
    },
    {
      "id": "antalya-26",
      "name": "DOĞA ECZANESİ",
      "address": "ATATÜRK BULV. NO:11/A KAS",
      "phone": "02428441138",
      "district": "Antalya",
      "city": "Antalya",
      "latitude": 36.2666521677,
      "longitude": 29.4135029171,
      "dutyStart": "2026-02-26T08:00:00.000Z",
      "dutyEnd": "2026-02-27T08:00:00.000Z"
    },
    {
      "id": "antalya-27",
      "name": "OVA ECZANESİ",
      "address": "MENTESE MH. SEHITLER CD. NO:35 KALKAN",
      "phone": "02428418389",
      "district": "Antalya",
      "city": "Antalya",
      "latitude": 36.306457189630535,
      "longitude": 29.329155504968874,
      "dutyStart": "2026-02-26T08:00:00.000Z",
      "dutyEnd": "2026-02-27T08:00:00.000Z"
    },
    {
      "id": "antalya-28",
      "name": "KAYAK ECZANESİ",
      "address": "OVA MAH.KAŞ",
      "phone": "02428712811",
      "district": "Antalya",
      "city": "Antalya",
      "latitude": 36.23987102448361,
      "longitude": 29.988484952943136,
      "dutyStart": "2026-02-26T08:00:00.000Z",
      "dutyEnd": "2026-02-27T08:00:00.000Z"
    },
    {
      "id": "antalya-29",
      "name": "TEKİN ECZANESİ",
      "address": "GÖLYAZI MAH. ERTUĞRUL GÜNEY CAD. NO:19/B DEMRE DEMPA MARKET YANI",
      "phone": "02428551022",
      "district": "Antalya",
      "city": "Antalya",
      "latitude": 36.297125,
      "longitude": 30.144532,
      "dutyStart": "2026-02-26T08:00:00.000Z",
      "dutyEnd": "2026-02-27T08:00:00.000Z"
    },
    {
      "id": "antalya-30",
      "name": "HAMİT ÇOBAN ECZANESİ",
      "address": "ESKİ MAH. ATATÜRK CAD. NO:41 FİNİKE ANTALYA",
      "phone": "02428522099",
      "district": "Antalya",
      "city": "Antalya",
      "latitude": 36.36500808799812,
      "longitude": 30.1334810256958,
      "dutyStart": "2026-02-26T08:00:00.000Z",
      "dutyEnd": "2026-02-27T08:00:00.000Z"
    },
    {
      "id": "antalya-31",
      "name": "HASYURT ECZANESİ",
      "address": "**(GECE SAAT 23.59'A KADAR AÇIK)**",
      "phone": "02428657810",
      "district": "Antalya",
      "city": "Antalya",
      "latitude": 36.337875454424115,
      "longitude": 30.214805603027344,
      "dutyStart": "2026-02-26T08:00:00.000Z",
      "dutyEnd": "2026-02-27T08:00:00.000Z"
    },
    {
      "id": "antalya-32",
      "name": "BURCU ECZANESİ",
      "address": "**(GECE SAAT 23.59'A KADAR AÇIK)**",
      "phone": "02428870380",
      "district": "Kumluca",
      "city": "Antalya",
      "latitude": 36.36296914865996,
      "longitude": 30.286388397216797,
      "dutyStart": "2026-02-26T08:00:00.000Z",
      "dutyEnd": "2026-02-27T08:00:00.000Z"
    },
    {
      "id": "antalya-33",
      "name": "MESUT ECZANESİ",
      "address": "KASAPÇAYIRI MH. KANUNI SK. NO:18/A",
      "phone": "02428144676",
      "district": "Kemer",
      "city": "Antalya",
      "latitude": 36.6150582997278,
      "longitude": 30.55024266242981,
      "dutyStart": "2026-02-26T08:00:00.000Z",
      "dutyEnd": "2026-02-27T08:00:00.000Z"
    },
    {
      "id": "antalya-34",
      "name": "AYLİN ECZANESİ",
      "address": "Yeni Devlet Hastanesi Yani ( Antalya-Mugla Karayolu üstü )",
      "phone": "02427222820",
      "district": "Antalya",
      "city": "Antalya",
      "latitude": 36.91924188674754,
      "longitude": 31.117411851882935,
      "dutyStart": "2026-02-26T08:00:00.000Z",
      "dutyEnd": "2026-02-27T08:00:00.000Z"
    },
    {
      "id": "antalya-35",
      "name": "MAGO ECZANESİ",
      "address": "(DİŞ HASTANESİ YANI) YENİ MAH. GÜLSÜN-SÜLEYMAN SÜRAL CAD. 4079 SOKAK. NO:24/Z 102 SERİK",
      "phone": "05321715770",
      "district": "Antalya",
      "city": "Antalya",
      "latitude": 36.861383159911725,
      "longitude": 31.056355566201137,
      "dutyStart": "2026-02-26T08:00:00.000Z",
      "dutyEnd": "2026-02-27T08:00:00.000Z"
    },
    {
      "id": "antalya-36",
      "name": "BAŞARAN ECZANESİ",
      "address": "*(GECE SAAT 02:00'A KADAR AÇIK)* BELEK MAH. BELEK CAD. 27 SOK. NO:1/1 SERİK/ANTALYA",
      "phone": "02425722426",
      "district": "Antalya",
      "city": "Antalya",
      "latitude": 36.272420148803455,
      "longitude": 32.30950355529785,
      "dutyStart": "2026-02-26T08:00:00.000Z",
      "dutyEnd": "2026-02-27T08:00:00.000Z"
    },
    {
      "id": "antalya-37",
      "name": "MURTİÇİ ECZANESİ",
      "address": "CUMHURIYET MAH. HASTANE CAD. NO:10/A",
      "phone": "02426781300",
      "district": "Akseki",
      "city": "Antalya",
      "latitude": 37.042264199329665,
      "longitude": 31.786279678344727,
      "dutyStart": "2026-02-26T08:00:00.000Z",
      "dutyEnd": "2026-02-27T08:00:00.000Z"
    },
    {
      "id": "antalya-38",
      "name": "0 242 311 03 29",
      "address": "HACI ILYAS MAH. ATATÜRK CAD. BAGKUR EVLERI I-BLOK NO.58/A",
      "phone": "02423110329",
      "district": "Antalya",
      "city": "Antalya",
      "latitude": 36.876696,
      "longitude": 30.735134,
      "dutyStart": "2026-02-26T08:00:00.000Z",
      "dutyEnd": "2026-02-27T08:00:00.000Z"
    }
  ]
}