{
  "city": "gaziantep",
  "cityName": "Gaziantep",
  "cityId": 27,
  "date": "2026-02-26",
  "updatedAt": "2026-02-26T07:30:59.082Z",
  "count": 21,
  "pharmacies": [
    {
      "id": "gaziantep-0",
      "name": "SİNANOĞLU ECZANESİ",
      "address": "Şahveli mahallesi 8007 Nolu sok no : 4L (Şahinbey ağiz ve diş hastanesi arkası)",
      "phone": "03422505051",
      "district": "Şahi̇nbey",
      "city": "Gaziantep",
      "latitude": 37.059284,
      "longitude": 37.378422,
      "dutyStart": "2026-02-26T08:30:00.000Z",
      "dutyEnd": "2026-02-27T08:30:00.000Z"
    },
    {
      "id": "gaziantep-1",
      "name": "ARPAT ECZANESI",
      "address": "75.YIL MAH.140 NOLU CAD.52 NOLU SOK.NO:9/A(YEŞİLEVLER CAMİİ KARŞISI)",
      "phone": "03423368038",
      "district": "Şahi̇nbey",
      "city": "Gaziantep",
      "latitude": 37.041698,
      "longitude": 37.349453,
      "dutyStart": "2026-02-26T08:30:00.000Z",
      "dutyEnd": "2026-02-27T08:30:00.000Z"
    },
    {
      "id": "gaziantep-2",
      "name": "ÇİMEN ECZANESİ",
      "address": "Bozoklar Mah. 177 No.lu Cad.No:24/B(Perilikaya Sağlık Karşısı)",
      "phone": "03422254092",
      "district": "Şahi̇nbey",
      "city": "Gaziantep",
      "latitude": 37.05032,
      "longitude": 37.411373,
      "dutyStart": "2026-02-26T08:30:00.000Z",
      "dutyEnd": "2026-02-27T08:30:00.000Z"
    },
    {
      "id": "gaziantep-3",
      "name": "ERÇELEBİ ECZANESİ",
      "address": "Binevler Mahallesi Üniversite Bulvarı No:162/A (Akademi Hastanesi Yanı)",
      "phone": "03423380010",
      "district": "Şahi̇nbey",
      "city": "Gaziantep",
      "latitude": 37.0526,
      "longitude": 37.3335929,
      "dutyStart": "2026-02-26T08:30:00.000Z",
      "dutyEnd": "2026-02-27T08:30:00.000Z"
    },
    {
      "id": "gaziantep-4",
      "name": "DEMİR ECZANESİ",
      "address": "İbn-i sina mah.190011 nolu cadde Başakevler sitesi no:1DB (Şehir hastanesi acil kapısı karşısı)",
      "phone": "03423320032",
      "district": "Şahi̇nbey",
      "city": "Gaziantep",
      "latitude": 37.066132,
      "longitude": 37.36187,
      "dutyStart": "2026-02-26T08:30:00.000Z",
      "dutyEnd": "2026-02-27T08:30:00.000Z"
    },
    {
      "id": "gaziantep-5",
      "name": "NARİN ECZANESİ",
      "address": "Yeditepe Mahallesi Adnan Menderes Bulvarı No: 89/A (Özel Defa Life Hastanesi çaprazı, Özgecan Yüzme Havuz yukarısı, Erdem Koleji yakını, 13. Noter yanı)",
      "phone": "03429991220",
      "district": "Şahi̇nbey",
      "city": "Gaziantep",
      "latitude": 37.026542,
      "longitude": 37.332576,
      "dutyStart": "2026-02-26T08:30:00.000Z",
      "dutyEnd": "2026-02-27T08:30:00.000Z"
    },
    {
      "id": "gaziantep-6",
      "name": "YENİ KOZANLI ECZANESİ",
      "address": "Gaziantep Üniversitesi Hastanesi Poliklinik Karşısı",
      "phone": "05325074597",
      "district": "Şahi̇nbey",
      "city": "Gaziantep",
      "latitude": 37.041698,
      "longitude": 37.322735,
      "dutyStart": "2026-02-26T08:30:00.000Z",
      "dutyEnd": "2026-02-27T08:30:00.000Z"
    },
    {
      "id": "gaziantep-7",
      "name": "ARZIK ECZANESİ",
      "address": "ERTUĞRUL GAZİ MAH. SU YOLU CAD. NO:157 /H (KARATAŞ GÜNEŞ MAH. YOLU ÜZERİ, CERGİBOZANLAR ÇAPRAZI ) (ALPET PETROLDEN 300 METRE SONRA)",
      "phone": "05303936959",
      "district": "Şahi̇nbey",
      "city": "Gaziantep",
      "latitude": 37.027484,
      "longitude": 37.351318,
      "dutyStart": "2026-02-26T08:30:00.000Z",
      "dutyEnd": "2026-02-27T08:30:00.000Z"
    },
    {
      "id": "gaziantep-8",
      "name": "İREM ECZANESI",
      "address": "Mücahitler Mah.Gazimuhtarpaşa Bul.No:5 (Eski Primer Hastanesi Karşısı)",
      "phone": "03423242122",
      "district": "Şehi̇tkami̇l",
      "city": "Gaziantep",
      "latitude": 37.076019,
      "longitude": 37.369801,
      "dutyStart": "2026-02-26T08:30:00.000Z",
      "dutyEnd": "2026-02-27T08:30:00.000Z"
    },
    {
      "id": "gaziantep-9",
      "name": "GÜREL ECZANESİ",
      "address": "Doktorlar Sitesi Altı N:64 (Çetinkaya Karşısı) 3258998",
      "phone": "05323679755",
      "district": "Şehi̇tkami̇l",
      "city": "Gaziantep",
      "latitude": 37.072311,
      "longitude": 37.366299,
      "dutyStart": "2026-02-26T08:30:00.000Z",
      "dutyEnd": "2026-02-27T08:30:00.000Z"
    },
    {
      "id": "gaziantep-10",
      "name": "İZMİR ECZANESİ",
      "address": "Pancarlı Mahallesi 58103 Nolu Sokak No:17/B (Final Okullarının Yanı ) Şehitkamil/GAZİANTEP",
      "phone": "05520819335",
      "district": "Şehi̇tkami̇l",
      "city": "Gaziantep",
      "latitude": 37.079568,
      "longitude": 37.35142,
      "dutyStart": "2026-02-26T08:30:00.000Z",
      "dutyEnd": "2026-02-27T08:30:00.000Z"
    },
    {
      "id": "gaziantep-11",
      "name": "GÜLŞEN ÇAYIRLI ECZANESİ",
      "address": "Osmangazi mah. Ahmet sireci bulvarı no:12/A (Metro Arkası Balkon Cafe ilerisi)",
      "phone": "03423214210",
      "district": "Şehi̇tkami̇l",
      "city": "Gaziantep",
      "latitude": 37.074059,
      "longitude": 37.3507,
      "dutyStart": "2026-02-26T08:30:00.000Z",
      "dutyEnd": "2026-02-27T08:30:00.000Z"
    },
    {
      "id": "gaziantep-12",
      "name": "AYDAN ECZANESİ",
      "address": "Yeni Mah. 43 Nolu Sok No:9 (Çıksorut ASM Karşısı-Güven Polis Karakolu-Fatih Cami Cıvarı)",
      "phone": "03422256667",
      "district": "Şehi̇tkami̇l",
      "city": "Gaziantep",
      "latitude": 37.067139,
      "longitude": 37.40168,
      "dutyStart": "2026-02-26T08:30:00.000Z",
      "dutyEnd": "2026-02-27T08:30:00.000Z"
    },
    {
      "id": "gaziantep-13",
      "name": "SEHER ECZANESİ",
      "address": "Özgürlük Mah. 68 Nolu Sok No:52 (Şehitkamil Dev.Hast.Civ.-Özgürlük Uzay Çatı Yanı)",
      "phone": "03423249049",
      "district": "Şehi̇tkami̇l",
      "city": "Gaziantep",
      "latitude": 37.089851,
      "longitude": 37.36808,
      "dutyStart": "2026-02-26T08:30:00.000Z",
      "dutyEnd": "2026-02-27T08:30:00.000Z"
    },
    {
      "id": "gaziantep-14",
      "name": "ŞEBNEM ECZANESİ",
      "address": "Karacaahmet Mahallesi 38008 Nolu Sokak No:2/A ( şehitkamil nikah salonu çarpraz karşısı)",
      "phone": "05308191097",
      "district": "Şehi̇tkami̇l",
      "city": "Gaziantep",
      "latitude": 37.097279,
      "longitude": 37.39159,
      "dutyStart": "2026-02-26T08:30:00.000Z",
      "dutyEnd": "2026-02-27T08:30:00.000Z"
    },
    {
      "id": "gaziantep-15",
      "name": "ANADOLU ECZANESİ",
      "address": "F.SULTAN MAH. HASTANE CAD. NO:28/B",
      "phone": "03425178130",
      "district": "Ni̇zi̇p",
      "city": "Gaziantep",
      "latitude": 37.01027434562284,
      "longitude": 37.79970339552301,
      "dutyStart": "2026-02-26T08:30:00.000Z",
      "dutyEnd": "2026-02-27T08:30:00.000Z"
    },
    {
      "id": "gaziantep-16",
      "name": "MURAT ECZANESİ",
      "address": "TURGUT ÖZAL MAHALLESİ CEZAEVİ CADDESİ NO:39/E",
      "phone": "03426112243",
      "district": "Araban",
      "city": "Gaziantep",
      "latitude": 37.418968,
      "longitude": 37.682264,
      "dutyStart": "2026-02-26T08:30:00.000Z",
      "dutyEnd": "2026-02-27T08:30:00.000Z"
    },
    {
      "id": "gaziantep-17",
      "name": "MERVE YEŞİL ECZANESİ",
      "address": "Yeşildere Mahallesi Salih Tanyeri Caddesi No:40/B",
      "phone": "03425834340",
      "district": "Oğuzeli̇",
      "city": "Gaziantep",
      "latitude": 36.980835,
      "longitude": 37.500508,
      "dutyStart": "2026-02-26T08:30:00.000Z",
      "dutyEnd": "2026-02-27T08:30:00.000Z"
    },
    {
      "id": "gaziantep-18",
      "name": "NUR ECZANESİ",
      "address": "Dervişpaşa mahallesi şehit zafer yılmaz cad. Talay inşaat 4A B blok no30 (Doğmar karşısında şok market yanı Eski sebze pazarın yeri)",
      "phone": "05366870145",
      "district": "İslahi̇ye",
      "city": "Gaziantep",
      "latitude": 37.06675232813354,
      "longitude": 37.38321304321289,
      "dutyStart": "2026-02-26T08:30:00.000Z",
      "dutyEnd": "2026-02-27T08:30:00.000Z"
    },
    {
      "id": "gaziantep-19",
      "name": "YİĞİT ECZANESİ",
      "address": "BAHÇELİEVLER MAHALLESİ HİLMİ KUTLUBAY CADDESİ NO:51/39",
      "phone": "03426713000",
      "district": "Nurdaği",
      "city": "Gaziantep",
      "latitude": 37.06675232813354,
      "longitude": 37.38321304321289,
      "dutyStart": "2026-02-26T08:30:00.000Z",
      "dutyEnd": "2026-02-27T08:30:00.000Z"
    },
    {
      "id": "gaziantep-20",
      "name": "KÜNDEŞ ECZANESİ",
      "address": "Sultan Selim Mah. Araban Caddesi No:56/2D",
      "phone": "05434606056",
      "district": "Yavuzeli̇",
      "city": "Gaziantep",
      "latitude": 37.06675232813354,
      "longitude": 37.38321304321289,
      "dutyStart": "2026-02-26T08:30:00.000Z",
      "dutyEnd": "2026-02-27T08:30:00.000Z"
    }
  ]
}