{
  "city": "izmir",
  "cityName": "İzmir",
  "cityId": 35,
  "date": "2026-02-26",
  "updatedAt": "2026-02-26T15:30:55.956Z",
  "count": 73,
  "pharmacies": [
    {
      "id": "izmir-0-4",
      "name": "YENİ TUNCAY ECZANESİ",
      "address": "TUNA MAH. FAZIL PAŞA CAD. NO:35/A KOŞUKAVAK",
      "phone": "02324356177",
      "district": "ALTINDAĞ",
      "city": "İzmir",
      "latitude": 38.428346,
      "longitude": 27.192712,
      "dutyStart": "2026-02-26T08:00:00.000Z",
      "dutyEnd": "2026-02-27T08:00:00.000Z"
    },
    {
      "id": "izmir-1-6",
      "name": "ILAYDA ECZANESİ",
      "address": "ONUR MH. ATA CD. NO:92/B",
      "phone": "02322481422",
      "district": "BALÇOVA",
      "city": "İzmir",
      "latitude": 38.389804,
      "longitude": 27.058115,
      "dutyStart": "2026-02-26T08:00:00.000Z",
      "dutyEnd": "2026-02-27T08:00:00.000Z"
    },
    {
      "id": "izmir-2-7",
      "name": "YENI AKIN ECZANESİ",
      "address": "POLAT CAD. NO:89/A YESILYURT",
      "phone": "02322449805",
      "district": "BASIN SİTESİ",
      "city": "İzmir",
      "latitude": 38.396696,
      "longitude": 27.105686,
      "dutyStart": "2026-02-26T08:00:00.000Z",
      "dutyEnd": "2026-02-27T08:00:00.000Z"
    },
    {
      "id": "izmir-3-9",
      "name": "YÜCEL ECZANESİ",
      "address": "FUAT EDİP BAKSİ MH. 1611 SK. NO:13/B",
      "phone": "02323410061",
      "district": "BAYRAKLI",
      "city": "İzmir",
      "latitude": 38.46634,
      "longitude": 27.164664,
      "dutyStart": "2026-02-26T08:00:00.000Z",
      "dutyEnd": "2026-02-27T08:00:00.000Z"
    },
    {
      "id": "izmir-4-10",
      "name": "BÜYÜK ÇARŞI ECZANESİ",
      "address": "ERGENE MAH. 538 SOK. NO:21",
      "phone": "02323434323",
      "district": "BORNOVA 1",
      "city": "İzmir",
      "latitude": 38.466911,
      "longitude": 27.21875,
      "dutyStart": "2026-02-26T08:00:00.000Z",
      "dutyEnd": "2026-02-27T08:00:00.000Z"
    },
    {
      "id": "izmir-5-11",
      "name": "YEŞİL ECZANESİ",
      "address": "KAZIM DİRİK MAH. ANKARA CAD. NO:237/1B",
      "phone": "02323881895",
      "district": "BORNOVA 2",
      "city": "İzmir",
      "latitude": 38.458756,
      "longitude": 27.209818,
      "dutyStart": "2026-02-26T08:00:00.000Z",
      "dutyEnd": "2026-02-27T08:00:00.000Z"
    },
    {
      "id": "izmir-6-12",
      "name": "SEÇKIN ECZANESİ",
      "address": "273 SOK.NO:10/C BAYRAKLI",
      "phone": "02323481083",
      "district": "BORNOVA 3",
      "city": "İzmir",
      "latitude": 38.458574,
      "longitude": 27.190881,
      "dutyStart": "2026-02-26T08:00:00.000Z",
      "dutyEnd": "2026-02-27T08:00:00.000Z"
    },
    {
      "id": "izmir-7-14",
      "name": "RÜMEYSA HARMAN ECZANESİ",
      "address": "BOZYAKA MAH. ESKİİZMİR CAD. NO:205/A",
      "phone": "02322566687",
      "district": "BOZYAKA",
      "city": "İzmir",
      "latitude": 38.391207,
      "longitude": 27.124923,
      "dutyStart": "2026-02-26T08:00:00.000Z",
      "dutyEnd": "2026-02-27T08:00:00.000Z"
    },
    {
      "id": "izmir-8-15",
      "name": "TUNALI CEREN ECZANESİ",
      "address": "KOZAĞAÇ MAH. 223 SOK. NO:45",
      "phone": "02324822878",
      "district": "BUCA 1",
      "city": "İzmir",
      "latitude": 38.381574,
      "longitude": 27.172786,
      "dutyStart": "2026-02-26T08:00:00.000Z",
      "dutyEnd": "2026-02-27T08:00:00.000Z"
    },
    {
      "id": "izmir-9-16",
      "name": "ÇAMDİBİ SAĞLIK ECZANESİ",
      "address": "BARBAROS MH. 5311 SK. NO:24",
      "phone": "02323760904",
      "district": "ÇAMDİBİ",
      "city": "İzmir",
      "latitude": 38.435886,
      "longitude": 27.187736,
      "dutyStart": "2026-02-26T08:00:00.000Z",
      "dutyEnd": "2026-02-27T08:00:00.000Z"
    },
    {
      "id": "izmir-10-17",
      "name": "EGECAN ECZANESİ",
      "address": "8034 SOKAK NO:53/A",
      "phone": "02323760806",
      "district": "ÇİĞLİ",
      "city": "İzmir",
      "latitude": 38.496026,
      "longitude": 27.055788,
      "dutyStart": "2026-02-26T08:00:00.000Z",
      "dutyEnd": "2026-02-27T08:00:00.000Z"
    },
    {
      "id": "izmir-11-17",
      "name": "ATIL ECZANESİ",
      "address": "ISTASYON ALTI MAH. 8258/2 SOKAK NO:2/C    ÇIGLI-IZMIR",
      "phone": "02323942030",
      "district": "ÇİĞLİ",
      "city": "İzmir",
      "latitude": 38.486607,
      "longitude": 27.062953,
      "dutyStart": "2026-02-26T08:00:00.000Z",
      "dutyEnd": "2026-02-27T08:00:00.000Z"
    },
    {
      "id": "izmir-12-17",
      "name": "DEMİR ECZANESİ",
      "address": "UĞUR MUMCU MAH. 8790/5 SOK. NO:132/B",
      "phone": "02325114446",
      "district": "ÇİĞLİ",
      "city": "İzmir",
      "latitude": 38.52636,
      "longitude": 27.04681,
      "dutyStart": "2026-02-26T08:00:00.000Z",
      "dutyEnd": "2026-02-27T08:00:00.000Z"
    },
    {
      "id": "izmir-13-19",
      "name": "ÖZDEMİR ECZANESİ",
      "address": "İNÖNÜ MH. 2001 SK.NO:4/B",
      "phone": "02327121199",
      "district": "ÇEŞME",
      "city": "İzmir",
      "latitude": 38.324647,
      "longitude": 26.303452,
      "dutyStart": "2026-02-26T08:00:00.000Z",
      "dutyEnd": "2026-02-27T08:00:00.000Z"
    },
    {
      "id": "izmir-14-19",
      "name": "KARABİNA ECZANESİ",
      "address": "ALAÇATI MH. ATATÜRK CD. NO:27/AB",
      "phone": "02327167494",
      "district": "ÇEŞME",
      "city": "İzmir",
      "latitude": 38.288434,
      "longitude": 26.376097,
      "dutyStart": "2026-02-26T08:00:00.000Z",
      "dutyEnd": "2026-02-27T08:00:00.000Z"
    },
    {
      "id": "izmir-15-20",
      "name": "YENI SIMAY ECZANESİ",
      "address": "ESREFPASA CAD. NO:290/A KONAK",
      "phone": "02322566674",
      "district": "EŞREFPAŞA ",
      "city": "İzmir",
      "latitude": 38.407887,
      "longitude": 27.128213,
      "dutyStart": "2026-02-26T08:00:00.000Z",
      "dutyEnd": "2026-02-27T08:00:00.000Z"
    },
    {
      "id": "izmir-16-22",
      "name": "GEÇIT ECZANESİ",
      "address": "9 EYLÜL MH. ÖNDER CD. NO:48/A",
      "phone": "02322510085",
      "district": "GAZİEMİR",
      "city": "İzmir",
      "latitude": 38.32577,
      "longitude": 27.138321,
      "dutyStart": "2026-02-26T08:00:00.000Z",
      "dutyEnd": "2026-02-27T08:00:00.000Z"
    },
    {
      "id": "izmir-17-25",
      "name": "YENİ ZEYTİNLİK ECZANESİ",
      "address": "LEVENT MAH. BARBAROS HAYRETTİN PAŞA CAD. NO:12/A",
      "phone": "02324330707",
      "district": "GÜLTEPE",
      "city": "İzmir",
      "latitude": 38.419611,
      "longitude": 27.167068,
      "dutyStart": "2026-02-26T08:00:00.000Z",
      "dutyEnd": "2026-02-27T08:00:00.000Z"
    },
    {
      "id": "izmir-18-26",
      "name": "YENİ CEREN ECZANESİ",
      "address": "ONUR MAH. 7371 SOK. NO:46/A",
      "phone": "02323630006",
      "district": "GÜMÜŞPALA",
      "city": "İzmir",
      "latitude": 38.484027,
      "longitude": 27.134004,
      "dutyStart": "2026-02-26T08:00:00.000Z",
      "dutyEnd": "2026-02-27T08:00:00.000Z"
    },
    {
      "id": "izmir-19-28",
      "name": "ÖZ ÖZKAN ECZANESİ",
      "address": "ATATÜRK MAH. NAMIK KEMAL CAD. NO:8/A GÜZELBAHÇE/IZMIR",
      "phone": "02322345262",
      "district": "GÜZELBAHÇE",
      "city": "İzmir",
      "latitude": 38.358973,
      "longitude": 26.887027,
      "dutyStart": "2026-02-26T08:00:00.000Z",
      "dutyEnd": "2026-02-27T08:00:00.000Z"
    },
    {
      "id": "izmir-20-31",
      "name": "YENI UMUT ECZANESİ",
      "address": "MITHATPASA CAD. NO:271/K BALÇOVA",
      "phone": "02322598888",
      "district": "İNCİRALTI",
      "city": "İzmir",
      "latitude": 38.393637,
      "longitude": 27.036236,
      "dutyStart": "2026-02-26T08:00:00.000Z",
      "dutyEnd": "2026-02-27T08:00:00.000Z"
    },
    {
      "id": "izmir-21-32",
      "name": "IHLAMUR ECZANESİ",
      "address": "AYDIN MH. 4276 SK. NO:44",
      "phone": "02322102060",
      "district": "KARABAĞLAR",
      "city": "İzmir",
      "latitude": 38.368145,
      "longitude": 27.132746,
      "dutyStart": "2026-02-26T08:00:00.000Z",
      "dutyEnd": "2026-02-27T08:00:00.000Z"
    },
    {
      "id": "izmir-22-37",
      "name": "ARI ECZANESİ",
      "address": "ILICA MAH. MİTHATPAŞA CAD. NO:28/B",
      "phone": "02322397777",
      "district": "NARLIDERE",
      "city": "İzmir",
      "latitude": 38.393347,
      "longitude": 27.02095,
      "dutyStart": "2026-02-26T08:00:00.000Z",
      "dutyEnd": "2026-02-27T08:00:00.000Z"
    },
    {
      "id": "izmir-23-39",
      "name": "YILMAZ ECZANESİ",
      "address": "PINARBASI MEYD. NO:8/A",
      "phone": "02324790022",
      "district": "PINARBAŞI",
      "city": "İzmir",
      "latitude": 38.427995,
      "longitude": 27.266125,
      "dutyStart": "2026-02-26T08:00:00.000Z",
      "dutyEnd": "2026-02-27T08:00:00.000Z"
    },
    {
      "id": "izmir-24-42",
      "name": "ECZANE BADE ECZANESİ",
      "address": "KILIÇ REİS MH. ŞEHİT KEMAL KESER SK. NO:52/C",
      "phone": "02322615557",
      "district": "ÜÇYOL",
      "city": "İzmir",
      "latitude": 38.406814,
      "longitude": 27.119418,
      "dutyStart": "2026-02-26T08:00:00.000Z",
      "dutyEnd": "2026-02-27T08:00:00.000Z"
    },
    {
      "id": "izmir-25-43",
      "name": "HALK ECZANESİ",
      "address": "GAZİLER CAD.1254 SOK.NO:2/AKAPILAR",
      "phone": "02324849144",
      "district": "YENİŞEHİR",
      "city": "İzmir",
      "latitude": 38.42203,
      "longitude": 27.148829,
      "dutyStart": "2026-02-26T08:00:00.000Z",
      "dutyEnd": "2026-02-27T08:00:00.000Z"
    },
    {
      "id": "izmir-26-44",
      "name": "BEHNAZ ECZANESİ",
      "address": "KAZIM KARABEKİR MAH. YILDIZ CAD. NO:99-103A",
      "phone": "02322505464",
      "district": "YEŞİLYURT",
      "city": "İzmir",
      "latitude": 38.39409,
      "longitude": 27.11337,
      "dutyStart": "2026-02-26T08:00:00.000Z",
      "dutyEnd": "2026-02-27T08:00:00.000Z"
    },
    {
      "id": "izmir-27-45",
      "name": "DENIZ ECZANESİ",
      "address": "UFUK MH.ISTIKLAL CAD. NO:76/B",
      "phone": "02324528026",
      "district": "EVKA 1",
      "city": "İzmir",
      "latitude": 38.397694,
      "longitude": 27.1654,
      "dutyStart": "2026-02-26T08:00:00.000Z",
      "dutyEnd": "2026-02-27T08:00:00.000Z"
    },
    {
      "id": "izmir-28-46",
      "name": "GÜLİN ECZANESİ",
      "address": "KURUÇEŞME MH. AHMET PİRİŞTİNA BULVARI NO:56/B",
      "phone": "02324332373",
      "district": "BUCA 2",
      "city": "İzmir",
      "latitude": 38.369676,
      "longitude": 27.191118,
      "dutyStart": "2026-02-26T08:00:00.000Z",
      "dutyEnd": "2026-02-27T08:00:00.000Z"
    },
    {
      "id": "izmir-29-48",
      "name": "SELMA ECZANESİ",
      "address": "HÜRRİYET MAH. BÜYÜK MENDERES CAD. NO:220/A SARNIÇ",
      "phone": "02322814700",
      "district": "SARNIÇ",
      "city": "İzmir",
      "latitude": 38.298772,
      "longitude": 27.179039,
      "dutyStart": "2026-02-26T08:00:00.000Z",
      "dutyEnd": "2026-02-27T08:00:00.000Z"
    },
    {
      "id": "izmir-30-50",
      "name": "POZİTİF ECZANESİ",
      "address": "VALİ RAHMİ BEY MAH. MENDERES CAD. NO:91/B ",
      "phone": "02324489656",
      "district": "ŞİRİNYER",
      "city": "İzmir",
      "latitude": 38.39028,
      "longitude": 27.163138,
      "dutyStart": "2026-02-26T08:00:00.000Z",
      "dutyEnd": "2026-02-27T08:00:00.000Z"
    },
    {
      "id": "izmir-31-51",
      "name": "SERHAT ECZANESİ",
      "address": "YENI MAH.529 SOK. NO:39/AALIAGA-IZMIR",
      "phone": "02326164060",
      "district": "ALİAĞA",
      "city": "İzmir",
      "latitude": 38.786764,
      "longitude": 26.976108,
      "dutyStart": "2026-02-26T08:00:00.000Z",
      "dutyEnd": "2026-02-27T08:00:00.000Z"
    },
    {
      "id": "izmir-32-52",
      "name": "AYKUT ECZANESİ",
      "address": "İZMİR AYDIN CD. NO:61/B",
      "phone": "02328546879",
      "district": "AYRANCILAR",
      "city": "İzmir",
      "latitude": 38.238031,
      "longitude": 27.279253,
      "dutyStart": "2026-02-26T08:00:00.000Z",
      "dutyEnd": "2026-02-27T08:00:00.000Z"
    },
    {
      "id": "izmir-33-53",
      "name": "SAĞLIK ECZANESİ",
      "address": "MİTHATPAŞA MAH. HASTANE CAD. NO:24/A",
      "phone": "02325813113",
      "district": "BAYINDIR",
      "city": "İzmir",
      "latitude": 38.221163,
      "longitude": 27.649522,
      "dutyStart": "2026-02-26T08:00:00.000Z",
      "dutyEnd": "2026-02-27T08:00:00.000Z"
    },
    {
      "id": "izmir-34-54",
      "name": "KERMES ECZANESİ",
      "address": "ERTUĞRUL MAH. CUMHURİYET CAD. ÖZEL İDARE İŞHANI NO. Z-04",
      "phone": "02326331520",
      "district": "BERGAMA",
      "city": "İzmir",
      "latitude": 39.117814,
      "longitude": 27.177087,
      "dutyStart": "2026-02-26T08:00:00.000Z",
      "dutyEnd": "2026-02-27T08:00:00.000Z"
    },
    {
      "id": "izmir-35-55",
      "name": "GÖNEN ECZANESİ",
      "address": "ATATÜRK MAH. NAZILLI CAD. NO:18",
      "phone": "02325926868",
      "district": "BEYDAĞ",
      "city": "İzmir",
      "latitude": 38.084955,
      "longitude": 28.208846,
      "dutyStart": "2026-02-26T08:00:00.000Z",
      "dutyEnd": "2026-02-27T08:00:00.000Z"
    },
    {
      "id": "izmir-36-58",
      "name": "ANIL ECZANESİ",
      "address": "GAZİ PAŞA MH. 725 SK. NO:17/B",
      "phone": "02327823033",
      "district": "MENDERES",
      "city": "İzmir",
      "latitude": 38.264887,
      "longitude": 27.142753,
      "dutyStart": "2026-02-26T08:00:00.000Z",
      "dutyEnd": "2026-02-27T08:00:00.000Z"
    },
    {
      "id": "izmir-37-61",
      "name": "MELTEM ECZANESİ",
      "address": "SALİMBEY MAH. 19 SOK. NO:2/A",
      "phone": "02325902595",
      "district": "DİKİLİ",
      "city": "İzmir",
      "latitude": 39.069803,
      "longitude": 26.887965,
      "dutyStart": "2026-02-26T08:00:00.000Z",
      "dutyEnd": "2026-02-27T08:00:00.000Z"
    },
    {
      "id": "izmir-38-62",
      "name": "SUDE ECZANESİ",
      "address": "ATATÜRK MAH. REHA MIDILLI CAD. NO:17/A FOÇA",
      "phone": "02328127219",
      "district": "ESKİ FOÇA",
      "city": "İzmir",
      "latitude": 38.667541,
      "longitude": 26.754681,
      "dutyStart": "2026-02-26T08:00:00.000Z",
      "dutyEnd": "2026-02-27T08:00:00.000Z"
    },
    {
      "id": "izmir-39-63",
      "name": "KIVANÇ ECZANESİ",
      "address": "GIRNE CAD. NO:18 YENİ FOÇA",
      "phone": "02328146031",
      "district": "YENİ FOÇA",
      "city": "İzmir",
      "latitude": 38.740882,
      "longitude": 26.837295,
      "dutyStart": "2026-02-26T08:00:00.000Z",
      "dutyEnd": "2026-02-27T08:00:00.000Z"
    },
    {
      "id": "izmir-40-64",
      "name": "SAADET ECZANESİ",
      "address": "İSKELE MH. KEPEZ CD. NO:19/A",
      "phone": "02327313397",
      "district": "KARABURUN",
      "city": "İzmir",
      "latitude": 38.634972,
      "longitude": 26.522727,
      "dutyStart": "2026-02-26T08:00:00.000Z",
      "dutyEnd": "2026-02-27T08:00:00.000Z"
    },
    {
      "id": "izmir-41-65",
      "name": "BARAN ECZANESİ",
      "address": "FATIH CD.NO.2/B MORDOGAN",
      "phone": "02323476742",
      "district": "MORDOĞAN",
      "city": "İzmir",
      "latitude": 38.518282,
      "longitude": 26.625497,
      "dutyStart": "2026-02-26T08:00:00.000Z",
      "dutyEnd": "2026-02-27T08:00:00.000Z"
    },
    {
      "id": "izmir-42-66",
      "name": "NAR ECZANESİ",
      "address": "SEKİZ EYLÜL MAH. 110/1 SOK. NO:39/B",
      "phone": "02329995504",
      "district": "KEMALPAŞA",
      "city": "İzmir",
      "latitude": 38.434147,
      "longitude": 27.40895,
      "dutyStart": "2026-02-26T08:00:00.000Z",
      "dutyEnd": "2026-02-27T08:00:00.000Z"
    },
    {
      "id": "izmir-43-67",
      "name": "KINIK ECZANESİ",
      "address": "CUMHURIYET CAD. NO:1/G KINIK",
      "phone": "02326871073",
      "district": "KINIK",
      "city": "İzmir",
      "latitude": 39.08691,
      "longitude": 27.382753,
      "dutyStart": "2026-02-26T08:00:00.000Z",
      "dutyEnd": "2026-02-27T08:00:00.000Z"
    },
    {
      "id": "izmir-44-68",
      "name": "ORHANLAR ECZANESİ",
      "address": "CUMHURu0130YET MH.SABIT ARLI CAD. 46B",
      "phone": "02325724366",
      "district": "KİRAZ",
      "city": "İzmir",
      "latitude": 38.231383,
      "longitude": 28.206862,
      "dutyStart": "2026-02-26T08:00:00.000Z",
      "dutyEnd": "2026-02-27T08:00:00.000Z"
    },
    {
      "id": "izmir-45-69",
      "name": "TİMAÇ ECZANESİ",
      "address": "ESAT PAŞA MH. ÇANAKKALE ASFALTI NO:169",
      "phone": "02328312291",
      "district": "MENEMEN",
      "city": "İzmir",
      "latitude": 38.591236,
      "longitude": 27.074252,
      "dutyStart": "2026-02-26T08:00:00.000Z",
      "dutyEnd": "2026-02-27T08:00:00.000Z"
    },
    {
      "id": "izmir-46-70",
      "name": "VATAN ECZANESİ",
      "address": "ATATÜRK MH. ATATÜRK CD.NO:43/A",
      "phone": "02325443039",
      "district": "ÖDEMİŞ",
      "city": "İzmir",
      "latitude": 38.228139,
      "longitude": 27.979648,
      "dutyStart": "2026-02-26T08:00:00.000Z",
      "dutyEnd": "2026-02-27T08:00:00.000Z"
    },
    {
      "id": "izmir-47-70",
      "name": "GARAJ ECZANESİ",
      "address": "CUMHURIYET MAH. ATATÜRK CD. 20/21",
      "phone": "02325442657",
      "district": "ÖDEMİŞ",
      "city": "İzmir",
      "latitude": 38.227953,
      "longitude": 27.978717,
      "dutyStart": "2026-02-26T08:00:00.000Z",
      "dutyEnd": "2026-02-27T08:00:00.000Z"
    },
    {
      "id": "izmir-48-71",
      "name": "MANDARİN ECZANESİ",
      "address": "HIDIRLIK MAH. İNÖNÜ CAD. NO:3/A",
      "phone": "02320256149",
      "district": "SEFERİHİSAR",
      "city": "İzmir",
      "latitude": 38.193817,
      "longitude": 26.838472,
      "dutyStart": "2026-02-26T08:00:00.000Z",
      "dutyEnd": "2026-02-27T08:00:00.000Z"
    },
    {
      "id": "izmir-49-72",
      "name": "KESKIN ECZANESİ",
      "address": "ATATÜRK MH. KIZILAY CD.22/B",
      "phone": "02328926275",
      "district": "SELÇUK",
      "city": "İzmir",
      "latitude": 37.949355,
      "longitude": 27.370781,
      "dutyStart": "2026-02-26T08:00:00.000Z",
      "dutyEnd": "2026-02-27T08:00:00.000Z"
    },
    {
      "id": "izmir-50-73",
      "name": "EGE DENİZ ECZANESİ",
      "address": "YELALTI MAH.75.YIL CUMHURIYET CAD.NO:24",
      "phone": "02327545266",
      "district": "URLA",
      "city": "İzmir",
      "latitude": 38.323821,
      "longitude": 26.768333,
      "dutyStart": "2026-02-26T08:00:00.000Z",
      "dutyEnd": "2026-02-27T08:00:00.000Z"
    },
    {
      "id": "izmir-51-74",
      "name": "HİLAL ECZANESİ",
      "address": "YENİ MAHALLESİ GÜMÜŞPALA CD.51/A",
      "phone": "02325125773",
      "district": "TİRE",
      "city": "İzmir",
      "latitude": 38.087473,
      "longitude": 27.735017,
      "dutyStart": "2026-02-26T08:00:00.000Z",
      "dutyEnd": "2026-02-27T08:00:00.000Z"
    },
    {
      "id": "izmir-52-75",
      "name": "TEPEKÖY ECZANESİ",
      "address": "TEPEKÖY MH. AYDIN CD. NO:334/D ",
      "phone": "02328562515",
      "district": "TORBALI",
      "city": "İzmir",
      "latitude": 38.143324,
      "longitude": 27.366716,
      "dutyStart": "2026-02-26T08:00:00.000Z",
      "dutyEnd": "2026-02-27T08:00:00.000Z"
    },
    {
      "id": "izmir-53-75",
      "name": "DEVAKENT  ECZANESİ",
      "address": "TORBALI ERTUĞRUL MAHALLESİ 3117 SOKAK NO:2/A",
      "phone": "02328555566",
      "district": "TORBALI",
      "city": "İzmir",
      "latitude": 38.159217,
      "longitude": 27.360592,
      "dutyStart": "2026-02-26T08:00:00.000Z",
      "dutyEnd": "2026-02-27T08:00:00.000Z"
    },
    {
      "id": "izmir-54-76",
      "name": "YAZAL ECZANESİ",
      "address": "SAYFIYE MAH. KAZIM DIRIK CAD.NO:58/AYENI SAKRAN-ALIAGA/IZMIR",
      "phone": "02326287143",
      "district": "YENİ ŞAKRAN",
      "city": "İzmir",
      "latitude": 38.889168,
      "longitude": 27.065746,
      "dutyStart": "2026-02-26T08:00:00.000Z",
      "dutyEnd": "2026-02-27T08:00:00.000Z"
    },
    {
      "id": "izmir-55-77",
      "name": "KARSIYAKA MERKEZ ECZANESİ",
      "address": "BAHRIYE ÜÇOK BLV. 15/1-A ",
      "phone": "02323698850",
      "district": "KARŞIYAKA 2",
      "city": "İzmir",
      "latitude": 38.461318,
      "longitude": 27.114463,
      "dutyStart": "2026-02-26T08:00:00.000Z",
      "dutyEnd": "2026-02-27T08:00:00.000Z"
    },
    {
      "id": "izmir-56-79",
      "name": "CANGÜL ECZANESİ",
      "address": "ÖRNEKKÖY MH. 7401 SK. NO:28/A",
      "phone": "02323664545",
      "district": "KARŞIYAKA 4",
      "city": "İzmir",
      "latitude": 38.477767,
      "longitude": 27.111623,
      "dutyStart": "2026-02-26T08:00:00.000Z",
      "dutyEnd": "2026-02-27T08:00:00.000Z"
    },
    {
      "id": "izmir-57-80",
      "name": "CEREN ECZANESİ",
      "address": "YALI MAH. 6507 SOK. NO:3/C",
      "phone": "02323645858",
      "district": "KARŞIYAKA 1",
      "city": "İzmir",
      "latitude": 38.473245,
      "longitude": 27.085086,
      "dutyStart": "2026-02-26T08:00:00.000Z",
      "dutyEnd": "2026-02-27T08:00:00.000Z"
    },
    {
      "id": "izmir-58-80",
      "name": "YAŞAM ECZANESİ",
      "address": "TUNA MAH. 1690 SOK. NO:65/A",
      "phone": "02323231517",
      "district": "KARŞIYAKA 1",
      "city": "İzmir",
      "latitude": 38.457774,
      "longitude": 27.119603,
      "dutyStart": "2026-02-26T08:00:00.000Z",
      "dutyEnd": "2026-02-27T08:00:00.000Z"
    },
    {
      "id": "izmir-59-82",
      "name": "ALSANCAK MARİN ECZANESİ",
      "address": "KÜLTÜR MAH. ŞEVKET ÖZÇELİK SOK. NO:22/B",
      "phone": "02324650068",
      "district": "ALSANCAK",
      "city": "İzmir",
      "latitude": 38.430747,
      "longitude": 27.139756,
      "dutyStart": "2026-02-26T08:00:00.000Z",
      "dutyEnd": "2026-02-27T08:00:00.000Z"
    },
    {
      "id": "izmir-60-83",
      "name": "DOGAL SIFA ECZANESİ",
      "address": "Fahrettin Altay Mah. 65/11 Sok No:4/A",
      "phone": "02322792568",
      "district": "HATAY",
      "city": "İzmir",
      "latitude": 38.396449,
      "longitude": 27.069143,
      "dutyStart": "2026-02-26T08:00:00.000Z",
      "dutyEnd": "2026-02-27T08:00:00.000Z"
    },
    {
      "id": "izmir-61-84",
      "name": "BAHADIR ECZANESİ",
      "address": "GÜZELYALI MAH. 34 SOK. NO:10/C",
      "phone": "02322480315",
      "district": "MİTHATPAŞA",
      "city": "İzmir",
      "latitude": 38.398058,
      "longitude": 27.079335,
      "dutyStart": "2026-02-26T08:00:00.000Z",
      "dutyEnd": "2026-02-27T08:00:00.000Z"
    },
    {
      "id": "izmir-62-89",
      "name": "FATİH  ECZANESİ",
      "address": "ÇANDARLI MAH. NAMIK KEMAL CAD. NO:10/A",
      "phone": "02326732676",
      "district": "ÇANDARLI",
      "city": "İzmir",
      "latitude": 38.936379,
      "longitude": 26.934386,
      "dutyStart": "2026-02-26T08:00:00.000Z",
      "dutyEnd": "2026-02-27T08:00:00.000Z"
    },
    {
      "id": "izmir-63-90",
      "name": "DERİN ECZANESİ",
      "address": "ÇUKURALTI MAH. MUSTAFA KEMAL PAŞA BULVARI NO:128/A ",
      "phone": "02327974318",
      "district": "ÖZDERE",
      "city": "İzmir",
      "latitude": 38.021909,
      "longitude": 27.093892,
      "dutyStart": "2026-02-26T08:00:00.000Z",
      "dutyEnd": "2026-02-27T08:00:00.000Z"
    },
    {
      "id": "izmir-64-101",
      "name": "ARDAM ECZANESİ",
      "address": "INÖNÜ MAH.784 SOK.NO.1/A",
      "phone": "02323436870",
      "district": "ATATÜRK",
      "city": "İzmir",
      "latitude": 38.477776,
      "longitude": 27.212164,
      "dutyStart": "2026-02-26T08:00:00.000Z",
      "dutyEnd": "2026-02-27T08:00:00.000Z"
    },
    {
      "id": "izmir-65-101",
      "name": "ORDU ECZANESİ",
      "address": "OSMANGAZİ MH. 597 SK. NO:48/A",
      "phone": "02323418487",
      "district": "ATATÜRK",
      "city": "İzmir",
      "latitude": 38.472052,
      "longitude": 27.187707,
      "dutyStart": "2026-02-26T08:00:00.000Z",
      "dutyEnd": "2026-02-27T08:00:00.000Z"
    },
    {
      "id": "izmir-66-102",
      "name": "IMREN ECZANESİ",
      "address": " SALİH UMURTAK MAH. 9614 SOKAK NO:2/A",
      "phone": "02322672010",
      "district": "ESKİİZMİR-CENNETÇEŞME",
      "city": "İzmir",
      "latitude": 38.384629,
      "longitude": 27.100832,
      "dutyStart": "2026-02-26T08:00:00.000Z",
      "dutyEnd": "2026-02-27T08:00:00.000Z"
    },
    {
      "id": "izmir-67-103",
      "name": "MONTRÖ ECZANESİ",
      "address": "1373 SOK. NO:4/A",
      "phone": "02324847798",
      "district": "ALSANCAK-BASMANE",
      "city": "İzmir",
      "latitude": 38.427093,
      "longitude": 27.139388,
      "dutyStart": "2026-02-26T08:00:00.000Z",
      "dutyEnd": "2026-02-27T08:00:00.000Z"
    },
    {
      "id": "izmir-68-106",
      "name": "BORNOVA AKSAHIN ECZANESİ",
      "address": "MEVLANA MH. 1700 SK. NO:37/B",
      "phone": "02323730690",
      "district": "BORNOVA 4",
      "city": "İzmir",
      "latitude": 38.45027,
      "longitude": 27.238287,
      "dutyStart": "2026-02-26T08:00:00.000Z",
      "dutyEnd": "2026-02-27T08:00:00.000Z"
    },
    {
      "id": "izmir-69-107",
      "name": "YENİ ÖZTÜRK ECZANESİ",
      "address": "29 EKIM MAH 6.CAD.NO:8/A  MENEMEN",
      "phone": "02328321434",
      "district": "MENEMEN 2",
      "city": "İzmir",
      "latitude": 38.547202,
      "longitude": 27.03751,
      "dutyStart": "2026-02-26T08:00:00.000Z",
      "dutyEnd": "2026-02-27T08:00:00.000Z"
    },
    {
      "id": "izmir-70-109",
      "name": "HAYATİ BEY ECZANESİ",
      "address": "MAREŞAL FEVZİ ÇAKMAK MAH. İSMET İNÖNÜ BULV. NO:13/A",
      "phone": "02327663005",
      "district": "ZEYTİNALANI",
      "city": "İzmir",
      "latitude": 38.367147,
      "longitude": 26.836871,
      "dutyStart": "2026-02-26T08:00:00.000Z",
      "dutyEnd": "2026-02-27T08:00:00.000Z"
    },
    {
      "id": "izmir-71-110",
      "name": "TOPKAYA ECZANESİ",
      "address": "MITHATPASA CAD. 118/B ISKELE",
      "phone": "02327522673",
      "district": "İSKELE",
      "city": "İzmir",
      "latitude": 38.362833,
      "longitude": 26.772096,
      "dutyStart": "2026-02-26T08:00:00.000Z",
      "dutyEnd": "2026-02-27T08:00:00.000Z"
    },
    {
      "id": "izmir-72-112",
      "name": "TEOS ECZANESİ",
      "address": "SIGACIK MAH. AKKUM CAD NO 35/A",
      "phone": "02323939831",
      "district": "SEFERİHİSAR-SIĞACIK BÖLGESİ",
      "city": "İzmir",
      "latitude": 38.19121,
      "longitude": 26.784998,
      "dutyStart": "2026-02-26T08:00:00.000Z",
      "dutyEnd": "2026-02-27T08:00:00.000Z"
    }
  ]
}