{
  "city": "kocaeli",
  "cityName": "Kocaeli",
  "cityId": 41,
  "date": "2026-02-26",
  "updatedAt": "2026-02-25T21:00:36.161Z",
  "count": 20,
  "pharmacies": [
    {
      "id": "kocaeli-0",
      "name": "YILMAZ ECZANESİ",
      "address": "CEDİT MAH. DEVLET HASTANESI SOK. NO:16 İZMİT",
      "phone": "02623252757",
      "district": "İzmit",
      "city": "Kocaeli",
      "latitude": 40.767327,
      "longitude": 29.937437,
      "dutyStart": "2026-02-25T08:30:00.000Z",
      "dutyEnd": "2026-02-26T08:30:00.000Z"
    },
    {
      "id": "kocaeli-1",
      "name": "ÖZGÜR ECZANESİ",
      "address": "YENİŞEHİR MAH.FURKAN SOK.NO:9/A İZMİT",
      "phone": "05312824112",
      "district": "İzmit",
      "city": "Kocaeli",
      "latitude": 40.774992,
      "longitude": 29.96795,
      "dutyStart": "2026-02-25T08:30:00.000Z",
      "dutyEnd": "2026-02-26T08:30:00.000Z"
    },
    {
      "id": "kocaeli-2",
      "name": "FATİH ECZANESİ",
      "address": "KURUÇESME FATIH MAH. BARIS CAD. NO:40/A İZMİT",
      "phone": "02622268807",
      "district": "İzmit",
      "city": "Kocaeli",
      "latitude": 40.765254,
      "longitude": 29.872283,
      "dutyStart": "2026-02-25T08:30:00.000Z",
      "dutyEnd": "2026-02-26T08:30:00.000Z"
    },
    {
      "id": "kocaeli-3",
      "name": "ELİF NUR ECZANESİ",
      "address": "KABAOĞLU MAH.PROF.BAKİ KOMSUOĞLU BULVARI NO:501/C",
      "phone": "02623591137",
      "district": "İzmit",
      "city": "Kocaeli",
      "latitude": 40.823109,
      "longitude": 29.926867,
      "dutyStart": "2026-02-25T08:30:00.000Z",
      "dutyEnd": "2026-02-26T08:30:00.000Z"
    },
    {
      "id": "kocaeli-4",
      "name": "PAPATYA ECZANESİ",
      "address": "SERDAR MAH. GAZNELİ MAHMUT CAD. NO:6/F BAŞİSKELE",
      "phone": "02625037224",
      "district": "Başiskele",
      "city": "Kocaeli",
      "latitude": 40.713446,
      "longitude": 29.936512,
      "dutyStart": "2026-02-25T08:30:00.000Z",
      "dutyEnd": "2026-02-26T08:30:00.000Z"
    },
    {
      "id": "kocaeli-5",
      "name": "BÜŞRA ECZANESİ",
      "address": "ÖZGÜRLÜK MAH.ADNAN KAHVECİ CAD.NO:58/A ÇAYIROVA",
      "phone": "05304879017",
      "district": "Çayırova",
      "city": "Kocaeli",
      "latitude": 40.830769,
      "longitude": 29.379507,
      "dutyStart": "2026-02-25T08:30:00.000Z",
      "dutyEnd": "2026-02-26T08:30:00.000Z"
    },
    {
      "id": "kocaeli-6",
      "name": "OCAK ECZANESİ",
      "address": "BAĞLARBAŞI MAH.FANİ SOK.NO:26/A",
      "phone": "02627455672",
      "district": "Darıca",
      "city": "Kocaeli",
      "latitude": 40.767185,
      "longitude": 29.393201,
      "dutyStart": "2026-02-25T08:30:00.000Z",
      "dutyEnd": "2026-02-26T08:30:00.000Z"
    },
    {
      "id": "kocaeli-7",
      "name": "ERDOĞAN ECZANESİ",
      "address": "SIRASÖGÜTLER MAH. 1626-3 SOK. NO: 8/A",
      "phone": "02626556555",
      "district": "Dilovası",
      "city": "Kocaeli",
      "latitude": 40.785771,
      "longitude": 29.392655,
      "dutyStart": "2026-02-25T08:30:00.000Z",
      "dutyEnd": "2026-02-26T08:30:00.000Z"
    },
    {
      "id": "kocaeli-8",
      "name": "ONUR ECZANESİ",
      "address": "ORHANGAZİ MAH. BAĞDAT CAD. NO:127/A DİLOVASI",
      "phone": "02627547888",
      "district": "Kartepe",
      "city": "Kocaeli",
      "latitude": 40.785364,
      "longitude": 29.542535,
      "dutyStart": "2026-02-25T08:30:00.000Z",
      "dutyEnd": "2026-02-26T08:30:00.000Z"
    },
    {
      "id": "kocaeli-9",
      "name": "BETÜL ECZANESİ",
      "address": "ERTUĞRUL GAZİ MAH.MARAL SOK.NO:16/A",
      "phone": "02623713100",
      "district": "Gebze",
      "city": "Kocaeli",
      "latitude": 40.754404,
      "longitude": 30.036399,
      "dutyStart": "2026-02-25T08:30:00.000Z",
      "dutyEnd": "2026-02-26T08:30:00.000Z"
    },
    {
      "id": "kocaeli-10",
      "name": "ŞİFA ECZANESİ",
      "address": "ILYASBEY CAD. SULTANORHAN MAH. NO:23/B GEBZE",
      "phone": "02626444811",
      "district": "Gebze",
      "city": "Kocaeli",
      "latitude": 40.799605,
      "longitude": 29.439953,
      "dutyStart": "2026-02-25T08:30:00.000Z",
      "dutyEnd": "2026-02-26T08:30:00.000Z"
    },
    {
      "id": "kocaeli-11",
      "name": "KÜBRA ECZANESİ",
      "address": "ARAPÇEŞME MAH. BAHAR CAD. NO:8/A GEBZE",
      "phone": "02626436903",
      "district": "Gebze",
      "city": "Kocaeli",
      "latitude": 40.806338,
      "longitude": 29.440167,
      "dutyStart": "2026-02-25T08:30:00.000Z",
      "dutyEnd": "2026-02-26T08:30:00.000Z"
    },
    {
      "id": "kocaeli-12",
      "name": "IHLAMUR ECZANESİ",
      "address": "OSMAN YILMAZ MAH.ŞEHİT HASAN TAHSİN BÜYÜKÇOBAN CAD.NO:36/A GEBZE",
      "phone": "02626468000",
      "district": "Gölcük",
      "city": "Kocaeli",
      "latitude": 40.791279,
      "longitude": 29.418937,
      "dutyStart": "2026-02-25T08:30:00.000Z",
      "dutyEnd": "2026-02-26T08:30:00.000Z"
    },
    {
      "id": "kocaeli-13",
      "name": "NAZAR ECZANESİ",
      "address": "MERKEZ MAH. DONANMA CAD. NO:63 GÖLCÜK",
      "phone": "02624120300",
      "district": "Gölcük",
      "city": "Kocaeli",
      "latitude": 40.717763,
      "longitude": 29.815398,
      "dutyStart": "2026-02-25T08:30:00.000Z",
      "dutyEnd": "2026-02-26T08:30:00.000Z"
    },
    {
      "id": "kocaeli-14",
      "name": "GAYE ECZANESİ",
      "address": "D.DERE MERKEZ MAH. PROF. NUSRET FISEK SOK. NO: 6/A GÖLCÜK",
      "phone": "02624270661",
      "district": "Gölcük",
      "city": "Kocaeli",
      "latitude": 40.720406,
      "longitude": 29.794159,
      "dutyStart": "2026-02-25T08:30:00.000Z",
      "dutyEnd": "2026-02-26T08:30:00.000Z"
    },
    {
      "id": "kocaeli-15",
      "name": "GÖLCÜK ECZANESİ",
      "address": "ÇIFTLIK MAH. HAST.CAD. NO:74/A IHSANIYE GÖLCÜK",
      "phone": "02624355700",
      "district": "Kandıra",
      "city": "Kocaeli",
      "latitude": 40.706248,
      "longitude": 29.838777,
      "dutyStart": "2026-02-25T08:30:00.000Z",
      "dutyEnd": "2026-02-26T08:30:00.000Z"
    },
    {
      "id": "kocaeli-16",
      "name": "ÖZDEMİR ECZANESİ",
      "address": "ÇARŞI MAH. İSMAİL ŞENOĞLU CAD. NO:24/A KANDIRA",
      "phone": "02625515544",
      "district": "Karamürsel",
      "city": "Kocaeli",
      "latitude": 41.069291,
      "longitude": 30.149583,
      "dutyStart": "2026-02-25T08:30:00.000Z",
      "dutyEnd": "2026-02-26T08:30:00.000Z"
    },
    {
      "id": "kocaeli-17",
      "name": "EROĞLU ECZANESİ",
      "address": "4 TEMMUZ MAH.ATATÜRK CAD.NO:28//D",
      "phone": "02624525893",
      "district": "Körfez",
      "city": "Kocaeli",
      "latitude": 40.694681,
      "longitude": 29.617712,
      "dutyStart": "2026-02-25T08:30:00.000Z",
      "dutyEnd": "2026-02-26T08:30:00.000Z"
    },
    {
      "id": "kocaeli-18",
      "name": "DOĞUŞ ECZANESİ",
      "address": "YAVUZ SULTAN SELİM MAH. MEVLANA CAD. NO:242/13 KÖRFEZ",
      "phone": "02625050077",
      "district": "Derince",
      "city": "Kocaeli",
      "latitude": 40.774643,
      "longitude": 29.802892,
      "dutyStart": "2026-02-25T08:30:00.000Z",
      "dutyEnd": "2026-02-26T08:30:00.000Z"
    },
    {
      "id": "kocaeli-19",
      "name": "GÜNEŞ ECZANESİ",
      "address": "İBNİ SİNA MAH. LOJMAN SOK. NO:18/B DERİNCE",
      "phone": "02622331223",
      "district": "İzmit",
      "city": "Kocaeli",
      "latitude": 40.76262,
      "longitude": 29.812505,
      "dutyStart": "2026-02-25T08:30:00.000Z",
      "dutyEnd": "2026-02-26T08:30:00.000Z"
    }
  ]
}