{
  "city": "konya",
  "cityName": "Konya",
  "cityId": 42,
  "date": "2026-02-26",
  "updatedAt": "2026-02-26T10:00:58.985Z",
  "count": 32,
  "pharmacies": [
    {
      "id": "konya-0",
      "name": "SAĞLIK ECZANESİ",
      "address": "FERHUNİYE MAHALLESİ HASTANE CADDESİ NO:25B SELÇUKLU",
      "phone": "903323516351",
      "district": "Selçuklu",
      "city": "Konya",
      "latitude": 37.8779607,
      "longitude": 32.4906369,
      "dutyStart": "2026-02-26T09:00:00.000Z",
      "dutyEnd": "2026-02-27T09:00:00.000Z"
    },
    {
      "id": "konya-1",
      "name": "EREN ECZANESİ",
      "address": "HACIKAYMAK MAHALLESİ HAZARİFEN AHMET SOKAK NO:5B SELÇUKLU",
      "phone": "903322340072",
      "district": "Selçuklu",
      "city": "Konya",
      "latitude": 37.8847602,
      "longitude": 32.4785351,
      "dutyStart": "2026-02-26T09:00:00.000Z",
      "dutyEnd": "2026-02-27T09:00:00.000Z"
    },
    {
      "id": "konya-2",
      "name": "EŞREFOĞLU ECZANESİ",
      "address": "KÖYCEĞİZ MAHALLESİ BEYŞEHİR CADDESİ NO:250A MERAM",
      "phone": "903323244549",
      "district": "Meram",
      "city": "Konya",
      "latitude": 37.876814,
      "longitude": 32.429269,
      "dutyStart": "2026-02-26T09:00:00.000Z",
      "dutyEnd": "2026-02-27T09:00:00.000Z"
    },
    {
      "id": "konya-3",
      "name": "YENİ SEZER ECZANESİ",
      "address": "AŞKAN MAHALLESİ HALİL ÇAVUŞ SOKAK NO:8A MERAM",
      "phone": "903323233130",
      "district": "Meram",
      "city": "Konya",
      "latitude": 37.8666103,
      "longitude": 32.448778,
      "dutyStart": "2026-02-26T09:00:00.000Z",
      "dutyEnd": "2026-02-27T09:00:00.000Z"
    },
    {
      "id": "konya-4",
      "name": "KERTMEN ECZANESİ",
      "address": "ULUBATLI HASAN MAHALLESİ KIRBAŞI CADDESİ NO:101A KARATAY",
      "phone": "903324101316",
      "district": "Karatay",
      "city": "Konya",
      "latitude": 37.89234,
      "longitude": 32.51905,
      "dutyStart": "2026-02-26T09:00:00.000Z",
      "dutyEnd": "2026-02-27T09:00:00.000Z"
    },
    {
      "id": "konya-5",
      "name": "DURMAZ ECZANESİ",
      "address": "PİREBİ MAHALLESİ FURGAN DEDE CADDESİ NO:16B MERAM",
      "phone": "903323501222",
      "district": "Meram",
      "city": "Konya",
      "latitude": 37.8658126,
      "longitude": 32.4912606,
      "dutyStart": "2026-02-26T09:00:00.000Z",
      "dutyEnd": "2026-02-27T09:00:00.000Z"
    },
    {
      "id": "konya-6",
      "name": "NEHİR ECZANESİ",
      "address": "İSTİKLAL MAHALLESİ ŞEHİT BAYRAM OLGUN CADDESİ NO:5F KARATAY",
      "phone": "903323240777",
      "district": "Karatay",
      "city": "Konya",
      "latitude": 37.85532,
      "longitude": 32.54914,
      "dutyStart": "2026-02-26T09:00:00.000Z",
      "dutyEnd": "2026-02-27T09:00:00.000Z"
    },
    {
      "id": "konya-7",
      "name": "ZÜHRE OLGUN ECZANESİ",
      "address": "MEHMET AKİF MAHALLESİ FAHRİ EFENDİ CADDESİ NO:8A SELÇUKLU",
      "phone": "903322451300",
      "district": "Selçuklu",
      "city": "Konya",
      "latitude": 37.9106079,
      "longitude": 32.4750726,
      "dutyStart": "2026-02-26T09:00:00.000Z",
      "dutyEnd": "2026-02-27T09:00:00.000Z"
    },
    {
      "id": "konya-8",
      "name": "EYÜP SULTAN ECZANESİ",
      "address": "CUMHURİYET MAHALLESİ KANDİL SOKAK NO:6D SELÇUKLU",
      "phone": "903322482484",
      "district": "Selçuklu",
      "city": "Konya",
      "latitude": 37.9361272,
      "longitude": 32.5105033,
      "dutyStart": "2026-02-26T09:00:00.000Z",
      "dutyEnd": "2026-02-27T09:00:00.000Z"
    },
    {
      "id": "konya-9",
      "name": "NUR ECZANESİ",
      "address": "YAZIR MAHALLESİ SULTAN CADDESİ NO:30D SELÇUKLU",
      "phone": "903322654474",
      "district": "Selçuklu",
      "city": "Konya",
      "latitude": 37.9561911,
      "longitude": 32.5090058,
      "dutyStart": "2026-02-26T09:00:00.000Z",
      "dutyEnd": "2026-02-27T09:00:00.000Z"
    },
    {
      "id": "konya-10",
      "name": "ÖZ ŞAFAK ECZANESİ",
      "address": "SANCAK MAHALLESİ SEVENLER SOKAK NO:8A SELÇUKLU",
      "phone": "903322555204",
      "district": "Selçuklu",
      "city": "Konya",
      "latitude": 37.9657728,
      "longitude": 32.5164464,
      "dutyStart": "2026-02-26T09:00:00.000Z",
      "dutyEnd": "2026-02-27T09:00:00.000Z"
    },
    {
      "id": "konya-11",
      "name": "ÇALIŞKAN BOZKIR ECZANESİ",
      "address": "KARAASLAN DEDE MAHALLESİ TAŞRAKARAASLAN CADDESİ NO:28A KARATAY",
      "phone": "903323599894",
      "district": "Karatay",
      "city": "Konya",
      "latitude": 37.8189866,
      "longitude": 32.5225428,
      "dutyStart": "2026-02-26T09:00:00.000Z",
      "dutyEnd": "2026-02-27T09:00:00.000Z"
    },
    {
      "id": "konya-12",
      "name": "TUNCEZ ECZANESİ",
      "address": "İSTASYON MH. 30489.SK. NO:4F",
      "phone": "903328126963",
      "district": "Akşehi̇r",
      "city": "Konya",
      "latitude": 38.36607,
      "longitude": 31.43177,
      "dutyStart": "2026-02-26T09:00:00.000Z",
      "dutyEnd": "2026-02-27T09:00:00.000Z"
    },
    {
      "id": "konya-13",
      "name": "DİLEK ECZANESİ",
      "address": "ÖLMEZ MAHALLESİ MİLLET CADDESİ NO:4B",
      "phone": "903326312575",
      "district": "Altineki̇n",
      "city": "Konya",
      "latitude": 38.3072871,
      "longitude": 32.8636853,
      "dutyStart": "2026-02-26T09:00:00.000Z",
      "dutyEnd": "2026-02-27T09:00:00.000Z"
    },
    {
      "id": "konya-14",
      "name": "YILDIZ ECZANESİ",
      "address": "YENİ MAHALLE 41309. SOKAK NO:6A",
      "phone": "903325126512",
      "district": "Beyşehi̇r",
      "city": "Konya",
      "latitude": 37.6743325,
      "longitude": 31.7218471,
      "dutyStart": "2026-02-26T09:00:00.000Z",
      "dutyEnd": "2026-02-27T09:00:00.000Z"
    },
    {
      "id": "konya-15",
      "name": "YENİ SAĞLAM ECZANESİ",
      "address": "YUKARI MAHALLESİ FEVZİPAŞA CADDESİ NO:9A",
      "phone": "903324261154",
      "district": "Bozkir",
      "city": "Konya",
      "latitude": 0,
      "longitude": 0,
      "dutyStart": "2026-02-26T09:00:00.000Z",
      "dutyEnd": "2026-02-27T09:00:00.000Z"
    },
    {
      "id": "konya-16",
      "name": "ÇOBANOĞLU ECZANESİ",
      "address": "ATÇEKEN MAHALLESİ HASTANE CADDESİ NO:52A,NECİP FAZIL KISAKÜREK CADDESİ NO:1A",
      "phone": "903326734763",
      "district": "Ci̇hanbeyli̇",
      "city": "Konya",
      "latitude": 38.6656125,
      "longitude": 32.9220006,
      "dutyStart": "2026-02-26T09:00:00.000Z",
      "dutyEnd": "2026-02-27T09:00:00.000Z"
    },
    {
      "id": "konya-17",
      "name": "DENİZ ECZANESİ",
      "address": "YENİCEOBA MAHALLESİ YENİCEOBA CADDESİ NO:92A",
      "phone": "903326762827",
      "district": "Ci̇hanbeyli̇",
      "city": "Konya",
      "latitude": 38.87074,
      "longitude": 32.78896,
      "dutyStart": "2026-02-26T09:00:00.000Z",
      "dutyEnd": "2026-02-27T09:00:00.000Z"
    },
    {
      "id": "konya-18",
      "name": "KAÇMAZ ECZANESİ",
      "address": "BAHÇELİEVLER MAHALLESİ 70025. SOKAK NO:30A",
      "phone": "905426388026",
      "district": "Çelti̇k",
      "city": "Konya",
      "latitude": 39.02085,
      "longitude": 31.79182,
      "dutyStart": "2026-02-26T09:00:00.000Z",
      "dutyEnd": "2026-02-27T09:00:00.000Z"
    },
    {
      "id": "konya-19",
      "name": "NEVİN ECZANESİ",
      "address": "MEYDAN MAHALLESİ ŞEKER HOCA CADDESİ NO:4G",
      "phone": "903324475115",
      "district": "Çumra",
      "city": "Konya",
      "latitude": 37.5734701,
      "longitude": 32.745591,
      "dutyStart": "2026-02-26T09:00:00.000Z",
      "dutyEnd": "2026-02-27T09:00:00.000Z"
    },
    {
      "id": "konya-20",
      "name": "UYSAL ECZANESİ",
      "address": "KUZ MAHALLESİ 84815 SOKAK NO:4/1",
      "phone": "903325562021",
      "district": "Doğanhi̇sar",
      "city": "Konya",
      "latitude": 38.14199,
      "longitude": 31.68367,
      "dutyStart": "2026-02-26T09:00:00.000Z",
      "dutyEnd": "2026-02-27T09:00:00.000Z"
    },
    {
      "id": "konya-21",
      "name": "IHLAMUR ECZANESİ",
      "address": "CAHI MAHALLESİ ŞEHİT MURAT AKUTAY CADDESİ DURSUN CÖMERT APARTMANI NO:65A",
      "phone": "903327103535",
      "district": "Ereğli̇",
      "city": "Konya",
      "latitude": 37.5232504,
      "longitude": 34.0340372,
      "dutyStart": "2026-02-26T09:00:00.000Z",
      "dutyEnd": "2026-02-27T09:00:00.000Z"
    },
    {
      "id": "konya-22",
      "name": "LOKMAN HEKİM ECZANESİ",
      "address": "HACI MUSTAFA MAHALLESİ ZÜMRÜT SOKAK NO:20A",
      "phone": "903327770042",
      "district": "Ereğli̇",
      "city": "Konya",
      "latitude": 37.5225185,
      "longitude": 34.0474325,
      "dutyStart": "2026-02-26T09:00:00.000Z",
      "dutyEnd": "2026-02-27T09:00:00.000Z"
    },
    {
      "id": "konya-23",
      "name": "HÜYÜK ECZANESİ",
      "address": "BAHÇELİ EVLER YILDIRIM BEYAZIT CADDESİ NO:2A",
      "phone": "903325431255",
      "district": "Hüyük",
      "city": "Konya",
      "latitude": 37.95284,
      "longitude": 31.59837,
      "dutyStart": "2026-02-26T09:00:00.000Z",
      "dutyEnd": "2026-02-27T09:00:00.000Z"
    },
    {
      "id": "konya-24",
      "name": "SERİN ECZANESİ",
      "address": "CAMİİATİK MAHALLESİ NEVZAT İSPİR CADDESİ NO:44",
      "phone": "903328816585",
      "district": "Ilgin",
      "city": "Konya",
      "latitude": 38.2817701,
      "longitude": 31.9153268,
      "dutyStart": "2026-02-26T09:00:00.000Z",
      "dutyEnd": "2026-02-27T09:00:00.000Z"
    },
    {
      "id": "konya-25",
      "name": "GÜZEŞ ECZANESİ",
      "address": "ÜNVEREN MAHALLESİ KONYA CADDESİ NO:169A",
      "phone": "903328342878",
      "district": "Kadinhani",
      "city": "Konya",
      "latitude": 38.2399686,
      "longitude": 32.2113611,
      "dutyStart": "2026-02-26T09:00:00.000Z",
      "dutyEnd": "2026-02-27T09:00:00.000Z"
    },
    {
      "id": "konya-26",
      "name": "YALÇINÖZ ECZANESİ",
      "address": "ULUS MAHALLESİ 133215. SOKAK NO:2C",
      "phone": "903327552266",
      "district": "Karapinar",
      "city": "Konya",
      "latitude": 37.7134042,
      "longitude": 33.5653383,
      "dutyStart": "2026-02-26T09:00:00.000Z",
      "dutyEnd": "2026-02-27T09:00:00.000Z"
    },
    {
      "id": "konya-27",
      "name": "AKYEL ECZANESİ",
      "address": "CAMİKEBİR MAHALLESİ ZİYA GÖKALP CADDESİ NO:1A",
      "phone": "903326416548",
      "district": "Kulu",
      "city": "Konya",
      "latitude": 39.0906342,
      "longitude": 33.0801084,
      "dutyStart": "2026-02-26T09:00:00.000Z",
      "dutyEnd": "2026-02-27T09:00:00.000Z"
    },
    {
      "id": "konya-28",
      "name": "AYŞE ÇINAR ECZANESİ",
      "address": "FATİH MAHALLESİ TAHİR ÇELİK CADDESİ NO:87A",
      "phone": "905536106128",
      "district": "Sarayönü",
      "city": "Konya",
      "latitude": 38.26101,
      "longitude": 32.40545,
      "dutyStart": "2026-02-26T09:00:00.000Z",
      "dutyEnd": "2026-02-27T09:00:00.000Z"
    },
    {
      "id": "konya-29",
      "name": "YASİR ECZANESİ",
      "address": "ALAYLAR BİR MAHALLESİ ATATÜRK CADDESİ NO:23C",
      "phone": "903325825559",
      "district": "Seydi̇şehi̇r",
      "city": "Konya",
      "latitude": 37.42369,
      "longitude": 31.84451,
      "dutyStart": "2026-02-26T09:00:00.000Z",
      "dutyEnd": "2026-02-27T09:00:00.000Z"
    },
    {
      "id": "konya-30",
      "name": "TUZLUKÇU ECZANESİ",
      "address": "AŞAĞI MAHALLESİ AKŞEHİR CADDESİ NO:38",
      "phone": "903328612866",
      "district": "Tuzlukçu",
      "city": "Konya",
      "latitude": 38.4760048,
      "longitude": 31.6266913,
      "dutyStart": "2026-02-26T09:00:00.000Z",
      "dutyEnd": "2026-02-27T09:00:00.000Z"
    },
    {
      "id": "konya-31",
      "name": "YUNAK ECZANESİ",
      "address": "YENİ MAHALLE HÜKÜMET CADDESİ NO:65",
      "phone": "903328512378",
      "district": "Yunak",
      "city": "Konya",
      "latitude": 38.8144894,
      "longitude": 31.7349452,
      "dutyStart": "2026-02-26T09:00:00.000Z",
      "dutyEnd": "2026-02-27T09:00:00.000Z"
    }
  ]
}