{
  "city": "mersin",
  "cityName": "Mersin",
  "cityId": 33,
  "date": "2026-02-26",
  "updatedAt": "2026-02-26T11:30:58.186Z",
  "count": 23,
  "pharmacies": [
    {
      "id": "mersin-0",
      "name": "EZGİ ECZANESİ",
      "address": "YALINAYAK MH. ATATÜRK CD. NO:1/A",
      "phone": "03242292696",
      "district": "Toroslar",
      "city": "Mersin",
      "latitude": 36.845686,
      "longitude": 34.633815,
      "dutyStart": "2026-02-26T08:30:00.000Z",
      "dutyEnd": "2026-02-27T08:30:00.000Z"
    },
    {
      "id": "mersin-1",
      "name": "FAKÜLTE ECZANESİ",
      "address": "ÇİFTLİKKÖY MH. MİMAR SİNAN CD. PARADİSE HOMES C BLOK NO: 24 CG",
      "phone": "03242902206",
      "district": "Yeni̇şehi̇r",
      "city": "Mersin",
      "latitude": 36.786027,
      "longitude": 34.53986,
      "dutyStart": "2026-02-26T08:30:00.000Z",
      "dutyEnd": "2026-02-27T08:30:00.000Z"
    },
    {
      "id": "mersin-2",
      "name": "GİZEM UYGUN ECZANESİ",
      "address": "FUAT MOREL MH. VALİ HÜSEYİN AKSU CD. NO:47D",
      "phone": "03243260979",
      "district": "Yeni̇şehi̇r",
      "city": "Mersin",
      "latitude": 36.810524,
      "longitude": 34.585105,
      "dutyStart": "2026-02-26T08:30:00.000Z",
      "dutyEnd": "2026-02-27T08:30:00.000Z"
    },
    {
      "id": "mersin-3",
      "name": "KARATAŞ ECZANESİ",
      "address": "İHSANİYE MH. KUVAİ MİLLİYE CD. NO.159/A",
      "phone": "03243361952",
      "district": "Akdeni̇z",
      "city": "Mersin",
      "latitude": 36.808178,
      "longitude": 34.621519,
      "dutyStart": "2026-02-26T08:30:00.000Z",
      "dutyEnd": "2026-02-27T08:30:00.000Z"
    },
    {
      "id": "mersin-4",
      "name": "MARİNA ECZANESİ",
      "address": "BARBAROS MAH.2148 SOK.NO:20",
      "phone": "03243269184",
      "district": "Yeni̇şehi̇r",
      "city": "Mersin",
      "latitude": 36.779182,
      "longitude": 34.575177,
      "dutyStart": "2026-02-26T08:30:00.000Z",
      "dutyEnd": "2026-02-27T08:30:00.000Z"
    },
    {
      "id": "mersin-5",
      "name": "NİDA ECZANESİ",
      "address": "HAL MH. 6040 SK. NO:3",
      "phone": "03242343477",
      "district": "Akdeni̇z",
      "city": "Mersin",
      "latitude": 36.823674,
      "longitude": 34.653538,
      "dutyStart": "2026-02-26T08:30:00.000Z",
      "dutyEnd": "2026-02-27T08:30:00.000Z"
    },
    {
      "id": "mersin-6",
      "name": "ÖZGE GÖKMEN ECZANESİ",
      "address": "MERKEZ MH. 52081 SK. NO:3A",
      "phone": "05455923332",
      "district": "Mezi̇tli̇",
      "city": "Mersin",
      "latitude": 36.750587,
      "longitude": 34.520894,
      "dutyStart": "2026-02-26T08:30:00.000Z",
      "dutyEnd": "2026-02-27T08:30:00.000Z"
    },
    {
      "id": "mersin-7",
      "name": "SİTELER ECZANESİ",
      "address": "KURDALI MAH.10041.SOK NO:5",
      "phone": "03243205590",
      "district": "Toroslar",
      "city": "Mersin",
      "latitude": 36.82626,
      "longitude": 34.625021,
      "dutyStart": "2026-02-26T08:30:00.000Z",
      "dutyEnd": "2026-02-27T08:30:00.000Z"
    },
    {
      "id": "mersin-8",
      "name": "SOLENA ECZANESİ",
      "address": "ATATÜRK MH. 31045 SK. NO:18A",
      "phone": "03242215186",
      "district": "Mezi̇tli̇",
      "city": "Mersin",
      "latitude": 36.765404,
      "longitude": 34.547151,
      "dutyStart": "2026-02-26T08:30:00.000Z",
      "dutyEnd": "2026-02-27T08:30:00.000Z"
    },
    {
      "id": "mersin-9",
      "name": "YENİMAHALLE ECZANESİ",
      "address": "YENİ MAH.5315 SOK.NO:15/B",
      "phone": "03242393272",
      "district": "Akdeni̇z",
      "city": "Mersin",
      "latitude": 36.80509,
      "longitude": 34.63217,
      "dutyStart": "2026-02-26T08:30:00.000Z",
      "dutyEnd": "2026-02-27T08:30:00.000Z"
    },
    {
      "id": "mersin-10",
      "name": "AYDAN ECZANESİ",
      "address": "TEKKE MH. 3745 SK. NO:1AB",
      "phone": "03246223476",
      "district": "Tarsus",
      "city": "Mersin",
      "latitude": 36.914214,
      "longitude": 34.912384,
      "dutyStart": "2026-02-26T08:30:00.000Z",
      "dutyEnd": "2026-02-27T08:30:00.000Z"
    },
    {
      "id": "mersin-11",
      "name": "KAMER ECZANESİ",
      "address": "HÜRRIYET MAH.2215 SOK.NO:17",
      "phone": "03246130335",
      "district": "Tarsus",
      "city": "Mersin",
      "latitude": 36.929346,
      "longitude": 34.889691,
      "dutyStart": "2026-02-26T08:30:00.000Z",
      "dutyEnd": "2026-02-27T08:30:00.000Z"
    },
    {
      "id": "mersin-12",
      "name": "ÖNDER GÜNER ECZANESİ",
      "address": "ALTAYLILAR MAH.TURAN CAD.NO:2",
      "phone": "03246263301",
      "district": "Tarsus",
      "city": "Mersin",
      "latitude": 36.926864,
      "longitude": 34.859737,
      "dutyStart": "2026-02-26T08:30:00.000Z",
      "dutyEnd": "2026-02-27T08:30:00.000Z"
    },
    {
      "id": "mersin-13",
      "name": "ÜÇGENÇARŞI ECZANESİ",
      "address": "ÖGRETMENLER MAH. DUMLUPINAR CAD.NO:6/B",
      "phone": "03246247438",
      "district": "Tarsus",
      "city": "Mersin",
      "latitude": 36.909522,
      "longitude": 34.882067,
      "dutyStart": "2026-02-26T08:30:00.000Z",
      "dutyEnd": "2026-02-27T08:30:00.000Z"
    },
    {
      "id": "mersin-14",
      "name": "ATLAS ECZANESİ",
      "address": "TAŞUCU MH. ATATÜRK BULV. NO:55B",
      "phone": "03247412368",
      "district": "Si̇li̇fke",
      "city": "Mersin",
      "latitude": 36.317974,
      "longitude": 33.877737,
      "dutyStart": "2026-02-26T08:30:00.000Z",
      "dutyEnd": "2026-02-27T08:30:00.000Z"
    },
    {
      "id": "mersin-15",
      "name": "UĞUR ECZANESİ",
      "address": "GÖKSU MAH.ATATÜRK CAD.NO:35 SOK.NO:4",
      "phone": "03247147575",
      "district": "Si̇li̇fke",
      "city": "Mersin",
      "latitude": 36.380889,
      "longitude": 33.930844,
      "dutyStart": "2026-02-26T08:30:00.000Z",
      "dutyEnd": "2026-02-27T08:30:00.000Z"
    },
    {
      "id": "mersin-16",
      "name": "PINAR ECZANESİ",
      "address": "INÖNÜ CAD.NO:13",
      "phone": "03247741607",
      "district": "Mut",
      "city": "Mersin",
      "latitude": 36.644178,
      "longitude": 33.43724,
      "dutyStart": "2026-02-26T08:30:00.000Z",
      "dutyEnd": "2026-02-27T08:30:00.000Z"
    },
    {
      "id": "mersin-17",
      "name": "ATEŞ ECZANESİ",
      "address": "SARAY MAH.AKKAVAK SOK.NO:12",
      "phone": "03247517170",
      "district": "Gülnar",
      "city": "Mersin",
      "latitude": 36.338433,
      "longitude": 33.403276,
      "dutyStart": "2026-02-26T08:30:00.000Z",
      "dutyEnd": "2026-02-27T08:30:00.000Z"
    },
    {
      "id": "mersin-18",
      "name": "DİDEM ECZANESİ",
      "address": "Alata Mh. Hacı Ömer Var Cd. No:20B",
      "phone": "03245151020",
      "district": "Erdemli̇",
      "city": "Mersin",
      "latitude": 36.607738,
      "longitude": 34.315229,
      "dutyStart": "2026-02-26T08:30:00.000Z",
      "dutyEnd": "2026-02-27T08:30:00.000Z"
    },
    {
      "id": "mersin-19",
      "name": "FERHAT ECZANESİ",
      "address": "MERKEZ MH. ALİ ÇAVUŞ SK. NO:2C",
      "phone": "03245154806",
      "district": "Erdemli̇",
      "city": "Mersin",
      "latitude": 36.610893,
      "longitude": 34.302778,
      "dutyStart": "2026-02-26T08:30:00.000Z",
      "dutyEnd": "2026-02-27T08:30:00.000Z"
    },
    {
      "id": "mersin-20",
      "name": "MERKEZ ECZANESİ",
      "address": "MERKEZ MH. ALPARSLAN TÜRKEŞ BULV. NO:238/A",
      "phone": "03248515515",
      "district": "Bozyazi",
      "city": "Mersin",
      "latitude": 36.105207,
      "longitude": 32.971914,
      "dutyStart": "2026-02-26T08:30:00.000Z",
      "dutyEnd": "2026-02-27T08:30:00.000Z"
    },
    {
      "id": "mersin-21",
      "name": "ÜNAL ECZANESİ",
      "address": "CUMHURİYET MAH. BARBOROS CD.NO:3/B",
      "phone": "05538413084",
      "district": "Aydincik",
      "city": "Mersin",
      "latitude": 36.152856,
      "longitude": 33.339095,
      "dutyStart": "2026-02-26T08:30:00.000Z",
      "dutyEnd": "2026-02-27T08:30:00.000Z"
    },
    {
      "id": "mersin-22",
      "name": "YAŞAM ECZANESİ",
      "address": "BAHÇELİEVLER MH. 1207 SK. NO:1/F",
      "phone": "03248144727",
      "district": "Anamur",
      "city": "Mersin",
      "latitude": 36.078826,
      "longitude": 32.849867,
      "dutyStart": "2026-02-26T08:30:00.000Z",
      "dutyEnd": "2026-02-27T08:30:00.000Z"
    }
  ]
}