{
  "city": "adana",
  "cityName": "Adana",
  "cityId": 1,
  "date": "2026-02-27",
  "updatedAt": "2026-02-27T01:30:55.702Z",
  "count": 34,
  "pharmacies": [
    {
      "id": "adana-0",
      "name": "DOĞUMEVİ ECZANESİ",
      "address": "BAKIMYURDU CAD.DOĞUMEVİ CİVARI MİNİ TAKSİ VE BİM MARKET YANI , 03223651030 03223651033 Harita Konum",
      "phone": "03223651030",
      "district": "Seyhan",
      "city": "Adana",
      "latitude": 36.987608,
      "longitude": 35.317121,
      "dutyStart": "2026-02-27T08:00:00.000Z",
      "dutyEnd": "2026-02-28T08:00:00.000Z"
    },
    {
      "id": "adana-1",
      "name": "5 OCAK ECZANESİ",
      "address": "YEŞİLOBA MAH. MERSİN YOLU ÜZERİ 5 OCAK HASTANESİ YANI , 05384781595 03224350517 Harita Konum",
      "phone": "05384781595",
      "district": "Seyhan",
      "city": "Adana",
      "latitude": 36.996799,
      "longitude": 35.240406,
      "dutyStart": "2026-02-27T08:00:00.000Z",
      "dutyEnd": "2026-02-28T08:00:00.000Z"
    },
    {
      "id": "adana-2",
      "name": "DALKIRAN ECZANESİ",
      "address": "PINAR MAH.ŞEFİK BİRİCİK ASM KARŞISI T.ÖZAL LİSESİ CİVARI İSMAİL HAZAR İÖO ARKASI , 03222621522 Harita Konum",
      "phone": "03222621522",
      "district": "Seyhan",
      "city": "Adana",
      "latitude": 37.017837,
      "longitude": 35.288525,
      "dutyStart": "2026-02-27T08:00:00.000Z",
      "dutyEnd": "2026-02-28T08:00:00.000Z"
    },
    {
      "id": "adana-3",
      "name": "ŞAHİNKANAT ECZANESİ",
      "address": "HÜRRİYET MAH.SAYDAM CAD. PETROL İSTASYONU KARŞISI TELEVİ SAĞLIK OCAĞI CİVARI , 03223526434 Harita Konum",
      "phone": "03223526434",
      "district": "Seyhan",
      "city": "Adana",
      "latitude": 36.978631,
      "longitude": 35.323445,
      "dutyStart": "2026-02-27T08:00:00.000Z",
      "dutyEnd": "2026-02-28T08:00:00.000Z"
    },
    {
      "id": "adana-4",
      "name": "ÇABUKOĞLU ECZANESİ",
      "address": "YEŞİLYURT MAH. ABDİ İPEKÇİ CAD GÜLEK CAMİ İLERİSİ MUSTAFA KEMAL İLKOKULU CİVARI , 05343801755 03222280814 Harita Konum",
      "phone": "05343801755",
      "district": "Seyhan",
      "city": "Adana",
      "latitude": 37.014203,
      "longitude": 35.309053,
      "dutyStart": "2026-02-27T08:00:00.000Z",
      "dutyEnd": "2026-02-28T08:00:00.000Z"
    },
    {
      "id": "adana-5",
      "name": "İSTANBULLUOĞLU ECZANESİ",
      "address": "REŞATBEY MAH. CUMHURİYET CAD. İSMET İNÖNÜ İLKOKULU KARŞI ÇAPRAZI NET OPTİK YANI NO:39/A , 05324819201 03229995753 Harita Konum",
      "phone": "05324819201",
      "district": "Seyhan",
      "city": "Adana",
      "latitude": 36.996118596028495,
      "longitude": 35.326358461797604,
      "dutyStart": "2026-02-27T08:00:00.000Z",
      "dutyEnd": "2026-02-28T08:00:00.000Z"
    },
    {
      "id": "adana-6",
      "name": "ALADAĞ ECZANESİ",
      "address": "YENİBARAJ MAH. HACI ÖMER SABANCI CAD. SEYHAN DEVLET HASTANESİ KARŞISI (ESKİ SSK AŞKIM TÜFEKÇİ) , 03222269654 Harita Konum",
      "phone": "03222269654",
      "district": "Seyhan",
      "city": "Adana",
      "latitude": 37.020857,
      "longitude": 35.319768,
      "dutyStart": "2026-02-27T08:00:00.000Z",
      "dutyEnd": "2026-02-28T08:00:00.000Z"
    },
    {
      "id": "adana-7",
      "name": "İPEK KAHYA ECZANESİ",
      "address": "KURTULUŞ MAH.ZİYAPAŞA BLV. (FEDERAL'DEN SAĞA DÖNÜNCE NEWPORT YANI)CEMALPAŞA PTT VE TÜRK TELEKOM ARKASI , 05517300538 Harita Konum",
      "phone": "05517300538",
      "district": "Seyhan",
      "city": "Adana",
      "latitude": 37.002366,
      "longitude": 35.320575,
      "dutyStart": "2026-02-27T08:00:00.000Z",
      "dutyEnd": "2026-02-28T08:00:00.000Z"
    },
    {
      "id": "adana-8",
      "name": "AKGÜN ECZANESİ",
      "address": "Ş. MEHMET ÖZEL CAD. NARLICA 2 NOLU SAĞLIK OCAĞI KARŞISI YIKILAN KARAKOL KARŞISI , 03224334402 Harita Konum",
      "phone": "03224334402",
      "district": "Seyhan",
      "city": "Adana",
      "latitude": 36.999958,
      "longitude": 35.299184,
      "dutyStart": "2026-02-27T08:00:00.000Z",
      "dutyEnd": "2026-02-28T08:00:00.000Z"
    },
    {
      "id": "adana-9",
      "name": "İPEK ECZANESİ",
      "address": "BAHÇEŞEHİR MH. M. FUAT DIBLAN BULV.NO:110 (ESKİ KİREÇ OCAĞI MH.) BAHÇEŞEHİR SAĞLIK OCAĞI ALTI , 05369741113 03222564497 Harita Konum",
      "phone": "05369741113",
      "district": "Seyhan",
      "city": "Adana",
      "latitude": 37.028611,
      "longitude": 35.243093,
      "dutyStart": "2026-02-27T08:00:00.000Z",
      "dutyEnd": "2026-02-28T08:00:00.000Z"
    },
    {
      "id": "adana-10",
      "name": "SERVET ECZANESİ",
      "address": "BELEDİYE EVLERİ MAH. OTO PAZARI KARŞI ARASI GİZERLER MARKET KARŞISI 2 NOLU AİLE SAĞLIĞI YANI , 03222489970 Harita Konum",
      "phone": "03222489970",
      "district": "Çukurova",
      "city": "Adana",
      "latitude": 37.041976,
      "longitude": 35.259816,
      "dutyStart": "2026-02-27T08:00:00.000Z",
      "dutyEnd": "2026-02-28T08:00:00.000Z"
    },
    {
      "id": "adana-11",
      "name": "KUTBEK TOPALOĞLU ECZANESİ",
      "address": "TOROS MAHALLESİ M.ALİ KIRAC AİLE SAĞLIĞI MERKEZİ YANI TOROS MAH MUHTARLIĞI ARKASI , 03222354222 Harita Konum",
      "phone": "03222354222",
      "district": "Çukurova",
      "city": "Adana",
      "latitude": 37.036357,
      "longitude": 35.301384,
      "dutyStart": "2026-02-27T08:00:00.000Z",
      "dutyEnd": "2026-02-28T08:00:00.000Z"
    },
    {
      "id": "adana-12",
      "name": "GÜLTEKİN ECZANESİ",
      "address": "GÜZELYALI MAHALLESİ T.ÖZAL BUL. 110-D ALTINELLER SÜRÜCÜ KURSU KARŞISI ÜTOPYA KAFE YANI , 03222354944 Harita Konum",
      "phone": "03222354944",
      "district": "Çukurova",
      "city": "Adana",
      "latitude": 37.048076,
      "longitude": 35.296507,
      "dutyStart": "2026-02-27T08:00:00.000Z",
      "dutyEnd": "2026-02-28T08:00:00.000Z"
    },
    {
      "id": "adana-13",
      "name": "FEYZA ECZANESİ",
      "address": "ALPARSLAN TÜRKEŞ BULV.HASAN USTADAN ŞEHİR MERKEZİNE GİDEN METRO YOLU ÜZERİ 500.METREDE HUZUREVLERİ ASM YANI , 03222484977 Harita Konum",
      "phone": "03222484977",
      "district": "Çukurova",
      "city": "Adana",
      "latitude": 37.043036,
      "longitude": 35.283294,
      "dutyStart": "2026-02-27T08:00:00.000Z",
      "dutyEnd": "2026-02-28T08:00:00.000Z"
    },
    {
      "id": "adana-14",
      "name": "MAHMUT SAMİ ECZANESİ",
      "address": "SERİNEVLER MAH. 3884 SOK. MERCİMEKLER PETROL OFİSİ YANI YÜREĞİR DEVLET HASTANESİ ACİL KARŞISI , 03225046024 5050906024 Harita Konum",
      "phone": "03225046024",
      "district": "Yüreği̇r",
      "city": "Adana",
      "latitude": 37.00964435395315,
      "longitude": 35.357667354177764,
      "dutyStart": "2026-02-27T08:00:00.000Z",
      "dutyEnd": "2026-02-28T08:00:00.000Z"
    },
    {
      "id": "adana-15",
      "name": "İNAN ECZANESİ",
      "address": "KOZAN CADDESİ TAHSİLLİ MAH. ALTIN KOZA TIP MERKEZİ POLİKLİNİK BİTİŞİĞİ , 03223242422 Harita Konum",
      "phone": "03223242422",
      "district": "Yüreği̇r",
      "city": "Adana",
      "latitude": 37.000587,
      "longitude": 35.362034,
      "dutyStart": "2026-02-27T08:00:00.000Z",
      "dutyEnd": "2026-02-28T08:00:00.000Z"
    },
    {
      "id": "adana-16",
      "name": "GİZER ECZANESİ",
      "address": "YAMAÇLI MAH. 1000 SOK. ABDULAZİZ COŞKUN TUNCEL ASM YANI , 03223113174 05400032242 Harita Konum",
      "phone": "03223113174",
      "district": "Yüreği̇r",
      "city": "Adana",
      "latitude": 36.975606,
      "longitude": 35.346168,
      "dutyStart": "2026-02-27T08:00:00.000Z",
      "dutyEnd": "2026-02-28T08:00:00.000Z"
    },
    {
      "id": "adana-17",
      "name": "CEBESOY ECZANESİ",
      "address": "PTT EVLERİ YOL KAVŞAĞI İSA ALATAŞ TIP MERKEZİ YANI , 03223287575 Harita Konum",
      "phone": "03223287575",
      "district": "Yüreği̇r",
      "city": "Adana",
      "latitude": 37.011255,
      "longitude": 35.376254,
      "dutyStart": "2026-02-27T08:00:00.000Z",
      "dutyEnd": "2026-02-28T08:00:00.000Z"
    },
    {
      "id": "adana-18",
      "name": "EBRU ECZANESİ",
      "address": "GÜLTEPE MAH. ELİF SU ULUDAĞ CAD.NO:99/A (MERT SÜRÜCÜ KURSU KARŞISI) , 05444793308 03225048530 Harita Konum",
      "phone": "05444793308",
      "district": "Sariçam",
      "city": "Adana",
      "latitude": 37.035534,
      "longitude": 35.395958,
      "dutyStart": "2026-02-27T08:00:00.000Z",
      "dutyEnd": "2026-02-28T08:00:00.000Z"
    },
    {
      "id": "adana-19",
      "name": "BİZİM ECZANESİ",
      "address": "ESENTEPE MAH. DİLEK ATLIĞ CAD. ESKİ SOFULU KÖY YOLU İŞ BANKASI KARŞI CADDESİ SOFULU 3 NOLU ASM KARŞISI , 03223412166 Harita Konum",
      "phone": "03223412166",
      "district": "Sariçam",
      "city": "Adana",
      "latitude": 37.033456,
      "longitude": 35.410441,
      "dutyStart": "2026-02-27T08:00:00.000Z",
      "dutyEnd": "2026-02-28T08:00:00.000Z"
    },
    {
      "id": "adana-20",
      "name": "KAAN ECZANESİ",
      "address": "FEKE İLÇE DEVLET HASTANESİ KARŞI ÇAPRAZI , 03227412706 Harita Konum",
      "phone": "03227412706",
      "district": "Feke",
      "city": "Adana",
      "latitude": 37.816069,
      "longitude": 35.920123,
      "dutyStart": "2026-02-27T08:00:00.000Z",
      "dutyEnd": "2026-02-28T08:00:00.000Z"
    },
    {
      "id": "adana-21",
      "name": "OKUYUCU ECZANESİ",
      "address": "ÇANAKLI MAH. GÜNERİ CAD. NO:178/B 3 NOLU SAĞLIK OCAĞI KARŞISI , 3225156644 Harita Konum",
      "phone": "3225156644",
      "district": "Kozan",
      "city": "Adana",
      "latitude": 37.449997,
      "longitude": 35.79228,
      "dutyStart": "2026-02-27T08:00:00.000Z",
      "dutyEnd": "2026-02-28T08:00:00.000Z"
    },
    {
      "id": "adana-22",
      "name": "YENİÇERİ ECZANESİ",
      "address": "KOZAN DEVLET HASTANESİ POLİKLİNİK KARŞISI FEKE YOLU ÜZERİ , 3225162535 Harita Konum",
      "phone": "3225162535",
      "district": "Kozan",
      "city": "Adana",
      "latitude": 37.466825,
      "longitude": 35.826175,
      "dutyStart": "2026-02-27T08:00:00.000Z",
      "dutyEnd": "2026-02-28T08:00:00.000Z"
    },
    {
      "id": "adana-23",
      "name": "ÖZTÜRK ECZANESİ",
      "address": "POZANTI MERKEZ ASM KARŞISI PAZARTESİ PAZARI SOKAĞI , 03225813121 Harita Konum",
      "phone": "03225813121",
      "district": "Pozanti",
      "city": "Adana",
      "latitude": 37.433653,
      "longitude": 34.873299,
      "dutyStart": "2026-02-27T08:00:00.000Z",
      "dutyEnd": "2026-02-28T08:00:00.000Z"
    },
    {
      "id": "adana-24",
      "name": "ÜMİT ECZANESİ",
      "address": "CUMHURİYET MEYDANI AKBANK KARŞISI , 3228912104 Harita Konum",
      "phone": "3228912104",
      "district": "İmamoğlu",
      "city": "Adana",
      "latitude": 37.257575,
      "longitude": 35.66144,
      "dutyStart": "2026-02-27T08:00:00.000Z",
      "dutyEnd": "2026-02-28T08:00:00.000Z"
    },
    {
      "id": "adana-25",
      "name": "EMRE ECZANESİ",
      "address": "İSTİKLAL MH.GİRNE CD.NO:95/A SAĞLIK OCAĞI YANI , 03227818575 Harita Konum",
      "phone": "03227818575",
      "district": "Tufanbeyli̇",
      "city": "Adana",
      "latitude": 0,
      "longitude": 0,
      "dutyStart": "2026-02-27T08:00:00.000Z",
      "dutyEnd": "2026-02-28T08:00:00.000Z"
    },
    {
      "id": "adana-26",
      "name": "ULAŞ ECZANESİ",
      "address": "ATATÜRK CADDESİ ÇARŞI CAMİİ KARŞISI , 05324876568 03226134178 Harita Konum",
      "phone": "05324876568",
      "district": "Ceyhan",
      "city": "Adana",
      "latitude": 37.029084,
      "longitude": 35.812438,
      "dutyStart": "2026-02-27T08:00:00.000Z",
      "dutyEnd": "2026-02-28T08:00:00.000Z"
    },
    {
      "id": "adana-27",
      "name": "GÖZDE ECZANESİ",
      "address": "ŞAHİN ÖZBİLEN MAHALLESİ OKTAR CİRİT CADDESİ HÜRRİYET ASM KARŞISI , 03226129681 Harita Konum",
      "phone": "03226129681",
      "district": "Ceyhan",
      "city": "Adana",
      "latitude": 37.02676,
      "longitude": 35.819504,
      "dutyStart": "2026-02-27T08:00:00.000Z",
      "dutyEnd": "2026-02-28T08:00:00.000Z"
    },
    {
      "id": "adana-28",
      "name": "SALBAŞ ECZANESİ",
      "address": "PTT KARŞISI , 03225612044 Harita Konum",
      "phone": "03225612044",
      "district": "Ceyhan",
      "city": "Adana",
      "latitude": 37.10995010760612,
      "longitude": 35.11178128466055,
      "dutyStart": "2026-02-27T08:00:00.000Z",
      "dutyEnd": "2026-02-28T08:00:00.000Z"
    },
    {
      "id": "adana-29",
      "name": "YENİ KARAİSALI ECZANESİ",
      "address": "ZİRAAT BANKASI KARŞISI , 03225512078 Harita Konum",
      "phone": "03225512078",
      "district": "Karai̇sali",
      "city": "Adana",
      "latitude": 37.257257,
      "longitude": 35.058475,
      "dutyStart": "2026-02-27T08:00:00.000Z",
      "dutyEnd": "2026-02-28T08:00:00.000Z"
    },
    {
      "id": "adana-30",
      "name": "DEVA ECZANESİ",
      "address": "SAİMBEYLİ KAYMAKAMLIĞI CİVARI , 03227612300 Harita Konum",
      "phone": "03227612300",
      "district": "Sai̇mbeyli̇",
      "city": "Adana",
      "latitude": 37.984965,
      "longitude": 36.089012,
      "dutyStart": "2026-02-27T08:00:00.000Z",
      "dutyEnd": "2026-02-28T08:00:00.000Z"
    },
    {
      "id": "adana-31",
      "name": "ALADAĞ ECZANESİ",
      "address": "ALADAĞ SAĞLIK OCAĞI CİVARI , 03225912641 Harita Konum",
      "phone": "03225912641",
      "district": "Aladağ",
      "city": "Adana",
      "latitude": 37.54732,
      "longitude": 35.395053,
      "dutyStart": "2026-02-27T08:00:00.000Z",
      "dutyEnd": "2026-02-28T08:00:00.000Z"
    },
    {
      "id": "adana-32",
      "name": "AYAS ECZANESİ",
      "address": "BAYRAK DİREĞİ CİVARI ŞOK MARKET YANI , 03226714343 Harita Konum",
      "phone": "03226714343",
      "district": "Yumurtalik",
      "city": "Adana",
      "latitude": 36.775775,
      "longitude": 35.793431,
      "dutyStart": "2026-02-27T08:00:00.000Z",
      "dutyEnd": "2026-02-28T08:00:00.000Z"
    },
    {
      "id": "adana-33",
      "name": "FİLİZİM ECZANESİ",
      "address": "KEMALİYE MAH. ATATÜRK CAD. KARATAŞ SAĞLIK OCAĞI YANI , 3226812272 Harita Konum",
      "phone": "3226812272",
      "district": "Karataş",
      "city": "Adana",
      "latitude": 36.565587,
      "longitude": 35.384141,
      "dutyStart": "2026-02-27T08:00:00.000Z",
      "dutyEnd": "2026-02-28T08:00:00.000Z"
    }
  ]
}