{
  "city": "gaziantep",
  "cityName": "Gaziantep",
  "cityId": 27,
  "date": "2026-02-27",
  "updatedAt": "2026-02-27T13:00:14.544Z",
  "count": 21,
  "pharmacies": [
    {
      "id": "gaziantep-0",
      "name": "NEHİR ECZANESİ",
      "address": "Ünaldı Mah. Hasip Düri Cad. No:56(Ulucanlar Camii Karşısı)",
      "phone": "03422250090",
      "district": "Şahi̇nbey",
      "city": "Gaziantep",
      "latitude": 37.054909,
      "longitude": 37.398628,
      "dutyStart": "2026-02-27T08:30:00.000Z",
      "dutyEnd": "2026-02-28T08:30:00.000Z"
    },
    {
      "id": "gaziantep-1",
      "name": "GÜNEŞ ECZANESI",
      "address": "GÜNEŞ MAHALLESİ 1 NOLU CADDE NO:181/A (ŞEHİT TANER CİNPOLAT SOSYAL TESİSİ CİVARI TAŞKIN SOMUN FIRINI BİTİŞİĞİ)",
      "phone": "03422201955",
      "district": "Şahi̇nbey",
      "city": "Gaziantep",
      "latitude": 37.036133,
      "longitude": 37.36338,
      "dutyStart": "2026-02-27T08:30:00.000Z",
      "dutyEnd": "2026-02-28T08:30:00.000Z"
    },
    {
      "id": "gaziantep-2",
      "name": "FETHI ECZANESI",
      "address": "Düztepe Yaşam Hastanesi Yanı (Düztepe Polis Karakolu Karşısı)",
      "phone": "03422500002",
      "district": "Şahi̇nbey",
      "city": "Gaziantep",
      "latitude": 37.046131,
      "longitude": 37.381065,
      "dutyStart": "2026-02-27T08:30:00.000Z",
      "dutyEnd": "2026-02-28T08:30:00.000Z"
    },
    {
      "id": "gaziantep-3",
      "name": "SEVİLAY FEDAYİ ECZANESİ",
      "address": "Binevler Mahallesi 14 Nolu Cadde No:33 ( Binevler Sağlık ocağı karşısı )",
      "phone": "03423353035",
      "district": "Şahi̇nbey",
      "city": "Gaziantep",
      "latitude": 37.057698,
      "longitude": 37.3335441,
      "dutyStart": "2026-02-27T08:30:00.000Z",
      "dutyEnd": "2026-02-28T08:30:00.000Z"
    },
    {
      "id": "gaziantep-4",
      "name": "KUZUCU ECZANESİ",
      "address": "AKKENT MAH 134016 CAD NO:1BC (Millet Camii Civarı, Ercan Oyuncak Arkası)",
      "phone": "05339787777",
      "district": "Şahi̇nbey",
      "city": "Gaziantep",
      "latitude": 37.01943,
      "longitude": 37.36783,
      "dutyStart": "2026-02-27T08:30:00.000Z",
      "dutyEnd": "2026-02-28T08:30:00.000Z"
    },
    {
      "id": "gaziantep-5",
      "name": "ÇAY ECZANESİ",
      "address": "ŞAHİNTEPE MAH. 133380 NOLU SOKAK ŞİRECİ PLAZA NO:2B/A (OSKA-MEDİANTEP TIP MERKEZİ KARŞISI)",
      "phone": "03429099306",
      "district": "Şahi̇nbey",
      "city": "Gaziantep",
      "latitude": 37.022447,
      "longitude": 37.338689,
      "dutyStart": "2026-02-27T08:30:00.000Z",
      "dutyEnd": "2026-02-28T08:30:00.000Z"
    },
    {
      "id": "gaziantep-6",
      "name": "ANADOLU ECZANESi",
      "address": "Deniz Mh.83039 Nolu Sk.(Üçler Halı Saha Arkası-M.Ali Özkara Asm Yanı)",
      "phone": "03423602004",
      "district": "Şahi̇nbey",
      "city": "Gaziantep",
      "latitude": 37.042194,
      "longitude": 37.330414,
      "dutyStart": "2026-02-27T08:30:00.000Z",
      "dutyEnd": "2026-02-28T08:30:00.000Z"
    },
    {
      "id": "gaziantep-7",
      "name": "Fatoş Bilgin Eczanesi",
      "address": "Şahintepe Mahallesi 133386 nolu cadde No: 12 A/F Şahinbey /Gaziantep Sağlıkçılar sağlık ocağı karşısı Birlik avm ya",
      "phone": "0342503225705010414342",
      "district": "Şahi̇nbey",
      "city": "Gaziantep",
      "latitude": 37.014538,
      "longitude": 37.333744,
      "dutyStart": "2026-02-27T08:30:00.000Z",
      "dutyEnd": "2026-02-28T08:30:00.000Z"
    },
    {
      "id": "gaziantep-8",
      "name": "ANTEPLİOĞLU ECZANESİ",
      "address": "NCR Hastanesi yanı Mücahitler Mahallesi Gazi Muhtar Paşa Caddesi No:52/D",
      "phone": "03423264060",
      "district": "Şehi̇tkami̇l",
      "city": "Gaziantep",
      "latitude": 37.077038,
      "longitude": 37.366867,
      "dutyStart": "2026-02-27T08:30:00.000Z",
      "dutyEnd": "2026-02-28T08:30:00.000Z"
    },
    {
      "id": "gaziantep-9",
      "name": "GÜNEY ECZANESİ",
      "address": "İncilipınar Mahallesi 36020 Nolu sokak No:1/C (Sani Konukoğlu Hastanesi Acil Yanı )",
      "phone": "03423237171",
      "district": "Şehi̇tkami̇l",
      "city": "Gaziantep",
      "latitude": 0,
      "longitude": 0,
      "dutyStart": "2026-02-27T08:30:00.000Z",
      "dutyEnd": "2026-02-28T08:30:00.000Z"
    },
    {
      "id": "gaziantep-10",
      "name": "MAYA ECZANESİ",
      "address": "Olimpik Yüzme Havuzu 1 Km İlerisi-Vedat Topçuoğlu Anadolu Lisesi Sonrası Çevre Yolu Çıkışı",
      "phone": "03429992506",
      "district": "Şehi̇tkami̇l",
      "city": "Gaziantep",
      "latitude": 37.070465,
      "longitude": 37.322841,
      "dutyStart": "2026-02-27T08:30:00.000Z",
      "dutyEnd": "2026-02-28T08:30:00.000Z"
    },
    {
      "id": "gaziantep-11",
      "name": "GÖZÜŞİRİN ECZANESİ",
      "address": "Değirmiçem Mah.Fevzi Çakmak Bulvarı No:40/B (25 ARALIK DEVLET HASTANESİ ACİL ÇIKIŞI KARŞISI)",
      "phone": "03423392212",
      "district": "Şehi̇tkami̇l",
      "city": "Gaziantep",
      "latitude": 37.06583,
      "longitude": 37.361629,
      "dutyStart": "2026-02-27T08:30:00.000Z",
      "dutyEnd": "2026-02-28T08:30:00.000Z"
    },
    {
      "id": "gaziantep-12",
      "name": "TALİP KAYA ECZANESİ",
      "address": "Bekirbey Mahallesi Hamdi Kutlar Caddesi No:195-A/F (Deva Hastanesi Acil Girişi Karşısı)",
      "phone": "03422268196",
      "district": "Şehi̇tkami̇l",
      "city": "Gaziantep",
      "latitude": 37.064159,
      "longitude": 37.395283,
      "dutyStart": "2026-02-27T08:30:00.000Z",
      "dutyEnd": "2026-02-28T08:30:00.000Z"
    },
    {
      "id": "gaziantep-13",
      "name": "PELIN ECZANESİ",
      "address": "Pir Sultan Mahallesi 29036 nolu sokak. No:10/ A (Şehitkamil Devlet Hastanesi Acil Karşısı )",
      "phone": "03422207711",
      "district": "Şehi̇tkami̇l",
      "city": "Gaziantep",
      "latitude": 37.058023,
      "longitude": 37.379981,
      "dutyStart": "2026-02-27T08:30:00.000Z",
      "dutyEnd": "2026-02-28T08:30:00.000Z"
    },
    {
      "id": "gaziantep-14",
      "name": "SEMİH ECZANESİ",
      "address": "Gazikent Burak Mahallesi 06056 Nolu Sokak Şehit Aytaç Baran SP. Altı. No:3 Dükkan 2 (Mis Unlu Mamülleri Arkası)",
      "phone": "05333995332",
      "district": "Şehi̇tkami̇l",
      "city": "Gaziantep",
      "latitude": 37.101875,
      "longitude": 37.430702,
      "dutyStart": "2026-02-27T08:30:00.000Z",
      "dutyEnd": "2026-02-28T08:30:00.000Z"
    },
    {
      "id": "gaziantep-15",
      "name": "DEFNE ECZANESİ",
      "address": "Fatih Sultan Mahallesi Funda Sokağı No:1/A (Hastane Camii Karşısı)",
      "phone": "03425171909",
      "district": "Ni̇zi̇p",
      "city": "Gaziantep",
      "latitude": 37.008961,
      "longitude": 37.801627,
      "dutyStart": "2026-02-27T08:30:00.000Z",
      "dutyEnd": "2026-02-28T08:30:00.000Z"
    },
    {
      "id": "gaziantep-16",
      "name": "KEMAL ÇOBAN ECZANESİ",
      "address": "Yeşilova Mahallesi Gaziantep Caddesi No:84/B",
      "phone": "03426112750",
      "district": "Araban",
      "city": "Gaziantep",
      "latitude": 37.424587,
      "longitude": 37.683918,
      "dutyStart": "2026-02-27T08:30:00.000Z",
      "dutyEnd": "2026-02-28T08:30:00.000Z"
    },
    {
      "id": "gaziantep-17",
      "name": "YENİ ECZANESİ",
      "address": "Fatih Mahallesi Numan Durak Aksoy Caddesi No:97 İç Kapı No:A",
      "phone": "05324929636",
      "district": "Oğuzeli̇",
      "city": "Gaziantep",
      "latitude": 37.06675232813354,
      "longitude": 37.38321304321289,
      "dutyStart": "2026-02-27T08:30:00.000Z",
      "dutyEnd": "2026-02-28T08:30:00.000Z"
    },
    {
      "id": "gaziantep-18",
      "name": "Zeliş Eczanesi",
      "address": "Erenler mahallesi Gaziantep Bulvarı No:139/B Devlet hastanesi yanı",
      "phone": "05468039060",
      "district": "İslahi̇ye",
      "city": "Gaziantep",
      "latitude": 37.06675232813354,
      "longitude": 37.38321304321289,
      "dutyStart": "2026-02-27T08:30:00.000Z",
      "dutyEnd": "2026-02-28T08:30:00.000Z"
    },
    {
      "id": "gaziantep-19",
      "name": "ELİF ECZANESİ",
      "address": "Bahçelievler Mahallesi Hilmi Kutlubay Caddesi No:57/25",
      "phone": "",
      "district": "Nurdaği",
      "city": "Gaziantep",
      "latitude": 37.06675232813354,
      "longitude": 37.38321304321289,
      "dutyStart": "2026-02-27T08:30:00.000Z",
      "dutyEnd": "2026-02-28T08:30:00.000Z"
    },
    {
      "id": "gaziantep-20",
      "name": "ANKA ECZANESİ",
      "address": "Sultan Selim Mahallesi Araban Caddesi No:42B/BA YAVUZELİ",
      "phone": "05459703250",
      "district": "Yavuzeli̇",
      "city": "Gaziantep",
      "latitude": 37.06675232813354,
      "longitude": 37.38321304321289,
      "dutyStart": "2026-02-27T08:30:00.000Z",
      "dutyEnd": "2026-02-28T08:30:00.000Z"
    }
  ]
}