{
  "city": "kocaeli",
  "cityName": "Kocaeli",
  "cityId": 41,
  "date": "2026-02-27",
  "updatedAt": "2026-02-27T01:30:55.702Z",
  "count": 20,
  "pharmacies": [
    {
      "id": "kocaeli-0",
      "name": "UYGUN ECZANESİ",
      "address": "ÖMERAĞA MAH.ISTIKLAL CAD. BELSA SOK. NO:24 İZMİT",
      "phone": "02623237840",
      "district": "İzmit",
      "city": "Kocaeli",
      "latitude": 40.764889,
      "longitude": 29.928784,
      "dutyStart": "2026-02-27T08:30:00.000Z",
      "dutyEnd": "2026-02-28T08:30:00.000Z"
    },
    {
      "id": "kocaeli-1",
      "name": "ASLI ECZANESİ",
      "address": "CEDIT MAH. BULVAR CAD. MUZAFFER FIDAN SOK. NO:4/A İZMİT",
      "phone": "02623230142",
      "district": "İzmit",
      "city": "Kocaeli",
      "latitude": 40.765792,
      "longitude": 29.93912,
      "dutyStart": "2026-02-27T08:30:00.000Z",
      "dutyEnd": "2026-02-28T08:30:00.000Z"
    },
    {
      "id": "kocaeli-2",
      "name": "SUNGU ECZANESİ",
      "address": "BEKİRPAŞA MAH. TURAN GÜNEŞ CD. NO:230 İZMİT",
      "phone": "02623210275",
      "district": "İzmit",
      "city": "Kocaeli",
      "latitude": 40.772338,
      "longitude": 29.951276,
      "dutyStart": "2026-02-27T08:30:00.000Z",
      "dutyEnd": "2026-02-28T08:30:00.000Z"
    },
    {
      "id": "kocaeli-3",
      "name": "HALE ECZANESİ",
      "address": "KURUÇEŞME FATİH MAH. BARIŞ CAD. NO:45/C İZMİT",
      "phone": "02622260025",
      "district": "İzmit",
      "city": "Kocaeli",
      "latitude": 40.765027,
      "longitude": 29.872665,
      "dutyStart": "2026-02-27T08:30:00.000Z",
      "dutyEnd": "2026-02-28T08:30:00.000Z"
    },
    {
      "id": "kocaeli-4",
      "name": "NERGİS ECZANESİ",
      "address": "KABAOGLU MAH. PROF.DR. BAKI KOMSUOGLU BULVARI RMA İŞ MERKEZİ 495/5 İZMİT",
      "phone": "02623591100",
      "district": "İzmit",
      "city": "Kocaeli",
      "latitude": 40.822875,
      "longitude": 29.927803,
      "dutyStart": "2026-02-27T08:30:00.000Z",
      "dutyEnd": "2026-02-28T08:30:00.000Z"
    },
    {
      "id": "kocaeli-5",
      "name": "EDA ECZANESİ",
      "address": "FATİH MAH.CUMHURİYET CAD.MANAR 3 SİTESİ A BLOK NO:151 AA",
      "phone": "05539452440",
      "district": "Başiskele",
      "city": "Kocaeli",
      "latitude": 40.696436,
      "longitude": 29.973531,
      "dutyStart": "2026-02-27T08:30:00.000Z",
      "dutyEnd": "2026-02-28T08:30:00.000Z"
    },
    {
      "id": "kocaeli-6",
      "name": "DORUK ECZANESİ",
      "address": "YENİ MAH.MENDERES CAD.NO:71/A ÇAYIROVA",
      "phone": "05461183292",
      "district": "Çayırova",
      "city": "Kocaeli",
      "latitude": 40.824452,
      "longitude": 29.368879,
      "dutyStart": "2026-02-27T08:30:00.000Z",
      "dutyEnd": "2026-02-28T08:30:00.000Z"
    },
    {
      "id": "kocaeli-7",
      "name": "PALMİYE ECZANESİ",
      "address": "OSMANGAZİ MAH.FATİH SULTAN MEHMET CAD.NO:115/C",
      "phone": "02626564666",
      "district": "Darıca",
      "city": "Kocaeli",
      "latitude": 40.79003,
      "longitude": 29.367099,
      "dutyStart": "2026-02-27T08:30:00.000Z",
      "dutyEnd": "2026-02-28T08:30:00.000Z"
    },
    {
      "id": "kocaeli-8",
      "name": "SEMİH ECZANESİ",
      "address": "ABDI IPEKÇI MAH. 1542/2 SOK. NO: 4/A DARICA",
      "phone": "02626560015",
      "district": "Kartepe",
      "city": "Kocaeli",
      "latitude": 40.782396,
      "longitude": 29.406945,
      "dutyStart": "2026-02-27T08:30:00.000Z",
      "dutyEnd": "2026-02-28T08:30:00.000Z"
    },
    {
      "id": "kocaeli-9",
      "name": "SÜMER ECZANESİ",
      "address": "ACISU MAH.SAPANCAYOLU CAD.NO:428/D KARTEPE",
      "phone": "02623534636",
      "district": "Gebze",
      "city": "Kocaeli",
      "latitude": 40.717638,
      "longitude": 30.11267,
      "dutyStart": "2026-02-27T08:30:00.000Z",
      "dutyEnd": "2026-02-28T08:30:00.000Z"
    },
    {
      "id": "kocaeli-10",
      "name": "ÖZGÜR ECZANESİ",
      "address": "SULTAN ORHAN MAH. ILYASBEY CAD. 1112 SOK. NO:10/A GEBZE",
      "phone": "02626431123",
      "district": "Gebze",
      "city": "Kocaeli",
      "latitude": 40.799697,
      "longitude": 29.439931,
      "dutyStart": "2026-02-27T08:30:00.000Z",
      "dutyEnd": "2026-02-28T08:30:00.000Z"
    },
    {
      "id": "kocaeli-11",
      "name": "SARA ECZANESİ",
      "address": "ARAPÇEŞME MAH. KAVAK CAD. NO:14/B",
      "phone": "05449031744",
      "district": "Gebze",
      "city": "Kocaeli",
      "latitude": 40.80436,
      "longitude": 29.440659,
      "dutyStart": "2026-02-27T08:30:00.000Z",
      "dutyEnd": "2026-02-28T08:30:00.000Z"
    },
    {
      "id": "kocaeli-12",
      "name": "YENİ GÜNEŞ ECZANESİ",
      "address": "KÖŞKLÜÇEŞME MAH. 539/1 CAD. NO:6/A GEBZE",
      "phone": "02626463337",
      "district": "Gölcük",
      "city": "Kocaeli",
      "latitude": 40.796303,
      "longitude": 29.415507,
      "dutyStart": "2026-02-27T08:30:00.000Z",
      "dutyEnd": "2026-02-28T08:30:00.000Z"
    },
    {
      "id": "kocaeli-13",
      "name": "İNCİ ECZANESİ",
      "address": "YENİ MAH. 288 SOK. NO:2/A GÖLCÜK",
      "phone": "02624125743",
      "district": "Gölcük",
      "city": "Kocaeli",
      "latitude": 40.714586,
      "longitude": 29.816186,
      "dutyStart": "2026-02-27T08:30:00.000Z",
      "dutyEnd": "2026-02-28T08:30:00.000Z"
    },
    {
      "id": "kocaeli-14",
      "name": "GÜLTEN ECZANESİ",
      "address": "DEGIRMENDERE MERKEZ MAH. PLEVNE CAD. NO: 6/A",
      "phone": "02624266364",
      "district": "Gölcük",
      "city": "Kocaeli",
      "latitude": 40.720319,
      "longitude": 29.793593,
      "dutyStart": "2026-02-27T08:30:00.000Z",
      "dutyEnd": "2026-02-28T08:30:00.000Z"
    },
    {
      "id": "kocaeli-15",
      "name": "ALTINKESER ECZANESİ",
      "address": "ÇİFTLİK MAH.4180.SOKAK NO:2/A /GÖLCÜK",
      "phone": "02624358545",
      "district": "Kandıra",
      "city": "Kocaeli",
      "latitude": 40.705321,
      "longitude": 29.846662,
      "dutyStart": "2026-02-27T08:30:00.000Z",
      "dutyEnd": "2026-02-28T08:30:00.000Z"
    },
    {
      "id": "kocaeli-16",
      "name": "ŞİFA ECZANESİ",
      "address": "ÇARŞI MAH.CUMHURİYET CAD.GÖKTAŞLAR İŞHANI NO:14/B KANDIRA",
      "phone": "02625515557",
      "district": "Karamürsel",
      "city": "Kocaeli",
      "latitude": 41.069138,
      "longitude": 30.152903,
      "dutyStart": "2026-02-27T08:30:00.000Z",
      "dutyEnd": "2026-02-28T08:30:00.000Z"
    },
    {
      "id": "kocaeli-17",
      "name": "4 TEMMUZ ECZANESİ",
      "address": "4 TEMMUZ MAH.PARK CAD.NO:12/A",
      "phone": "02624527478",
      "district": "Körfez",
      "city": "Kocaeli",
      "latitude": 40.693439,
      "longitude": 29.619468,
      "dutyStart": "2026-02-27T08:30:00.000Z",
      "dutyEnd": "2026-02-28T08:30:00.000Z"
    },
    {
      "id": "kocaeli-18",
      "name": "TÜTÜNÇİFTLİK ECZANESİ",
      "address": "GÜNEY MAH.TUĞRUL CAD.NO:13/B",
      "phone": "02625271009",
      "district": "Derince",
      "city": "Kocaeli",
      "latitude": 40.761605,
      "longitude": 29.786522,
      "dutyStart": "2026-02-27T08:30:00.000Z",
      "dutyEnd": "2026-02-28T08:30:00.000Z"
    },
    {
      "id": "kocaeli-19",
      "name": "MARMARA ECZANESİ",
      "address": "YENİKENT MAH.HAYAL SOK.AHMET YESEVİ CAMİ NO:17/C DERİNCE",
      "phone": "05054954041",
      "district": "İzmit",
      "city": "Kocaeli",
      "latitude": 40.780858,
      "longitude": 29.811152,
      "dutyStart": "2026-02-27T08:30:00.000Z",
      "dutyEnd": "2026-02-28T08:30:00.000Z"
    }
  ]
}