{
  "city": "sinop",
  "cityName": "Sinop",
  "cityId": 57,
  "date": "2026-02-27",
  "updatedAt": "2026-02-27T11:00:19.390Z",
  "count": 6,
  "pharmacies": [
    {
      "id": "sinop-20",
      "name": "ADA  ECZANESİ",
      "address": "KEFEVI MAH.OKULLAR CADDESI NO:28/A",
      "phone": "03682600805",
      "district": "Merkez",
      "city": "Sinop",
      "latitude": 42.029009,
      "longitude": 35.156555,
      "dutyStart": "2026-02-27T08:30:00.000Z",
      "dutyEnd": "2026-02-28T08:30:00.000Z"
    },
    {
      "id": "sinop-21",
      "name": "ÖNSOY  ECZANESİ",
      "address": "YALI MAH. KÖPRÜBAŞI CAD. 39/C",
      "phone": "03686131203",
      "district": "Ayancık",
      "city": "Sinop",
      "latitude": 41.944466,
      "longitude": 34.587336,
      "dutyStart": "2026-02-27T08:30:00.000Z",
      "dutyEnd": "2026-02-28T08:30:00.000Z"
    },
    {
      "id": "sinop-22",
      "name": "ESRA  ECZANESİ",
      "address": "ÇAMLICA MAH.EROL DEMİRKOL CAD.NO:2",
      "phone": "03683157635",
      "district": "Boyabat",
      "city": "Sinop",
      "latitude": 41.463436,
      "longitude": 34.783548,
      "dutyStart": "2026-02-27T08:30:00.000Z",
      "dutyEnd": "2026-02-28T08:30:00.000Z"
    },
    {
      "id": "sinop-23",
      "name": "TEK ECZANESİ",
      "address": "MERKEZ MAH. YUSUF KEMAL TENGİRŞEK CAD. NO:28/A",
      "phone": "03684161152",
      "district": "Durağan",
      "city": "Sinop",
      "latitude": 41.419541,
      "longitude": 35.053398,
      "dutyStart": "2026-02-27T08:30:00.000Z",
      "dutyEnd": "2026-02-28T08:30:00.000Z"
    },
    {
      "id": "sinop-24",
      "name": "ŞİFA ECZANESİ",
      "address": "MERKEZ MAH. CUMHURİYET CAD. NO:2",
      "phone": "03685112115",
      "district": "Erfelek",
      "city": "Sinop",
      "latitude": 41.879563,
      "longitude": 34.907843,
      "dutyStart": "2026-02-27T08:30:00.000Z",
      "dutyEnd": "2026-02-28T08:30:00.000Z"
    },
    {
      "id": "sinop-25",
      "name": "YENİCE  ECZANESİ",
      "address": "HAMİDİYE MAH.VATAN BULVARI NO:38/A",
      "phone": "03687184885",
      "district": "Gerze",
      "city": "Sinop",
      "latitude": 41.804071,
      "longitude": 35.195071,
      "dutyStart": "2026-02-27T08:30:00.000Z",
      "dutyEnd": "2026-02-28T08:30:00.000Z"
    }
  ]
}