{
  "city": "mersin",
  "cityName": "Mersin",
  "cityId": 33,
  "date": "2026-03-02",
  "updatedAt": "2026-03-02T05:30:02.383Z",
  "count": 23,
  "pharmacies": [
    {
      "id": "mersin-0",
      "name": "BİLGEN ECZANESİ",
      "address": "KURDALİ MH. MERSİNLİ AHMET BULV. NO:63",
      "phone": "03243206383",
      "district": "Toroslar",
      "city": "Mersin",
      "latitude": 36.825996,
      "longitude": 34.622559,
      "dutyStart": "2026-03-02T08:30:00.000Z",
      "dutyEnd": "2026-03-03T08:30:00.000Z"
    },
    {
      "id": "mersin-1",
      "name": "DOST ECZANESİ",
      "address": "EĞRİÇAM MAH. GAZİ MUSTAFA KEMAL BULV. NO:568/B",
      "phone": "03249994030",
      "district": "Yeni̇şehi̇r",
      "city": "Mersin",
      "latitude": 36.770995,
      "longitude": 34.562242,
      "dutyStart": "2026-03-02T08:30:00.000Z",
      "dutyEnd": "2026-03-03T08:30:00.000Z"
    },
    {
      "id": "mersin-2",
      "name": "EFE ECZANESİ",
      "address": "YENİ MH. 5314 SK. NO:12",
      "phone": "03242388215",
      "district": "Akdeni̇z",
      "city": "Mersin",
      "latitude": 36.807288,
      "longitude": 34.635176,
      "dutyStart": "2026-03-02T08:30:00.000Z",
      "dutyEnd": "2026-03-03T08:30:00.000Z"
    },
    {
      "id": "mersin-3",
      "name": "KALEYOLU ECZANESİ",
      "address": "YENİ MH. KELVELİ CD. NO: 11/A",
      "phone": "03243592067",
      "district": "Mezi̇tli̇",
      "city": "Mersin",
      "latitude": 36.757277,
      "longitude": 34.536845,
      "dutyStart": "2026-03-02T08:30:00.000Z",
      "dutyEnd": "2026-03-03T08:30:00.000Z"
    },
    {
      "id": "mersin-4",
      "name": "ÖZGÜN ECZANESİ",
      "address": "GÜVENEVLER MAH.1.CADDE NO:13",
      "phone": "03243250192",
      "district": "Yeni̇şehi̇r",
      "city": "Mersin",
      "latitude": 36.785809,
      "longitude": 34.592885,
      "dutyStart": "2026-03-02T08:30:00.000Z",
      "dutyEnd": "2026-03-03T08:30:00.000Z"
    },
    {
      "id": "mersin-5",
      "name": "SAĞLIK ECZANESİ",
      "address": "MESUDİYE MH. ÇAKMAK CD. NO:79/A",
      "phone": "03242323882",
      "district": "Akdeni̇z",
      "city": "Mersin",
      "latitude": 36.807054,
      "longitude": 34.628214,
      "dutyStart": "2026-03-02T08:30:00.000Z",
      "dutyEnd": "2026-03-03T08:30:00.000Z"
    },
    {
      "id": "mersin-6",
      "name": "ULAŞ ECZANESİ",
      "address": "CUMHURİYET MH. 1671 SK. ZEYTİN EVLERİ A BLOK NO:3AB",
      "phone": "05055073133",
      "district": "Yeni̇şehi̇r",
      "city": "Mersin",
      "latitude": 36.787549,
      "longitude": 34.602377,
      "dutyStart": "2026-03-02T08:30:00.000Z",
      "dutyEnd": "2026-03-03T08:30:00.000Z"
    },
    {
      "id": "mersin-7",
      "name": "VİLDAN ECZANESİ",
      "address": "MERKEZ MAH. 52136 SOK. ÜÇBAL SİTESİ C BLOK NO:19 (1E)",
      "phone": "03249991577",
      "district": "Mezi̇tli̇",
      "city": "Mersin",
      "latitude": 36.738111,
      "longitude": 34.516554,
      "dutyStart": "2026-03-02T08:30:00.000Z",
      "dutyEnd": "2026-03-03T08:30:00.000Z"
    },
    {
      "id": "mersin-8",
      "name": "YAMAÇ ECZANESİ",
      "address": "ÇANKAYA MAH.123.CAD.NO: 11/A",
      "phone": "03242333656",
      "district": "Akdeni̇z",
      "city": "Mersin",
      "latitude": 36.79905,
      "longitude": 34.6267,
      "dutyStart": "2026-03-02T08:30:00.000Z",
      "dutyEnd": "2026-03-03T08:30:00.000Z"
    },
    {
      "id": "mersin-9",
      "name": "YİĞİT ECZANESİ",
      "address": "YALINAYAK MH. ATATÜRK CD. GÜLCE APT. NO:3/B",
      "phone": "03244200444",
      "district": "Toroslar",
      "city": "Mersin",
      "latitude": 36.845664,
      "longitude": 34.634054,
      "dutyStart": "2026-03-02T08:30:00.000Z",
      "dutyEnd": "2026-03-03T08:30:00.000Z"
    },
    {
      "id": "mersin-10",
      "name": "DERMAN ECZANESİ",
      "address": "TEKKE MH.TÜRKMENİSTAN CD. NO:58CH",
      "phone": "03246240015",
      "district": "Tarsus",
      "city": "Mersin",
      "latitude": 36.914223,
      "longitude": 34.912423,
      "dutyStart": "2026-03-02T08:30:00.000Z",
      "dutyEnd": "2026-03-03T08:30:00.000Z"
    },
    {
      "id": "mersin-11",
      "name": "GANNEMOĞLU ECZANESİ",
      "address": "ÖGRETMENLER MAH. DUMLUPINAR BULV. NO: 2/1F",
      "phone": "03246140036",
      "district": "Tarsus",
      "city": "Mersin",
      "latitude": 36.909128,
      "longitude": 34.883143,
      "dutyStart": "2026-03-02T08:30:00.000Z",
      "dutyEnd": "2026-03-03T08:30:00.000Z"
    },
    {
      "id": "mersin-12",
      "name": "GÜLEÇ ECZANESİ",
      "address": "Fevzi Çakmak Mh. Mehmet Reşat Karamehmet Sk. No:6",
      "phone": "03246133637",
      "district": "Tarsus",
      "city": "Mersin",
      "latitude": 36.92432,
      "longitude": 34.904585,
      "dutyStart": "2026-03-02T08:30:00.000Z",
      "dutyEnd": "2026-03-03T08:30:00.000Z"
    },
    {
      "id": "mersin-13",
      "name": "GÜLŞAH ECZANESİ",
      "address": "KIRKLARSIRTI MAH.CELAL BAYAR CAD.NO:31",
      "phone": "03246271355",
      "district": "Tarsus",
      "city": "Mersin",
      "latitude": 36.940593,
      "longitude": 34.87238,
      "dutyStart": "2026-03-02T08:30:00.000Z",
      "dutyEnd": "2026-03-03T08:30:00.000Z"
    },
    {
      "id": "mersin-14",
      "name": "SOLDAN ECZANESİ",
      "address": "GÖKSU MAH. ATATÜRK BULV.TINAZ SİT. NO:11/D",
      "phone": "03247145296",
      "district": "Si̇li̇fke",
      "city": "Mersin",
      "latitude": 36.380388,
      "longitude": 33.927822,
      "dutyStart": "2026-03-02T08:30:00.000Z",
      "dutyEnd": "2026-03-03T08:30:00.000Z"
    },
    {
      "id": "mersin-15",
      "name": "TAŞUCU ECZANESİ",
      "address": "TAŞUCU MAH. İSMET İNÖNÜ CAD. NO:16/1",
      "phone": "03247414986",
      "district": "Si̇li̇fke",
      "city": "Mersin",
      "latitude": 36.319314,
      "longitude": 33.879849,
      "dutyStart": "2026-03-02T08:30:00.000Z",
      "dutyEnd": "2026-03-03T08:30:00.000Z"
    },
    {
      "id": "mersin-16",
      "name": "GÜVEN ECZANESİ",
      "address": "DOĞANCI MAH.HÜKÜMET CAD.NO:13",
      "phone": "03247742450",
      "district": "Mut",
      "city": "Mersin",
      "latitude": 36.643654,
      "longitude": 33.43713,
      "dutyStart": "2026-03-02T08:30:00.000Z",
      "dutyEnd": "2026-03-03T08:30:00.000Z"
    },
    {
      "id": "mersin-17",
      "name": "ARIKAN ECZANESİ",
      "address": "SARAY MAH.DEMİROLUK CAD.NO:4/5",
      "phone": "03247517282",
      "district": "Gülnar",
      "city": "Mersin",
      "latitude": 36.338381,
      "longitude": 33.40337,
      "dutyStart": "2026-03-02T08:30:00.000Z",
      "dutyEnd": "2026-03-03T08:30:00.000Z"
    },
    {
      "id": "mersin-18",
      "name": "MELTEM ECZANESİ",
      "address": "MERKEZ MH. ABDURRAHMAN ŞEVK CD. NO:18/D",
      "phone": "05015522907",
      "district": "Erdemli̇",
      "city": "Mersin",
      "latitude": 36.604774,
      "longitude": 34.313548,
      "dutyStart": "2026-03-02T08:30:00.000Z",
      "dutyEnd": "2026-03-03T08:30:00.000Z"
    },
    {
      "id": "mersin-19",
      "name": "ÜMİT ECZANESİ",
      "address": "Akdeniz Mh. Kazım Karabekir Cd. Annem Evleri Zemin Kat No:49/D",
      "phone": "03245153233",
      "district": "Erdemli̇",
      "city": "Mersin",
      "latitude": 36.608911,
      "longitude": 34.303623,
      "dutyStart": "2026-03-02T08:30:00.000Z",
      "dutyEnd": "2026-03-03T08:30:00.000Z"
    },
    {
      "id": "mersin-20",
      "name": "SAĞLIK ECZANESİ",
      "address": "MERKEZ MAH SAĞLIK CAD.NO:1",
      "phone": "03248514969",
      "district": "Bozyazi",
      "city": "Mersin",
      "latitude": 36.105681,
      "longitude": 32.970258,
      "dutyStart": "2026-03-02T08:30:00.000Z",
      "dutyEnd": "2026-03-03T08:30:00.000Z"
    },
    {
      "id": "mersin-21",
      "name": "AYDINCIK ECZANESİ",
      "address": "CUMHURİYET MH. HASTANE CD. NO:7/A",
      "phone": "03248414112",
      "district": "Aydincik",
      "city": "Mersin",
      "latitude": 36.152857,
      "longitude": 33.339241,
      "dutyStart": "2026-03-02T08:30:00.000Z",
      "dutyEnd": "2026-03-03T08:30:00.000Z"
    },
    {
      "id": "mersin-22",
      "name": "SİNANOĞLU ECZANESİ",
      "address": "SARAY MAH.BANKALAR CAD.NO.81",
      "phone": "03248141256",
      "district": "Anamur",
      "city": "Mersin",
      "latitude": 36.079187,
      "longitude": 32.830054,
      "dutyStart": "2026-03-02T08:30:00.000Z",
      "dutyEnd": "2026-03-03T08:30:00.000Z"
    }
  ]
}