{
  "city": "adana",
  "cityName": "Adana",
  "cityId": 1,
  "date": "2026-02-22",
  "updatedAt": "2026-02-22T14:30:46.439Z",
  "count": 34,
  "pharmacies": [
    {
      "id": "adana-0",
      "name": "SUNAM ECZANESİ",
      "address": "ŞAKİRPAŞA SAĞLIK OCAĞI KARŞISI ÖMÜR TIP MERKEZİ ARKASI , 03224330093 Harita Konum",
      "phone": "03224330093",
      "district": "Seyhan",
      "city": "Adana",
      "latitude": 36.987423,
      "longitude": 35.27294,
      "dutyStart": "2026-02-22T08:00:00.000Z",
      "dutyEnd": "2026-02-23T08:00:00.000Z"
    },
    {
      "id": "adana-1",
      "name": "FEHİMAN ECZANESİ",
      "address": "ATATÜRK CAD. NO.40 SABANCI KIZ MESLEK LİSESİ CİVARI , 03224578330 05332784883 Harita Konum",
      "phone": "03224578330",
      "district": "Seyhan",
      "city": "Adana",
      "latitude": 36.995886,
      "longitude": 35.325092,
      "dutyStart": "2026-02-22T08:00:00.000Z",
      "dutyEnd": "2026-02-23T08:00:00.000Z"
    },
    {
      "id": "adana-2",
      "name": "ÜNLÜ ECZANESİ",
      "address": "DEMETEVLER MAH.M.AKİF ERSOY CAD.NO:49/A(YEŞİLEVLER,EMİN DONDURMA KARŞISI,ESKİ HAYAT TIP MERKEZİ 50.MT İLERİSİ) , 05453228658 Harita Konum",
      "phone": "05453228658",
      "district": "Seyhan",
      "city": "Adana",
      "latitude": 36.99964,
      "longitude": 35.288107,
      "dutyStart": "2026-02-22T08:00:00.000Z",
      "dutyEnd": "2026-02-23T08:00:00.000Z"
    },
    {
      "id": "adana-3",
      "name": "EVİN ECZANESİ",
      "address": "GÜLBAHÇESİ MAH. OBALAR CAD. NO: 581/A GÜLBAHÇESİ SAĞLIK OCAĞI KARŞISI , 03224320013 Harita Konum",
      "phone": "03224320013",
      "district": "Seyhan",
      "city": "Adana",
      "latitude": 36.975736,
      "longitude": 35.286963,
      "dutyStart": "2026-02-22T08:00:00.000Z",
      "dutyEnd": "2026-02-23T08:00:00.000Z"
    },
    {
      "id": "adana-4",
      "name": "TOROS ECZANESİ",
      "address": "CEMALPAŞA MAH. TOROS CAD. KAZIM BÜFE 200 M İLERİSİ, DENTAL DİŞ HASTANESİ KARŞISI , 05059329575 Harita Konum",
      "phone": "05059329575",
      "district": "Seyhan",
      "city": "Adana",
      "latitude": 37.001884,
      "longitude": 35.329071,
      "dutyStart": "2026-02-22T08:00:00.000Z",
      "dutyEnd": "2026-02-23T08:00:00.000Z"
    },
    {
      "id": "adana-5",
      "name": "DOST ECZANESİ",
      "address": "TELLİDERE MAH. 72081 SK. NO:13 TELLİDERE SAĞLIK OCAĞI KARŞISI KARABULUT MOBİLYA ARASI , 03222257474 Harita Konum",
      "phone": "03222257474",
      "district": "Seyhan",
      "city": "Adana",
      "latitude": 37.022583,
      "longitude": 35.293787,
      "dutyStart": "2026-02-22T08:00:00.000Z",
      "dutyEnd": "2026-02-23T08:00:00.000Z"
    },
    {
      "id": "adana-6",
      "name": "POYRAZ ECZANESİ",
      "address": "SÜMER MAH. ŞEHİT YÜZBAŞI BÜLENT ANGIN BULV. NO:67/C BARAJYOLU HASAN USTA KEBAP KARŞISI(SEYHAN DEVLET HASTANESİ CİVARI) , 03222269585 Harita Konum",
      "phone": "03222269585",
      "district": "Seyhan",
      "city": "Adana",
      "latitude": 0,
      "longitude": 0,
      "dutyStart": "2026-02-22T08:00:00.000Z",
      "dutyEnd": "2026-02-23T08:00:00.000Z"
    },
    {
      "id": "adana-7",
      "name": "ORHAN ECZANESİ",
      "address": "HASTANELER KAVŞAĞI PARK PLAZA OTEL VE YAPI KREDİ BANKASINA VARMADAN SAĞDA NO:69/B , 03224586902 Harita Konum",
      "phone": "03224586902",
      "district": "Seyhan",
      "city": "Adana",
      "latitude": 37.013768,
      "longitude": 35.322305,
      "dutyStart": "2026-02-22T08:00:00.000Z",
      "dutyEnd": "2026-02-23T08:00:00.000Z"
    },
    {
      "id": "adana-8",
      "name": "YENİ AKŞAM ECZANESİ",
      "address": "OBALAR CADDESİ KOCAVEZİR MAH. ŞIRDANCI BEDONUN ARKASI SEYHAN TAPU MÜDÜRLÜĞÜ ÇAPRAZI ÖNDERLER DOLMUŞ DURAĞI YANI , 03223650353 Harita Konum",
      "phone": "03223650353",
      "district": "Seyhan",
      "city": "Adana",
      "latitude": 36.983098,
      "longitude": 35.321839,
      "dutyStart": "2026-02-22T08:00:00.000Z",
      "dutyEnd": "2026-02-23T08:00:00.000Z"
    },
    {
      "id": "adana-9",
      "name": "NİLÜFER ECZANESİ",
      "address": "GÜRSELPAŞA 1 NOLU (ROTARY) SAĞLIK OCAĞI ÇAPRAZI YEŞİLEVLER ENDÜSTRİ MESLEK LİSESİ İLERİSİ ŞOK MARKET YANI , 03222610418 Harita Konum",
      "phone": "03222610418",
      "district": "Seyhan",
      "city": "Adana",
      "latitude": 37.013301,
      "longitude": 35.27953,
      "dutyStart": "2026-02-22T08:00:00.000Z",
      "dutyEnd": "2026-02-23T08:00:00.000Z"
    },
    {
      "id": "adana-10",
      "name": "MERCAN ECZANESİ",
      "address": "100.YIL MAH. FAZLI METO BULV.(POLİS KRİMİNAL MERKEZİNİN OLDUĞU BULVAR) UZUNLAR TOWER BABAOĞUL DÖNER VE MARKA DÜNYASI KARŞISI , 03225044243 Harita Konum",
      "phone": "03225044243",
      "district": "Çukurova",
      "city": "Adana",
      "latitude": 37.03558306072855,
      "longitude": 35.251264565818275,
      "dutyStart": "2026-02-22T08:00:00.000Z",
      "dutyEnd": "2026-02-23T08:00:00.000Z"
    },
    {
      "id": "adana-11",
      "name": "CADDE 322 ECZANESİ",
      "address": "KENAN EVREN BULVARIYLA BARIŞ MANÇO BULVARI KESİŞİMİ DERMANCAN TIP MERKEZİ YENİ YERİ 50 MT KUZEYİ(YUKARISI) , 03222340606 05547909006 Harita Konum",
      "phone": "03222340606",
      "district": "Çukurova",
      "city": "Adana",
      "latitude": 37.04680150652321,
      "longitude": 35.299174525181236,
      "dutyStart": "2026-02-22T08:00:00.000Z",
      "dutyEnd": "2026-02-23T08:00:00.000Z"
    },
    {
      "id": "adana-12",
      "name": "AYÇA ANDAÇ ECZANESİ",
      "address": "TURGUT ÖZAL BULVARI KAYA PERDE KARŞISI GRATİS VE ÖZERCİYES KURUYEMİŞ YANI ESKİ DERMANCAN TIP MERKEZİ CİVARI , 03224229515 Harita Konum",
      "phone": "03224229515",
      "district": "Çukurova",
      "city": "Adana",
      "latitude": 37.048823,
      "longitude": 35.285378,
      "dutyStart": "2026-02-22T08:00:00.000Z",
      "dutyEnd": "2026-02-23T08:00:00.000Z"
    },
    {
      "id": "adana-13",
      "name": "SERKAN ECZANESİ",
      "address": "AHMET SAPMAZ BULVARI TOROS MAHALLE MUHTARLIĞI KARŞISI MEHMET ALİ KIRAÇ ASM YANI , 03222313121 Harita Konum",
      "phone": "03222313121",
      "district": "Çukurova",
      "city": "Adana",
      "latitude": 37.036476,
      "longitude": 35.301818,
      "dutyStart": "2026-02-22T08:00:00.000Z",
      "dutyEnd": "2026-02-23T08:00:00.000Z"
    },
    {
      "id": "adana-14",
      "name": "SABAHLAR ECZANESİ",
      "address": "GÜNEŞLİ MAH. 538 SOK. 7/A YAMAÇLI SAĞLIK OCAĞI KARŞISI(1000 SOKAK CİVARI) , 03223114343 Harita Konum",
      "phone": "03223114343",
      "district": "Yüreği̇r",
      "city": "Adana",
      "latitude": 36.975718,
      "longitude": 35.346179,
      "dutyStart": "2026-02-22T08:00:00.000Z",
      "dutyEnd": "2026-02-23T08:00:00.000Z"
    },
    {
      "id": "adana-15",
      "name": "KIŞLA ŞEHİR ECZANESİ",
      "address": "KIŞLA MAH. MİTHAT ÖZHAN BULV. NO:49 SEPİCİ KIŞLA KAVŞAĞI IŞIKLARI BEYZA PİLİÇ REKLAM PANOSU ALTI , 03223441737 Harita Konum",
      "phone": "03223441737",
      "district": "Yüreği̇r",
      "city": "Adana",
      "latitude": 37.0145714,
      "longitude": 35.3388377,
      "dutyStart": "2026-02-22T08:00:00.000Z",
      "dutyEnd": "2026-02-23T08:00:00.000Z"
    },
    {
      "id": "adana-16",
      "name": "KARŞIYAKA FİLİZ ECZANESİ",
      "address": "DERVİŞLER MAH. KOZAN YOLU ÜZERİ TREN HATTINA VARMADAN 50 METRE ÖNCE ALTIN KOZA HASTANESİ KARŞISI , 03223211016 Harita Konum",
      "phone": "03223211016",
      "district": "Yüreği̇r",
      "city": "Adana",
      "latitude": 36.999803,
      "longitude": 35.363476,
      "dutyStart": "2026-02-22T08:00:00.000Z",
      "dutyEnd": "2026-02-23T08:00:00.000Z"
    },
    {
      "id": "adana-17",
      "name": "YENİ ÇAMLICA ECZANESİ",
      "address": "KARACAOĞLAN MAH. 3734 SOK. NO:12/Z01 TİCARET BORSASI İLKOKULU ARKA YOLUNUN DEVAMINDAKİ EKMEK BÜFESİNİN 25 MT. İLERİSİ KARACAOĞLAN MAHALLE MUHTARLIĞI CİVARI , 03223292000 Harita Konum",
      "phone": "03223292000",
      "district": "Yüreği̇r",
      "city": "Adana",
      "latitude": 37.013692115334734,
      "longitude": 35.36336272729609,
      "dutyStart": "2026-02-22T08:00:00.000Z",
      "dutyEnd": "2026-02-23T08:00:00.000Z"
    },
    {
      "id": "adana-18",
      "name": "TAHSİN ECZANESİ",
      "address": "ELİF SU ULUDAĞ MAH. 198 SOK. 10/B SARIÇAM BELEDİYESİ ARKASI ŞOK MARKET YANI , 05054085582 Harita Konum",
      "phone": "05054085582",
      "district": "Sariçam",
      "city": "Adana",
      "latitude": 37.017846,
      "longitude": 35.402224,
      "dutyStart": "2026-02-22T08:00:00.000Z",
      "dutyEnd": "2026-02-23T08:00:00.000Z"
    },
    {
      "id": "adana-19",
      "name": "KELEBEK ECZANESİ",
      "address": "ORHAN GAZİ MAH. ADNAN KAHVECİ BULVARI ERKEK ÖĞRENCİ YURDU CİVARI GENİŞ YOL , 03223416595 Harita Konum",
      "phone": "03223416595",
      "district": "Sariçam",
      "city": "Adana",
      "latitude": 37.036206,
      "longitude": 35.420397,
      "dutyStart": "2026-02-22T08:00:00.000Z",
      "dutyEnd": "2026-02-23T08:00:00.000Z"
    },
    {
      "id": "adana-20",
      "name": "KAAN ECZANESİ",
      "address": "FEKE İLÇE DEVLET HASTANESİ KARŞI ÇAPRAZI , 03227412706 Harita Konum",
      "phone": "03227412706",
      "district": "Feke",
      "city": "Adana",
      "latitude": 37.816069,
      "longitude": 35.920123,
      "dutyStart": "2026-02-22T08:00:00.000Z",
      "dutyEnd": "2026-02-23T08:00:00.000Z"
    },
    {
      "id": "adana-21",
      "name": "SAĞLIK ECZANESİ",
      "address": "ÖZEL ÇINAR HASTANESİ ARKASI , 3226129294 Harita Konum",
      "phone": "3226129294",
      "district": "Ceyhan",
      "city": "Adana",
      "latitude": 37.017914,
      "longitude": 35.824962,
      "dutyStart": "2026-02-22T08:00:00.000Z",
      "dutyEnd": "2026-02-23T08:00:00.000Z"
    },
    {
      "id": "adana-22",
      "name": "SOYSAL ECZANESİ",
      "address": "İSTİKLAL MAH. İBRAHİM METE BULVARI NO:135 MEZARLIK KARŞISI , 03226131303 Harita Konum",
      "phone": "03226131303",
      "district": "Ceyhan",
      "city": "Adana",
      "latitude": 37.025978,
      "longitude": 35.834114,
      "dutyStart": "2026-02-22T08:00:00.000Z",
      "dutyEnd": "2026-02-23T08:00:00.000Z"
    },
    {
      "id": "adana-23",
      "name": "SALBAŞ ECZANESİ",
      "address": "PTT KARŞISI , 03225612044 Harita Konum",
      "phone": "03225612044",
      "district": "Ceyhan",
      "city": "Adana",
      "latitude": 37.10995010760612,
      "longitude": 35.11178128466055,
      "dutyStart": "2026-02-22T08:00:00.000Z",
      "dutyEnd": "2026-02-23T08:00:00.000Z"
    },
    {
      "id": "adana-24",
      "name": "TOKLU ECZANESİ",
      "address": "KOYUN EVİ YOLU LİSE CİVARI , 03228914636 Harita Konum",
      "phone": "03228914636",
      "district": "İmamoğlu",
      "city": "Adana",
      "latitude": 37.2674,
      "longitude": 35.661112,
      "dutyStart": "2026-02-22T08:00:00.000Z",
      "dutyEnd": "2026-02-23T08:00:00.000Z"
    },
    {
      "id": "adana-25",
      "name": "EMRE ECZANESİ",
      "address": "İSTİKLAL MH.GİRNE CD.NO:95/A SAĞLIK OCAĞI YANI , 03227818575 Harita Konum",
      "phone": "03227818575",
      "district": "Tufanbeyli̇",
      "city": "Adana",
      "latitude": 0,
      "longitude": 0,
      "dutyStart": "2026-02-22T08:00:00.000Z",
      "dutyEnd": "2026-02-23T08:00:00.000Z"
    },
    {
      "id": "adana-26",
      "name": "AYAS ECZANESİ",
      "address": "BAYRAK DİREĞİ CİVARI ŞOK MARKET YANI , 03226714343 Harita Konum",
      "phone": "03226714343",
      "district": "Yumurtalik",
      "city": "Adana",
      "latitude": 36.775775,
      "longitude": 35.793431,
      "dutyStart": "2026-02-22T08:00:00.000Z",
      "dutyEnd": "2026-02-23T08:00:00.000Z"
    },
    {
      "id": "adana-27",
      "name": "YÖRÜK ECZANESİ",
      "address": "KARAİSALI DEVLET HASTANESİ KARŞISI , 3225512251 Harita Konum",
      "phone": "3225512251",
      "district": "Karai̇sali",
      "city": "Adana",
      "latitude": 37.253978,
      "longitude": 35.060716,
      "dutyStart": "2026-02-22T08:00:00.000Z",
      "dutyEnd": "2026-02-23T08:00:00.000Z"
    },
    {
      "id": "adana-28",
      "name": "DEVA ECZANESİ",
      "address": "SAİMBEYLİ KAYMAKAMLIĞI CİVARI , 03227612300 Harita Konum",
      "phone": "03227612300",
      "district": "Sai̇mbeyli̇",
      "city": "Adana",
      "latitude": 37.984965,
      "longitude": 36.089012,
      "dutyStart": "2026-02-22T08:00:00.000Z",
      "dutyEnd": "2026-02-23T08:00:00.000Z"
    },
    {
      "id": "adana-29",
      "name": "KEKLİK ECZANESİ",
      "address": "ALADAĞ SAĞLIK OCAĞI CİVARI , 03225912424 Harita Konum",
      "phone": "03225912424",
      "district": "Aladağ",
      "city": "Adana",
      "latitude": 37.551095,
      "longitude": 35.392546,
      "dutyStart": "2026-02-22T08:00:00.000Z",
      "dutyEnd": "2026-02-23T08:00:00.000Z"
    },
    {
      "id": "adana-30",
      "name": "ÖZDEMİR ECZANESİ",
      "address": "TUFANPAŞA MAH. FEHMİ ÖZEL TÜRKAY CAD. 4 NOLU SAĞLIK OCAĞI KARŞISI MEZARLIK YOLU ÜZERİ , 03225158983 Harita Konum",
      "phone": "03225158983",
      "district": "Kozan",
      "city": "Adana",
      "latitude": 37.459956495914014,
      "longitude": 35.82660247301238,
      "dutyStart": "2026-02-22T08:00:00.000Z",
      "dutyEnd": "2026-02-23T08:00:00.000Z"
    },
    {
      "id": "adana-31",
      "name": "DEMİRYÜREK ECZANESİ",
      "address": "FEKE YOLU ÜZERİNDEKİ KOZAN DEVLET HASTANESİNİN ANA BÜYÜK GİRİŞ KAPISININ KARŞISI , 03225164449 05447491476 Harita Konum",
      "phone": "03225164449",
      "district": "Kozan",
      "city": "Adana",
      "latitude": 37.466427,
      "longitude": 35.82611,
      "dutyStart": "2026-02-22T08:00:00.000Z",
      "dutyEnd": "2026-02-23T08:00:00.000Z"
    },
    {
      "id": "adana-32",
      "name": "ÖZTÜRK ECZANESİ",
      "address": "POZANTI MERKEZ ASM KARŞISI PAZARTESİ PAZARI SOKAĞI , 03225813121 Harita Konum",
      "phone": "03225813121",
      "district": "Pozanti",
      "city": "Adana",
      "latitude": 37.433653,
      "longitude": 34.873299,
      "dutyStart": "2026-02-22T08:00:00.000Z",
      "dutyEnd": "2026-02-23T08:00:00.000Z"
    },
    {
      "id": "adana-33",
      "name": "İSKELE ECZANESİ",
      "address": "KARATAŞ BELEDİYESİ KARŞISI SAĞLIK OCAĞI YANI , 03226814681 Harita Konum",
      "phone": "03226814681",
      "district": "Karataş",
      "city": "Adana",
      "latitude": 36.565614,
      "longitude": 35.384287,
      "dutyStart": "2026-02-22T08:00:00.000Z",
      "dutyEnd": "2026-02-23T08:00:00.000Z"
    }
  ]
}