{
  "city": "ankara",
  "cityName": "Ankara",
  "cityId": 6,
  "date": "2026-02-27",
  "updatedAt": "2026-02-27T07:00:19.667Z",
  "count": 57,
  "pharmacies": [
    {
      "id": "ankara-0",
      "name": "LORD ECZANESİ",
      "address": "Bahçelievler Mah. 7.Cad. No:70/G Çankaya/ANKARA , Milli Kütüpaneden 7.Cad. girişi solda 03122220776",
      "phone": "03122220776",
      "district": "Çankaya",
      "city": "Ankara",
      "latitude": 39.918291418475,
      "longitude": 32.82763928175,
      "dutyStart": "2026-02-27T08:30:00.000Z",
      "dutyEnd": "2026-02-28T08:30:00.000Z"
    },
    {
      "id": "ankara-1",
      "name": "NİLHAN ECZANESİ",
      "address": "Kızılırmak Mah. 1450. Sok. No:16/64 (Hayat Plaza) Çukurambar/ Çankaya /ANKARA , Cimer-Özel Koru Hastanesi yakını 03123121187",
      "phone": "03123121187",
      "district": "Çankaya",
      "city": "Ankara",
      "latitude": 39.901485544106,
      "longitude": 32.813156375432,
      "dutyStart": "2026-02-27T08:30:00.000Z",
      "dutyEnd": "2026-02-28T08:30:00.000Z"
    },
    {
      "id": "ankara-2",
      "name": "NABIZ ECZANESİ",
      "address": "Barış Mah. Barış Cad. Demetkent Sitesi Blokları No:2/B Yenimahalle , Yenimahalle Tapu Müdürlüğü yanı 03123324434",
      "phone": "03123324434",
      "district": "Ankara",
      "city": "Ankara",
      "latitude": 39.968844639064,
      "longitude": 32.79767498374,
      "dutyStart": "2026-02-27T08:30:00.000Z",
      "dutyEnd": "2026-02-28T08:30:00.000Z"
    },
    {
      "id": "ankara-3",
      "name": "AREL ECZANESİ",
      "address": "Mehmet Akif Ersoy Mah. 274.Sokak No:1B/128 Urankent/Yenimahalle/ ANKARA , Wings Ank.altı-Podium AVM karşısı 03129999426",
      "phone": "03129999426",
      "district": "Yenimahalle",
      "city": "Ankara",
      "latitude": 39.963261324049,
      "longitude": 32.772613763809,
      "dutyStart": "2026-02-27T08:30:00.000Z",
      "dutyEnd": "2026-02-28T08:30:00.000Z"
    },
    {
      "id": "ankara-4",
      "name": "TÜRKÖZÜ ECZANESİ",
      "address": "Metin Oktay Mah. Ziya Oralay Cad.No:194/10 Türközü/ Çankaya/ ANKARA , Türközü Meydanı 03124370779",
      "phone": "03124370779",
      "district": "Çankaya",
      "city": "Ankara",
      "latitude": 39.910406945249,
      "longitude": 32.87937104702,
      "dutyStart": "2026-02-27T08:30:00.000Z",
      "dutyEnd": "2026-02-28T08:30:00.000Z"
    },
    {
      "id": "ankara-5",
      "name": "FARUK ECZANESİ",
      "address": "Durali Alıç Mah. 928.Cadde No:40/A-B Mamak/ ANKARA , Doğukent ASM Yanı (No:98) 03125132215",
      "phone": "03125132215",
      "district": "Mamak",
      "city": "Ankara",
      "latitude": 39.907645879273,
      "longitude": 32.933722659945,
      "dutyStart": "2026-02-27T08:30:00.000Z",
      "dutyEnd": "2026-02-28T08:30:00.000Z"
    },
    {
      "id": "ankara-6",
      "name": "KORHAN ECZANESİ",
      "address": "Demirlibahçe Mah. Mamak Cad. No:43/14 Dikimevi/ Mamak /ANKARA , Cebeci Kızılay Kan Merk.karşısı 03123635340",
      "phone": "03123635340",
      "district": "Mamak",
      "city": "Ankara",
      "latitude": 39.934850485194,
      "longitude": 32.885297387838,
      "dutyStart": "2026-02-27T08:30:00.000Z",
      "dutyEnd": "2026-02-28T08:30:00.000Z"
    },
    {
      "id": "ankara-7",
      "name": "AŞKIN ECZANESİ",
      "address": "Birlik Mah. 410 Sok. No:7/B Çankaya/ ANKARA , 03124962814",
      "phone": "03124962814",
      "district": "Çankaya",
      "city": "Ankara",
      "latitude": 39.884186732717,
      "longitude": 32.870341334383,
      "dutyStart": "2026-02-27T08:30:00.000Z",
      "dutyEnd": "2026-02-28T08:30:00.000Z"
    },
    {
      "id": "ankara-8",
      "name": "MEŞRUTİYET ECZANESİ",
      "address": "Meşrutiyet Cd No:41/B Kızılay/Çankaya/ANKARA , Meşrutiyet ASM Yanı 03124312063",
      "phone": "03124312063",
      "district": "Çankaya",
      "city": "Ankara",
      "latitude": 39.919067987411,
      "longitude": 32.86036491394,
      "dutyStart": "2026-02-27T08:30:00.000Z",
      "dutyEnd": "2026-02-28T08:30:00.000Z"
    },
    {
      "id": "ankara-9",
      "name": "YENİ ÜMİT ECZANESİ",
      "address": "Cihan Sok. No:20/A Sıhhıye/Çankaya/ANKARA , 03122324391",
      "phone": "03122324391",
      "district": "Çankaya",
      "city": "Ankara",
      "latitude": 39.926917524903,
      "longitude": 32.852940559387,
      "dutyStart": "2026-02-27T08:30:00.000Z",
      "dutyEnd": "2026-02-28T08:30:00.000Z"
    },
    {
      "id": "ankara-10",
      "name": "ÖZVURAL ECZANESİ",
      "address": "Atadan Cad. No:7/A Etlik / Keçiören/ ANKARA , Eski ETLİK Karakol Karşısı 03123228341",
      "phone": "03123228341",
      "district": "Keçiören",
      "city": "Ankara",
      "latitude": 39.977325636093,
      "longitude": 32.836557626724,
      "dutyStart": "2026-02-27T08:30:00.000Z",
      "dutyEnd": "2026-02-28T08:30:00.000Z"
    },
    {
      "id": "ankara-11",
      "name": "MELEK CEBECİ ECZANESİ",
      "address": "Ayvalı Mah. Gazze Cad. No:21/234-A Keçiören/ANKARA , Antares Konutları-Migros Jet Yanı 03123580606",
      "phone": "03123580606",
      "district": "Keçiören",
      "city": "Ankara",
      "latitude": 39.97232370177,
      "longitude": 32.819113947517,
      "dutyStart": "2026-02-27T08:30:00.000Z",
      "dutyEnd": "2026-02-28T08:30:00.000Z"
    },
    {
      "id": "ankara-12",
      "name": "ESRANIN ECZANESİ",
      "address": "Güneşevler Mah. 128 Cad. No:7/A Hasköy/ Altındağ/ ANKARA , Hasköy Semt Polkliniği Karşısı 03123170542",
      "phone": "03123170542",
      "district": "Altındağ",
      "city": "Ankara",
      "latitude": 39.971512792789,
      "longitude": 32.884923219681,
      "dutyStart": "2026-02-27T08:30:00.000Z",
      "dutyEnd": "2026-02-28T08:30:00.000Z"
    },
    {
      "id": "ankara-13",
      "name": "PINARBAŞI ECZANESİ",
      "address": "Uyanış Mah. Gülbaba Cad.No:38/A-B Keçiören/ ANKARA , ŞOK Market Çaprazı 03125811518",
      "phone": "03125811518",
      "district": "Keçiören",
      "city": "Ankara",
      "latitude": 40.003299590475,
      "longitude": 32.870191186666,
      "dutyStart": "2026-02-27T08:30:00.000Z",
      "dutyEnd": "2026-02-28T08:30:00.000Z"
    },
    {
      "id": "ankara-14",
      "name": "AYDINLAR ECZANESİ",
      "address": "Aydınlar Mah. Dikmen Cad. No:310/C Çankaya , 29 Mayıs Devlet Hastanesi yanı 03124832888",
      "phone": "03124832888",
      "district": "Ankara",
      "city": "Ankara",
      "latitude": 39.875968988381,
      "longitude": 32.835102528334,
      "dutyStart": "2026-02-27T08:30:00.000Z",
      "dutyEnd": "2026-02-28T08:30:00.000Z"
    },
    {
      "id": "ankara-15",
      "name": "ORAN GÜLCEM ECZANESİ",
      "address": "Dumlupınar Mah.Turan Güneş Bulvarı No:175/C /Çankaya/ANKARA , 03124909404",
      "phone": "03124909404",
      "district": "Çankaya",
      "city": "Ankara",
      "latitude": 39.85334426549,
      "longitude": 32.849566139412,
      "dutyStart": "2026-02-27T08:30:00.000Z",
      "dutyEnd": "2026-02-28T08:30:00.000Z"
    },
    {
      "id": "ankara-16",
      "name": "LALAHAN ECZANESİ",
      "address": "Bahçelievler Mah. Bahriye Üçok Cad. No:21/B Çankaya/ ANKARA , Gazi Üniv.Tıp Fak. Hast.Kar. 03122239006",
      "phone": "03122239006",
      "district": "Çankaya",
      "city": "Ankara",
      "latitude": 39.932603557749,
      "longitude": 32.823145911098,
      "dutyStart": "2026-02-27T08:30:00.000Z",
      "dutyEnd": "2026-02-28T08:30:00.000Z"
    },
    {
      "id": "ankara-17",
      "name": "ŞEYDA ECZANESİ",
      "address": "Kamil Ocak Mah. Devrek Sok. No:23/A Keçiören/ ANKARA , Kamil Ocak Ortaokulu-İlkokulu arkası 03126662030",
      "phone": "03126662030",
      "district": "Keçiören",
      "city": "Ankara",
      "latitude": 39.986187831669,
      "longitude": 32.881253957748,
      "dutyStart": "2026-02-27T08:30:00.000Z",
      "dutyEnd": "2026-02-28T08:30:00.000Z"
    },
    {
      "id": "ankara-18",
      "name": "GÖKÇE ECZANESİ",
      "address": "Camiatik Mah. Hekim Şaban Şifai Cad. No:3 Ayaş / ANKARA , 03127121159",
      "phone": "03127121159",
      "district": "Ayaş",
      "city": "Ankara",
      "latitude": 40.012890779526,
      "longitude": 32.331390380859,
      "dutyStart": "2026-02-27T08:30:00.000Z",
      "dutyEnd": "2026-02-28T08:30:00.000Z"
    },
    {
      "id": "ankara-19",
      "name": "AKÇAY ECZANESİ",
      "address": "Mareşal Çakmak Mah. Ankara Cad. No:154/A Sincan / ANKARA , Sefa Pastanesi Yanı 03122681011",
      "phone": "03122681011",
      "district": "Sincan",
      "city": "Ankara",
      "latitude": 39.959104377378,
      "longitude": 32.593141794205,
      "dutyStart": "2026-02-27T08:30:00.000Z",
      "dutyEnd": "2026-02-28T08:30:00.000Z"
    },
    {
      "id": "ankara-20",
      "name": "EMİRHAN ECZANESİ",
      "address": "İstasyon Mah.Elam Sok. No:8/A-B Sincan/ANKARA , Ayaş Cd.BaşakTıp Merk.arkası 03122761211",
      "phone": "03122761211",
      "district": "Sincan",
      "city": "Ankara",
      "latitude": 39.971299015435,
      "longitude": 32.581028938293,
      "dutyStart": "2026-02-27T08:30:00.000Z",
      "dutyEnd": "2026-02-28T08:30:00.000Z"
    },
    {
      "id": "ankara-21",
      "name": "NUR ECZANESİ",
      "address": "Yıldırım Mah. Dr.Neslihan Özenli Cad. No:26/A Akyurt/ ANKARA , Eski Devlet Hastanesi karşısı 03128440014",
      "phone": "03128440014",
      "district": "Akyurt",
      "city": "Ankara",
      "latitude": 40.128157797833,
      "longitude": 33.087855130434,
      "dutyStart": "2026-02-27T08:30:00.000Z",
      "dutyEnd": "2026-02-28T08:30:00.000Z"
    },
    {
      "id": "ankara-22",
      "name": "BERAT ECZANESİ",
      "address": "Başağaç Mah Mehmet Akif Ersoy Cad. No:28/A , 2 Nolu Aile Sağlığı Merkezi Karşısı 05335203762",
      "phone": "05335203762",
      "district": "Ankara",
      "city": "Ankara",
      "latitude": 40.151201371639,
      "longitude": 31.906622685492,
      "dutyStart": "2026-02-27T08:30:00.000Z",
      "dutyEnd": "2026-02-28T08:30:00.000Z"
    },
    {
      "id": "ankara-23",
      "name": "ASLI ECZANESİ",
      "address": "Oğuzlar Mah. 1578.Cad.No:9/A Elvankent/Etimesgut/ ANKARA , BatıAdliyesi ark.Atatürk İlkokulu yanı 05376578984",
      "phone": "05376578984",
      "district": "Etimesgut",
      "city": "Ankara",
      "latitude": 39.942159430397,
      "longitude": 32.602186203494,
      "dutyStart": "2026-02-27T08:30:00.000Z",
      "dutyEnd": "2026-02-28T08:30:00.000Z"
    },
    {
      "id": "ankara-24",
      "name": "CEMRENİN ECZANESİ",
      "address": "Bağlıca Mah. Mermeroğlu Cad. No:26/C Bağlıca/ Etimesgut/ ANKARA , Süleymaoğlu Kebapçısı yanı 03122342210",
      "phone": "03122342210",
      "district": "Etimesgut",
      "city": "Ankara",
      "latitude": 39.893980873878,
      "longitude": 32.647028840147,
      "dutyStart": "2026-02-27T08:30:00.000Z",
      "dutyEnd": "2026-02-28T08:30:00.000Z"
    },
    {
      "id": "ankara-25",
      "name": "BENGİSU ECZANESİ",
      "address": "Şeyh Şamil Mah. 168.Sok. 3.Etap İş Merkezi (Özar Çarşı İçi) No:5/4 Eryaman/ Etimesgut/ ANKARA , Hasan Ali Yücel Ortaokulu Önü 03122822883",
      "phone": "03122822883",
      "district": "Etimesgut",
      "city": "Ankara",
      "latitude": 39.996963962052,
      "longitude": 32.625575065613,
      "dutyStart": "2026-02-27T08:30:00.000Z",
      "dutyEnd": "2026-02-28T08:30:00.000Z"
    },
    {
      "id": "ankara-26",
      "name": "MELİKE ECZANESİ",
      "address": "Medrese Mah. Nasuhubey Cad. No:6/A Haymana/ ANKARA , 03126580058",
      "phone": "03126580058",
      "district": "Haymana",
      "city": "Ankara",
      "latitude": 39.433094916772,
      "longitude": 32.494204491377,
      "dutyStart": "2026-02-27T08:30:00.000Z",
      "dutyEnd": "2026-02-28T08:30:00.000Z"
    },
    {
      "id": "ankara-27",
      "name": "DERMAN ECZANESİ",
      "address": "Atatürk Mah.Bengü Cad.No:12/A Kahramankazan/ ANKARA , Yeni Hastane Acil Karşısı 03128140660",
      "phone": "03128140660",
      "district": "Kahramankazan",
      "city": "Ankara",
      "latitude": 40.196641188754,
      "longitude": 32.676233207445,
      "dutyStart": "2026-02-27T08:30:00.000Z",
      "dutyEnd": "2026-02-28T08:30:00.000Z"
    },
    {
      "id": "ankara-28",
      "name": "ALP ECZANESİ",
      "address": "Akçay Mah. Cengiz Topel Cad. No:45/C Kızılcahamam/ ANKARA , 03127366470",
      "phone": "03127366470",
      "district": "Kızılcahamam",
      "city": "Ankara",
      "latitude": 40.474008674138,
      "longitude": 32.650022513931,
      "dutyStart": "2026-02-27T08:30:00.000Z",
      "dutyEnd": "2026-02-28T08:30:00.000Z"
    },
    {
      "id": "ankara-29",
      "name": "MÜFTÜOĞLU ECZANESİ",
      "address": "Lalahan Mah.Lalapaşa Cad.3/B Lalahan/ / ANKARA ((312865 18 85) , “ÖZEL NÖBET BÖLGESİ LÜTFEN ECZANEYİ TELEFON İLE ARAYİNİZ.\" 05408651885",
      "phone": "05408651885",
      "district": "Ankara",
      "city": "Ankara",
      "latitude": 39.970676179525,
      "longitude": 33.114105784334,
      "dutyStart": "2026-02-27T08:30:00.000Z",
      "dutyEnd": "2026-02-28T08:30:00.000Z"
    },
    {
      "id": "ankara-30",
      "name": "MERKEZ ECZANESİ",
      "address": "Bursa Cad. No:5/C Nallıhan / ANKARA , 03127851091",
      "phone": "03127851091",
      "district": "Nallıhan",
      "city": "Ankara",
      "latitude": 0,
      "longitude": 0,
      "dutyStart": "2026-02-27T08:30:00.000Z",
      "dutyEnd": "2026-02-28T08:30:00.000Z"
    },
    {
      "id": "ankara-31",
      "name": "KARDELEN ECZANESİ",
      "address": "Şehitlik Mah. Çamlıca Cad. No:85/1 Polatlı/ ANKARA , Eski Devlet Hastanesi karşısı 03123819454",
      "phone": "03123819454",
      "district": "Polatlı",
      "city": "Ankara",
      "latitude": 39.585187453542,
      "longitude": 32.144778370857,
      "dutyStart": "2026-02-27T08:30:00.000Z",
      "dutyEnd": "2026-02-28T08:30:00.000Z"
    },
    {
      "id": "ankara-32",
      "name": "PURSAKLAR MEYDAN ECZANESİ",
      "address": "Mimar Sinan Mah. Çağatay Cad. No:41/E Pursaklar/ ANKARA , Pursaklar Devlet Hastanesi yanı 03123580404",
      "phone": "03123580404",
      "district": "Pursaklar",
      "city": "Ankara",
      "latitude": 40.048008786177,
      "longitude": 32.89355324102,
      "dutyStart": "2026-02-27T08:30:00.000Z",
      "dutyEnd": "2026-02-28T08:30:00.000Z"
    },
    {
      "id": "ankara-33",
      "name": "ALTAN ECZANESİ",
      "address": "Yenişehir Mah.İbn-i Sina Cad. No:1/5 Yahşihan/KIRIKKALE , Tıp Fakültesi Acil Yanı-Diş Fakültesi Karşısı 03183100123",
      "phone": "03183100123",
      "district": "Ankara",
      "city": "Ankara",
      "latitude": 39.870566455686,
      "longitude": 33.453404009342,
      "dutyStart": "2026-02-27T08:30:00.000Z",
      "dutyEnd": "2026-02-28T08:30:00.000Z"
    },
    {
      "id": "ankara-34",
      "name": "PAŞA ECZANESİ",
      "address": "Kale Mah. Ankara Cad.No:107/A Şereflikoçhisar/ ANKARA , Şereflikoçhisar Belediyesi karşısı 03126877549",
      "phone": "03126877549",
      "district": "Şereflikoçhisar",
      "city": "Ankara",
      "latitude": 0,
      "longitude": 0,
      "dutyStart": "2026-02-27T08:30:00.000Z",
      "dutyEnd": "2026-02-28T08:30:00.000Z"
    },
    {
      "id": "ankara-35",
      "name": "KARAKEÇİLİ ECZANESİ",
      "address": "Fatih Sultan Mehmet Mah.Hürriyet Cad.No:4/A Karakeçili/ KIRIKKALE , 03184743643",
      "phone": "03184743643",
      "district": "Ankara",
      "city": "Ankara",
      "latitude": 39.993750206346,
      "longitude": 33.533243363199,
      "dutyStart": "2026-02-27T08:30:00.000Z",
      "dutyEnd": "2026-02-28T08:30:00.000Z"
    },
    {
      "id": "ankara-36",
      "name": "SAĞLIK ECZANESİ",
      "address": "Halit Cevri Aslangil Mah. Çağlar Cad. No:20.Sok. No:12/B Kalecik/ ANKARA , Kalecik Devlet Hastanesi Karşısı 03128571110",
      "phone": "03128571110",
      "district": "Kalecik",
      "city": "Ankara",
      "latitude": 40.111110189041,
      "longitude": 33.409390577835,
      "dutyStart": "2026-02-27T08:30:00.000Z",
      "dutyEnd": "2026-02-28T08:30:00.000Z"
    },
    {
      "id": "ankara-37",
      "name": "YENİ KARAHAN ECZANESİ",
      "address": "Bahçelievler Mah. Cumhuriyet Cad.No:25/A Gölbaşı / ANKARA , Mevlana parkı girişi 03124841604",
      "phone": "03124841604",
      "district": "Gölbaşı",
      "city": "Ankara",
      "latitude": 39.789402183256,
      "longitude": 32.809620201588,
      "dutyStart": "2026-02-27T08:30:00.000Z",
      "dutyEnd": "2026-02-28T08:30:00.000Z"
    },
    {
      "id": "ankara-38",
      "name": "ÖZAYDIN ECZANESİ",
      "address": "Ovacık Mah. İzmir Cad.No:85 Merkez/ KIRIKKALE , Özel Yaşam Hastanesi altı 03183332424",
      "phone": "03183332424",
      "district": "Ankara",
      "city": "Ankara",
      "latitude": 39.846577737279,
      "longitude": 33.504127264023,
      "dutyStart": "2026-02-27T08:30:00.000Z",
      "dutyEnd": "2026-02-28T08:30:00.000Z"
    },
    {
      "id": "ankara-39",
      "name": "LEBLEBİCİOĞLU ECZANESİ",
      "address": "Yenidoğan Mah. Zafer Cad.Doğruer İş Merkezi No:52 Merkez /KIRIKKALE , Merkez Ziraat Bankası üstü-Eski YKM Mağzası Karşısı 03182182269",
      "phone": "03182182269",
      "district": "Ankara",
      "city": "Ankara",
      "latitude": 39.842623766318,
      "longitude": 33.505908250809,
      "dutyStart": "2026-02-27T08:30:00.000Z",
      "dutyEnd": "2026-02-28T08:30:00.000Z"
    },
    {
      "id": "ankara-40",
      "name": "LİMAN ECZANESİ",
      "address": "Kızılcaşar Mah. Barış Uzun Cad. No:25 İncek-Gölbaşı / ANKARA , İncek Losante Hastanesi Karşısı 03124251525",
      "phone": "03124251525",
      "district": "Gölbaşı",
      "city": "Ankara",
      "latitude": 39.833011784386,
      "longitude": 32.718404978514,
      "dutyStart": "2026-02-27T08:30:00.000Z",
      "dutyEnd": "2026-02-28T08:30:00.000Z"
    },
    {
      "id": "ankara-41",
      "name": "MİR ECZANESİ",
      "address": "Prof.Dr.Ahmet Taner Kışlalı Mah. Alacaatlı Cad. No:30/6 Çayyolu/ Çankaya/ ANKARA , Erzincan Mandıra Yanı 03123124456",
      "phone": "03123124456",
      "district": "Çankaya",
      "city": "Ankara",
      "latitude": 39.866286532575,
      "longitude": 32.684534311393,
      "dutyStart": "2026-02-27T08:30:00.000Z",
      "dutyEnd": "2026-02-28T08:30:00.000Z"
    },
    {
      "id": "ankara-42",
      "name": "DOĞAN ECZANESİ",
      "address": "Yavuz Selim Mah. Hükümet Cad. No:65/D Çubuk/NKARA , 4 Nolu Sağlık Ocağı yan tarafı 03128383107",
      "phone": "03128383107",
      "district": "Ankara",
      "city": "Ankara",
      "latitude": 40.241667531332,
      "longitude": 33.037245869637,
      "dutyStart": "2026-02-27T08:30:00.000Z",
      "dutyEnd": "2026-02-28T08:30:00.000Z"
    },
    {
      "id": "ankara-43",
      "name": "CENNET ECZANESİ",
      "address": "Cumhuriyet Mah.Ankara Cad. No:34/A Delice KIRIKKALE , 03186185433",
      "phone": "03186185433",
      "district": "Ankara",
      "city": "Ankara",
      "latitude": 0,
      "longitude": 0,
      "dutyStart": "2026-02-27T08:30:00.000Z",
      "dutyEnd": "2026-02-28T08:30:00.000Z"
    },
    {
      "id": "ankara-44",
      "name": "VERESELİ GÜDÜL ECZANESİ",
      "address": "Yukarı Gençlik Cad. No:10/A Güdül / ANKARA , 03127281533",
      "phone": "03127281533",
      "district": "Güdül",
      "city": "Ankara",
      "latitude": 40.20877009282,
      "longitude": 32.244186401367,
      "dutyStart": "2026-02-27T08:30:00.000Z",
      "dutyEnd": "2026-02-28T08:30:00.000Z"
    },
    {
      "id": "ankara-45",
      "name": "YENİ BALA ECZANESİ",
      "address": "Kartaltepe Mah. Alparslan Türkeş Bulvarı No:4 Bala/ ANKARA , 03128761376",
      "phone": "03128761376",
      "district": "Bala",
      "city": "Ankara",
      "latitude": 39.552947363191,
      "longitude": 33.123903349042,
      "dutyStart": "2026-02-27T08:30:00.000Z",
      "dutyEnd": "2026-02-28T08:30:00.000Z"
    },
    {
      "id": "ankara-46",
      "name": "YILMAZ ECZANESİ",
      "address": "Menderes Bulvarı Sağlık 1. Sok. No:2 Hasanoğlan /Elmadağ/ ANKARA (2.Tel:3128661233) , 03128663771",
      "phone": "03128663771",
      "district": "Elmadağ",
      "city": "Ankara",
      "latitude": 39.998689957679,
      "longitude": 33.180084228516,
      "dutyStart": "2026-02-27T08:30:00.000Z",
      "dutyEnd": "2026-02-28T08:30:00.000Z"
    },
    {
      "id": "ankara-47",
      "name": "MERT ECZANESİ",
      "address": "Bozkurt Mh.Hastane Sok. No:6 Keskin/KIRIKKALE , 03185154760",
      "phone": "03185154760",
      "district": "Ankara",
      "city": "Ankara",
      "latitude": 39.6732795543,
      "longitude": 33.611265420914,
      "dutyStart": "2026-02-27T08:30:00.000Z",
      "dutyEnd": "2026-02-28T08:30:00.000Z"
    },
    {
      "id": "ankara-48",
      "name": "VERESELİ TEMELLİ ECZANESİ",
      "address": "TEMELLİ-İstiklal Mah. Hürriyet Cad. No:30/B Temelli/Sincan/ANKARA , 03126451163",
      "phone": "03126451163",
      "district": "Sincan",
      "city": "Ankara",
      "latitude": 39.726069000019,
      "longitude": 32.353835105896,
      "dutyStart": "2026-02-27T08:30:00.000Z",
      "dutyEnd": "2026-02-28T08:30:00.000Z"
    },
    {
      "id": "ankara-49",
      "name": "BALIŞEYH ECZANESİ",
      "address": "Yeni Mah. 43.Sok. No:14/B Balışeyh/KIRIKKALE , Balışeyh Toplum Sağlığı Merkezi Karşısı 03182333318",
      "phone": "03182333318",
      "district": "Ankara",
      "city": "Ankara",
      "latitude": 39.916098977986,
      "longitude": 33.715695217252,
      "dutyStart": "2026-02-27T08:30:00.000Z",
      "dutyEnd": "2026-02-28T08:30:00.000Z"
    },
    {
      "id": "ankara-50",
      "name": "ELMADAĞ ECZANESİ",
      "address": "İsmetpaşa Mah.Cumhuriyet Cad.No:61/A Elmadağ/ANKARA , 03128633193",
      "phone": "03128633193",
      "district": "Elmadağ",
      "city": "Ankara",
      "latitude": 39.918245132631,
      "longitude": 33.232269287109,
      "dutyStart": "2026-02-27T08:30:00.000Z",
      "dutyEnd": "2026-02-28T08:30:00.000Z"
    },
    {
      "id": "ankara-51",
      "name": "BÜŞRA ECZANESİ",
      "address": "Serhat Mah. Süleyman Şah. Cad.No:12/A / Yenimahalle/ ANKARA , Amatem Hastanesi 100 mt aşağısı 03129699310",
      "phone": "03129699310",
      "district": "Yenimahalle",
      "city": "Ankara",
      "latitude": 39.98626798079,
      "longitude": 32.761570622097,
      "dutyStart": "2026-02-27T08:30:00.000Z",
      "dutyEnd": "2026-02-28T08:30:00.000Z"
    },
    {
      "id": "ankara-52",
      "name": "MERVE ECZANESİ",
      "address": "Yeni Batı Mah. 2361.Sokak No:4/3D Yenimahalle/ ANKARA , Müjgan Karaçalı Okulu Karşısı 03123241895",
      "phone": "03123241895",
      "district": "Yenimahalle",
      "city": "Ankara",
      "latitude": 39.968511626435,
      "longitude": 32.698336690664,
      "dutyStart": "2026-02-27T08:30:00.000Z",
      "dutyEnd": "2026-02-28T08:30:00.000Z"
    },
    {
      "id": "ankara-53",
      "name": "ŞİFA ECZANESİ",
      "address": "Gökçek Mah. 250. Cad. 3/B Fatih/Sincan/ ANKARA , Sincan Eğitim Araştırma Hastanesi Karşısı 03122696969",
      "phone": "03122696969",
      "district": "Sincan",
      "city": "Ankara",
      "latitude": 39.982951989265,
      "longitude": 32.569908499718,
      "dutyStart": "2026-02-27T08:30:00.000Z",
      "dutyEnd": "2026-02-28T08:30:00.000Z"
    },
    {
      "id": "ankara-54",
      "name": "ARONYA ECZANESİ",
      "address": "Menderes Mah.760.Cad.No:6/A Yenikent/Sincan/ANKARA , Estergon Sağlık Ocağı Karşısı 05019333623",
      "phone": "05019333623",
      "district": "Sincan",
      "city": "Ankara",
      "latitude": 40.01781476705,
      "longitude": 32.524372301996,
      "dutyStart": "2026-02-27T08:30:00.000Z",
      "dutyEnd": "2026-02-28T08:30:00.000Z"
    },
    {
      "id": "ankara-55",
      "name": "ELVAN ECZANESİ",
      "address": "Elvan Mah. 1544.Cad.No:106/A Etimesgut/ANKARA , Etimesgut 8 Nolu ASM yanı 005423826345",
      "phone": "005423826345",
      "district": "Etimesgut",
      "city": "Ankara",
      "latitude": 39.949024363739,
      "longitude": 32.63145060709,
      "dutyStart": "2026-02-27T08:30:00.000Z",
      "dutyEnd": "2026-02-28T08:30:00.000Z"
    },
    {
      "id": "ankara-56",
      "name": "Nöbetçi Eczane Bulunamadı",
      "address": "Aradığınız kriterlere uygun nöbetçi eczane bulunamadı. Lütfen farklı bir arama deneyin.",
      "phone": "",
      "district": "Ankara",
      "city": "Ankara",
      "latitude": 0,
      "longitude": 0,
      "dutyStart": "2026-02-27T08:30:00.000Z",
      "dutyEnd": "2026-02-28T08:30:00.000Z"
    }
  ]
}