{
  "city": "antalya",
  "cityName": "Antalya",
  "cityId": 7,
  "date": "2026-02-18",
  "updatedAt": "2026-02-18T08:00:55.255Z",
  "count": 37,
  "pharmacies": [
    {
      "id": "antalya-0",
      "name": "SABUNCUOĞLU ECZANESİ",
      "address": "",
      "phone": "02422376066",
      "district": "Muratpaşa",
      "city": "Antalya",
      "latitude": 36.88938095887114,
      "longitude": 30.679864615567965,
      "dutyStart": "2026-02-18T08:00:00.000Z",
      "dutyEnd": "2026-02-19T08:00:00.000Z"
    },
    {
      "id": "antalya-1",
      "name": "YAKAMOZ ECZANESİ",
      "address": "VARLIK MAH. KAZIM KARABEKİR CAD. ACAR APT.NO:22/A MURATPAŞA (Antalya Eğitim Araştırma Hastanesi Acil Çıkışı kapısı çaprazında, 100.Yıl bulvarına doğru inerken otobüs durağı arkasında )",
      "phone": "02423443132",
      "district": "Antalya",
      "city": "Antalya",
      "latitude": 36.8989995867,
      "longitude": 30.6898979515,
      "dutyStart": "2026-02-18T08:00:00.000Z",
      "dutyEnd": "2026-02-19T08:00:00.000Z"
    },
    {
      "id": "antalya-2",
      "name": "BATUHAN ECZANESİ",
      "address": "ATATÜRK DEV. HAST. KARSISI (ESKI SSK) GÜVENLIK MAH.GÜLLÜK CAD. 277 SK.NO:143/A",
      "phone": "02423252597",
      "district": "Antalya",
      "city": "Antalya",
      "latitude": 36.8988371832,
      "longitude": 30.7240561083,
      "dutyStart": "2026-02-18T08:00:00.000Z",
      "dutyEnd": "2026-02-19T08:00:00.000Z"
    },
    {
      "id": "antalya-3",
      "name": "HACETTEPE ECZANESİ",
      "address": "GEBİZLİ MAH.1115 SOKAK NO:6 / A KARALAR DÜĞÜN SARAYI YANI - ASV YAŞAM HAST. KARŞISI",
      "phone": "05402211234",
      "district": "Antalya",
      "city": "Antalya",
      "latitude": 36.887106,
      "longitude": 30.719535,
      "dutyStart": "2026-02-18T08:00:00.000Z",
      "dutyEnd": "2026-02-19T08:00:00.000Z"
    },
    {
      "id": "antalya-4",
      "name": "YEŞİLBAHÇE ECZANESİ",
      "address": "ÇAYBAŞI MAH.B.ONAT CAD.20/A MURATPAŞA/ANTALYA (ANTALYA ANATOLİA HASTANESİ YANI)",
      "phone": "02423217133",
      "district": "Antalya",
      "city": "Antalya",
      "latitude": 36.8694684658,
      "longitude": 30.7353340577,
      "dutyStart": "2026-02-18T08:00:00.000Z",
      "dutyEnd": "2026-02-19T08:00:00.000Z"
    },
    {
      "id": "antalya-5",
      "name": "AKE ECZANESİ",
      "address": "KIRCAMI MAH. SINANOGLU CAD. 7/B E BEBEK İLE ÖZLEM PASTANESİ ARASI, DİLARA YAŞAR KARŞISI",
      "phone": "02429664450",
      "district": "Antalya",
      "city": "Antalya",
      "latitude": 36.85609378531014,
      "longitude": 30.74722945690155,
      "dutyStart": "2026-02-18T08:00:00.000Z",
      "dutyEnd": "2026-02-19T08:00:00.000Z"
    },
    {
      "id": "antalya-6",
      "name": "SOYATA ECZANESİ",
      "address": "FENER MAH. TEKELİOĞLU CAD. SEDA APT. NO:11/A MURATPAŞA MEDİKALPARK HASTANESİ YANI BOZKAN PETROL KARŞISI",
      "phone": "02423490300",
      "district": "Antalya",
      "city": "Antalya",
      "latitude": 36.859164871231556,
      "longitude": 30.79029232263565,
      "dutyStart": "2026-02-18T08:00:00.000Z",
      "dutyEnd": "2026-02-19T08:00:00.000Z"
    },
    {
      "id": "antalya-7",
      "name": "HACER ECZANESİ",
      "address": "GÜZELOBA MAH. 2132 SOK. NO:8/2 MURATPAŞA/ANTALYA(GÜZELOBA PTT ARKASI)",
      "phone": "05010127707",
      "district": "Kepez",
      "city": "Antalya",
      "latitude": 36.9208634304195,
      "longitude": 30.687559367437487,
      "dutyStart": "2026-02-18T08:00:00.000Z",
      "dutyEnd": "2026-02-19T08:00:00.000Z"
    },
    {
      "id": "antalya-8",
      "name": "ALYA ECZANESİ",
      "address": "ATATÜRK MAH. 2627 SOK. NO:45/A .ATATÜRK ANADOLU LİSESİ ARKASI.SOL ÇAPRAZI. TAHTAKALE AVM DOKUMA ŞUBESİ YANI.",
      "phone": "02425024546",
      "district": "Antalya",
      "city": "Antalya",
      "latitude": 36.91550154472504,
      "longitude": 30.771612317073505,
      "dutyStart": "2026-02-18T08:00:00.000Z",
      "dutyEnd": "2026-02-19T08:00:00.000Z"
    },
    {
      "id": "antalya-9",
      "name": "YENİ FATİH ECZANESİ",
      "address": "ALTINOVA SİNAN MAH.ANTALYA CADDESİ.AGORA A.V.M.FAZ-2NO:14/23 KEPEZ",
      "phone": "02423312699",
      "district": "Antalya",
      "city": "Antalya",
      "latitude": 36.9439,
      "longitude": 30.6485,
      "dutyStart": "2026-02-18T08:00:00.000Z",
      "dutyEnd": "2026-02-19T08:00:00.000Z"
    },
    {
      "id": "antalya-10",
      "name": "KINAY ECZANESİ",
      "address": "FATİH MH. 3403 SK. Pakize -Yahya Erkun Aile Sağlığı Merkezi karşısı",
      "phone": "02425040905",
      "district": "Antalya",
      "city": "Antalya",
      "latitude": 36.94084560274676,
      "longitude": 30.72375476360321,
      "dutyStart": "2026-02-18T08:00:00.000Z",
      "dutyEnd": "2026-02-19T08:00:00.000Z"
    },
    {
      "id": "antalya-11",
      "name": "ERÇİN ECZANESİ",
      "address": "HABİBLER MAH.SÜTÇÜLER CAD.B BLOK NO:81F KEPEZ (CELİL YALÇIN İŞ MERKEZİ-ZEHRA KOZ ASM ÇAPRAZI)",
      "phone": "02422274418",
      "district": "Antalya",
      "city": "Antalya",
      "latitude": 36.9011481204,
      "longitude": 30.6608361633,
      "dutyStart": "2026-02-18T08:00:00.000Z",
      "dutyEnd": "2026-02-19T08:00:00.000Z"
    },
    {
      "id": "antalya-12",
      "name": "MAYA ECZANESİ",
      "address": "AKDENIZ ÜNI.TIP FAKÜLTESI KUZEYI OTOPARK ÇIKISI KARSISI YENI ÇAKIRLAR YOLU ÜZERI",
      "phone": "02425056518",
      "district": "Antalya",
      "city": "Antalya",
      "latitude": 36.8514505,
      "longitude": 30.5998578,
      "dutyStart": "2026-02-18T08:00:00.000Z",
      "dutyEnd": "2026-02-19T08:00:00.000Z"
    },
    {
      "id": "antalya-13",
      "name": "PELİN ECZANESİ",
      "address": "HURMA MAH.195 SOK.ŞÜKRAN APT.NO:24/A-13 KONYAALTI",
      "phone": "02422284228",
      "district": "Antalya",
      "city": "Antalya",
      "latitude": 36.86547933464047,
      "longitude": 30.633447224435127,
      "dutyStart": "2026-02-18T08:00:00.000Z",
      "dutyEnd": "2026-02-19T08:00:00.000Z"
    },
    {
      "id": "antalya-14",
      "name": "KUZEY ECZANESİ",
      "address": "ALTINKUM MAH.GAZİ MUSTAFA KEMAL BULVARI NO:26/A KONYAALTI TÜRKAY OTEL YANI",
      "phone": "02424213937",
      "district": "Antalya",
      "city": "Antalya",
      "latitude": 37.04031165876302,
      "longitude": 30.610249042510986,
      "dutyStart": "2026-02-18T08:00:00.000Z",
      "dutyEnd": "2026-02-19T08:00:00.000Z"
    },
    {
      "id": "antalya-15",
      "name": "ÇALKAYA ECZANESİ",
      "address": "ÇIPLAKLI MAH. İNÖNÜ CAD. NO:112 DÖŞEMEALTI",
      "phone": "02424262326",
      "district": "Aksu",
      "city": "Antalya",
      "latitude": 36.5465779107,
      "longitude": 31.994877266,
      "dutyStart": "2026-02-18T08:00:00.000Z",
      "dutyEnd": "2026-02-19T08:00:00.000Z"
    },
    {
      "id": "antalya-16",
      "name": "CADDE ECZANESİ",
      "address": "SARAY MH. KÜLTÜR CD. BASKENT HASTANESI ACIL YANI",
      "phone": "02425136464",
      "district": "Antalya",
      "city": "Antalya",
      "latitude": 36.551324764520906,
      "longitude": 31.99844408359263,
      "dutyStart": "2026-02-18T08:00:00.000Z",
      "dutyEnd": "2026-02-19T08:00:00.000Z"
    },
    {
      "id": "antalya-17",
      "name": "EYUP ECZANESİ",
      "address": "ŞEKERHANE MAH.ALAİYE CAD. NO:91/B ALANYA",
      "phone": "02425153130",
      "district": "Antalya",
      "city": "Antalya",
      "latitude": 36.54757617095982,
      "longitude": 32.03321188688278,
      "dutyStart": "2026-02-18T08:00:00.000Z",
      "dutyEnd": "2026-02-19T08:00:00.000Z"
    },
    {
      "id": "antalya-18",
      "name": "ANILGAN ECZANESİ",
      "address": "CİKCİLLİ SAĞLIK OCAĞI KARŞISI ALANYUM ALIŞVERİŞ MERKEZİ ÜSTÜ",
      "phone": "02425286200",
      "district": "Antalya",
      "city": "Antalya",
      "latitude": 36.4689144991632,
      "longitude": 32.11735010147095,
      "dutyStart": "2026-02-18T08:00:00.000Z",
      "dutyEnd": "2026-02-19T08:00:00.000Z"
    },
    {
      "id": "antalya-19",
      "name": "ÖRS ECZANESİ",
      "address": "MAHMUTLAR MAH. 4 YOL MEVKİİ, GOLD CİTY OTEL KAVŞAĞI DORİS AYTUR OTEL KARŞISI",
      "phone": "02425651172",
      "district": "Manavgat",
      "city": "Antalya",
      "latitude": 36.7940999593,
      "longitude": 31.4403410931,
      "dutyStart": "2026-02-18T08:00:00.000Z",
      "dutyEnd": "2026-02-19T08:00:00.000Z"
    },
    {
      "id": "antalya-20",
      "name": "BÜŞRA ECZANESİ",
      "address": "MILLI EGEMENLIK MAH. HASTANE CAD.NO.3",
      "phone": "02427432366",
      "district": "Antalya",
      "city": "Antalya",
      "latitude": 36.783023411228946,
      "longitude": 31.432286802857824,
      "dutyStart": "2026-02-18T08:00:00.000Z",
      "dutyEnd": "2026-02-19T08:00:00.000Z"
    },
    {
      "id": "antalya-21",
      "name": "CENNET ECZANESİ",
      "address": "BAHÇELİEVLER MAH. 5044 SOK. NO:46/C MANAVGAT (CUMARTESİ PAZARI YANI) ( CEP : 0554 743 23 66 )",
      "phone": "02426431838",
      "district": "Antalya",
      "city": "Antalya",
      "latitude": 37.0667592768,
      "longitude": 30.198166869,
      "dutyStart": "2026-02-18T08:00:00.000Z",
      "dutyEnd": "2026-02-19T08:00:00.000Z"
    },
    {
      "id": "antalya-22",
      "name": "GÖKKAYA ECZANESİ",
      "address": "KİREMİTLİ MAH. ŞEHİT BİNBAŞI CENGİZ TOYTUNÇ CADDESİ NO :16/A",
      "phone": "02426186550",
      "district": "Antalya",
      "city": "Antalya",
      "latitude": 36.73884150181268,
      "longitude": 29.917775124959007,
      "dutyStart": "2026-02-18T08:00:00.000Z",
      "dutyEnd": "2026-02-19T08:00:00.000Z"
    },
    {
      "id": "antalya-23",
      "name": "ORKİDE ECZANESİ",
      "address": "KARYAGDI MH. DEMIREL BULV. NO:82G-H",
      "phone": "02428361040",
      "district": "Kaş",
      "city": "Antalya",
      "latitude": 36.200986060992065,
      "longitude": 29.640396034592413,
      "dutyStart": "2026-02-18T08:00:00.000Z",
      "dutyEnd": "2026-02-19T08:00:00.000Z"
    },
    {
      "id": "antalya-24",
      "name": "DİCLE ECZANESİ",
      "address": "ANDİFLİ MAH.ÇUKURBAĞLILAR MAH.ÇUKURBAĞLILAR SOK.NO:32/C KAŞ",
      "phone": "02428442050",
      "district": "Antalya",
      "city": "Antalya",
      "latitude": 36.27104915474865,
      "longitude": 29.41239595413208,
      "dutyStart": "2026-02-18T08:00:00.000Z",
      "dutyEnd": "2026-02-19T08:00:00.000Z"
    },
    {
      "id": "antalya-25",
      "name": "KINIK ECZANESİ",
      "address": "KAŞ İLÇESİ KALKAN MAH. ŞEHİTLER CAD. NO:30/2 KAŞ",
      "phone": "02428454102",
      "district": "Antalya",
      "city": "Antalya",
      "latitude": 36.35216144470179,
      "longitude": 29.31785253887017,
      "dutyStart": "2026-02-18T08:00:00.000Z",
      "dutyEnd": "2026-02-19T08:00:00.000Z"
    },
    {
      "id": "antalya-26",
      "name": "ERASLAN ECZANESİ",
      "address": "KINIK MAH. BELEDİYE MEYDANI NO:9/A /KAŞ",
      "phone": "02428712168",
      "district": "Antalya",
      "city": "Antalya",
      "latitude": 36.24233708666553,
      "longitude": 29.985777139663696,
      "dutyStart": "2026-02-18T08:00:00.000Z",
      "dutyEnd": "2026-02-19T08:00:00.000Z"
    },
    {
      "id": "antalya-27",
      "name": "DUYGU ECZANESİ",
      "address": "GÖKYAZI MH. EYNIHAL SK. NO:1 TUNA AP.",
      "phone": "02428554186",
      "district": "Antalya",
      "city": "Antalya",
      "latitude": 36.30351837726742,
      "longitude": 30.148378014564514,
      "dutyStart": "2026-02-18T08:00:00.000Z",
      "dutyEnd": "2026-02-19T08:00:00.000Z"
    },
    {
      "id": "antalya-28",
      "name": "ÇOBAN NEFES ECZANESİ",
      "address": "KUM MAH. MAVİ SOK. NO:2/A FİNİKE ANTALYA",
      "phone": "02428522852",
      "district": "Antalya",
      "city": "Antalya",
      "latitude": 36.34747183393795,
      "longitude": 30.1190659757708,
      "dutyStart": "2026-02-18T08:00:00.000Z",
      "dutyEnd": "2026-02-19T08:00:00.000Z"
    },
    {
      "id": "antalya-29",
      "name": "EMRE ECZANESİ",
      "address": "**(GECE SAAT 23.59'A KADAR AÇIK)**",
      "phone": "05303680780",
      "district": "Antalya",
      "city": "Antalya",
      "latitude": 36.33840391978616,
      "longitude": 30.213528624479277,
      "dutyStart": "2026-02-18T08:00:00.000Z",
      "dutyEnd": "2026-02-19T08:00:00.000Z"
    },
    {
      "id": "antalya-30",
      "name": "SUDE ECZANESİ",
      "address": "**(GECE SAAT 23.59'A KADAR AÇIK)**",
      "phone": "02428877000",
      "district": "Kumluca",
      "city": "Antalya",
      "latitude": 36.36572351744921,
      "longitude": 30.292134360147653,
      "dutyStart": "2026-02-18T08:00:00.000Z",
      "dutyEnd": "2026-02-19T08:00:00.000Z"
    },
    {
      "id": "antalya-31",
      "name": "BURAL ECZANESİ",
      "address": "NARENCİYE MAH.ADNAN MENDERES BUL.NO:25-1/A KUMLUCA",
      "phone": "02428246604",
      "district": "Kemer",
      "city": "Antalya",
      "latitude": 36.600006956365405,
      "longitude": 30.561062693595886,
      "dutyStart": "2026-02-18T08:00:00.000Z",
      "dutyEnd": "2026-02-19T08:00:00.000Z"
    },
    {
      "id": "antalya-32",
      "name": "HEDİYE ECZANESİ",
      "address": "Atatürk Caddesi Kavsak Üstü",
      "phone": "05336698190",
      "district": "Antalya",
      "city": "Antalya",
      "latitude": 36.861153,
      "longitude": 31.059071,
      "dutyStart": "2026-02-18T08:00:00.000Z",
      "dutyEnd": "2026-02-19T08:00:00.000Z"
    },
    {
      "id": "antalya-33",
      "name": "SAĞLIK ECZANESİ",
      "address": "*(GECE SAAT 02:00'A KADAR AÇIK)*",
      "phone": "02427220737",
      "district": "Antalya",
      "city": "Antalya",
      "latitude": 36.916940931829295,
      "longitude": 31.10308349132538,
      "dutyStart": "2026-02-18T08:00:00.000Z",
      "dutyEnd": "2026-02-19T08:00:00.000Z"
    },
    {
      "id": "antalya-34",
      "name": "BUSE UYSAL ECZANESİ",
      "address": "MERKEZ MAH. ŞEHİT MURAT UZUN CAD. NO:12/101 SERİK",
      "phone": "05324848574",
      "district": "Antalya",
      "city": "Antalya",
      "latitude": 36.27021046051974,
      "longitude": 32.30931413904285,
      "dutyStart": "2026-02-18T08:00:00.000Z",
      "dutyEnd": "2026-02-19T08:00:00.000Z"
    },
    {
      "id": "antalya-35",
      "name": "MERKEZ ECZANESİ",
      "address": "CUMHUİYET MAH. HASTANE CAD.GAZİPAŞA",
      "phone": "02426781184",
      "district": "Akseki",
      "city": "Antalya",
      "latitude": 37.046704329412094,
      "longitude": 31.789321303367615,
      "dutyStart": "2026-02-18T08:00:00.000Z",
      "dutyEnd": "2026-02-19T08:00:00.000Z"
    },
    {
      "id": "antalya-36",
      "name": "0 242 311 03 29",
      "address": "ÖMER DURAK CAD. NO:42/7",
      "phone": "02423110329",
      "district": "Antalya",
      "city": "Antalya",
      "latitude": 36.876696,
      "longitude": 30.735134,
      "dutyStart": "2026-02-18T08:00:00.000Z",
      "dutyEnd": "2026-02-19T08:00:00.000Z"
    }
  ]
}