{
  "city": "bursa",
  "cityName": "Bursa",
  "cityId": 16,
  "date": "2026-02-20",
  "updatedAt": "2026-02-20T09:30:59.698Z",
  "count": 35,
  "pharmacies": [
    {
      "id": "bursa-0",
      "name": "SİNEM ECZANESİ",
      "address": "KURTULUŞ MAH. 4(510).SOK. D-BLOK NO:16,  (GÖRÜKLE GÖÇMEN KONUTLARI ASM KARŞISI) ,  0224 470 08 28",
      "phone": "02244700828",
      "district": "NİLÜFER",
      "city": "Bursa",
      "latitude": 40.2173502,
      "longitude": 28.8246425,
      "dutyStart": "2026-02-20T18:30:00.000Z",
      "dutyEnd": "2026-02-21T10:00:00.000Z"
    },
    {
      "id": "bursa-1",
      "name": "SAADET ECZANESİ",
      "address": "ALTINŞEHİR MAH. UĞUR MUMCU BULVARI NO:76,  (TAŞYAKAN SİTESİ H-BLOK) ,  0224 413 04 37",
      "phone": "02244130437",
      "district": "NİLÜFER",
      "city": "Bursa",
      "latitude": 40.220864698820456,
      "longitude": 28.915350784441113,
      "dutyStart": "2026-02-20T18:30:00.000Z",
      "dutyEnd": "2026-02-21T10:00:00.000Z"
    },
    {
      "id": "bursa-2",
      "name": "LALE ECZANESİ",
      "address": "İHSANİYE MAH. 2.ER SOK. NO:3A/A,  (CENGİZ GÖLLÜ VOLEYBOL SALONU KARŞISI - CARREFOURSA MARKET YANI) ,  0224 245 76 00 / 0533 363 13 39",
      "phone": "02242457600",
      "district": "NİLÜFER",
      "city": "Bursa",
      "latitude": 40.21420771091065,
      "longitude": 28.981497604576266,
      "dutyStart": "2026-02-20T18:30:00.000Z",
      "dutyEnd": "2026-02-21T10:00:00.000Z"
    },
    {
      "id": "bursa-3",
      "name": "ALEV ECZANESİ",
      "address": "FETHİYE MAH. HUZUR CAD. NO:7/A,  (ÖZEL MEDİCABİL HASTANESİ ARKASI - FETHİYE GİRİŞİ) ,  0224 242 02 27",
      "phone": "02242420227",
      "district": "NİLÜFER",
      "city": "Bursa",
      "latitude": 40.232597517078325,
      "longitude": 28.97903338222693,
      "dutyStart": "2026-02-20T18:30:00.000Z",
      "dutyEnd": "2026-02-21T10:00:00.000Z"
    },
    {
      "id": "bursa-4",
      "name": "DEVA ECZANESİ",
      "address": "ÜÇEVLER MAH. İZMİRYOLU CAD. NO:241/A-I ,  0224 413 04 64 / 0224 4130465 ,  Eczaneyi haritada görüntülemek için tıklayınız...",
      "phone": "02244130464",
      "district": "NİLÜFER",
      "city": "Bursa",
      "latitude": 40.211512,
      "longitude": 28.941013,
      "dutyStart": "2026-02-20T18:30:00.000Z",
      "dutyEnd": "2026-02-21T10:00:00.000Z"
    },
    {
      "id": "bursa-5",
      "name": "ALYA ECZANESİ",
      "address": "KIRCAALİ MAH. FEVZİ ÇAKMAK CAD. KAYALI SOK. NO:34/B,  (KENT MEYDANI - ÖZEL VM MEDİCALPARK HASTANESİ ACİL ÇIKIŞI) ,  0224 223 22 53",
      "phone": "02242232253",
      "district": "OSMANGAZİ",
      "city": "Bursa",
      "latitude": 40.19434123930301,
      "longitude": 29.06068658424585,
      "dutyStart": "2026-02-20T18:30:00.000Z",
      "dutyEnd": "2026-02-21T10:00:00.000Z"
    },
    {
      "id": "bursa-6",
      "name": "AYHAN ECZANESİ",
      "address": "EMEK ZEKAİ GÜMÜŞDİŞ MAH. 7.OĞUZ SOK. NO:22,  (19 NOLU AİLE SAĞLIĞI MERKEZİ YANI) ,  0224 243 11 22",
      "phone": "02242431122",
      "district": "OSMANGAZİ",
      "city": "Bursa",
      "latitude": 40.25388172080065,
      "longitude": 28.957273893962565,
      "dutyStart": "2026-02-20T18:30:00.000Z",
      "dutyEnd": "2026-02-21T10:00:00.000Z"
    },
    {
      "id": "bursa-7",
      "name": "SARAY ECZANESİ",
      "address": "ÇEKİRGE MAH. ÇEKİRGE CAD. NO:171/A,  (ÇEKİRGE MEYDANI) ,  0224 235 23 62",
      "phone": "02242352362",
      "district": "OSMANGAZİ",
      "city": "Bursa",
      "latitude": 40.201772359031196,
      "longitude": 29.024514079674365,
      "dutyStart": "2026-02-20T18:30:00.000Z",
      "dutyEnd": "2026-02-21T10:00:00.000Z"
    },
    {
      "id": "bursa-8",
      "name": "TUĞRUL ECZANESİ",
      "address": "İSTİKLAL MAH. PARS SOK. NO:9/E,  (DOWNTOWN MEDITOWN GİRİŞİ KARŞISI) ,  0224 504 50 40",
      "phone": "02245045040",
      "district": "OSMANGAZİ",
      "city": "Bursa",
      "latitude": 40.2197036899213,
      "longitude": 29.010845638671608,
      "dutyStart": "2026-02-20T18:30:00.000Z",
      "dutyEnd": "2026-02-21T10:00:00.000Z"
    },
    {
      "id": "bursa-9",
      "name": "PINAR ECZANESİ",
      "address": "FATİH MAH. FINDIKLI SOK. NO:4,  (ESKİ ÇOK PROGRAMLI LİSE YANI) ,  0224-2539010",
      "phone": "02242539010",
      "district": "OSMANGAZİ",
      "city": "Bursa",
      "latitude": 40.214848437716284,
      "longitude": 29.0580305413323,
      "dutyStart": "2026-02-20T18:30:00.000Z",
      "dutyEnd": "2026-02-21T10:00:00.000Z"
    },
    {
      "id": "bursa-10",
      "name": "GÜNAY ECZANESİ",
      "address": "HOCAALİZADE MAH. HOCAALİZADE CAD. NO:11/1-B,  (SETBAŞI DEVLET SU İŞLERİ TESİSLERİ ARALIĞI) ,  0224 224 28 25 / 0224 2242830",
      "phone": "02242242825",
      "district": "OSMANGAZİ",
      "city": "Bursa",
      "latitude": 40.1806171187875,
      "longitude": 29.068676903806363,
      "dutyStart": "2026-02-20T18:30:00.000Z",
      "dutyEnd": "2026-02-21T10:00:00.000Z"
    },
    {
      "id": "bursa-11",
      "name": "HAMİTLER MACİT ECZANESİ",
      "address": "HAMİTLER MAH. NAR SOK. NO:9,  (PAZARTESİ PAZARI VE ASM YANI) ,  0224-2491133",
      "phone": "02242491133",
      "district": "OSMANGAZİ",
      "city": "Bursa",
      "latitude": 40.24221623,
      "longitude": 28.99708807,
      "dutyStart": "2026-02-20T18:30:00.000Z",
      "dutyEnd": "2026-02-21T10:00:00.000Z"
    },
    {
      "id": "bursa-12",
      "name": "BERKE ECZANESİ",
      "address": "YUNUS EMRE MAH. KIRKPINAR CAD. NO:66/A,  (DEVLET SU İŞLERİ ALTI - YUNUS EMRE ASM YANI) ,  0224 363 17 17",
      "phone": "02243631717",
      "district": "YILDIRIM",
      "city": "Bursa",
      "latitude": 40.200178065819834,
      "longitude": 29.103969414180256,
      "dutyStart": "2026-02-20T18:30:00.000Z",
      "dutyEnd": "2026-02-21T10:00:00.000Z"
    },
    {
      "id": "bursa-13",
      "name": "YEŞİLKENT ECZANESİ",
      "address": "ORTABAĞLAR MAH. AYDOĞDU CAD. NO:12,  (SALI PAZARI - ORTABAĞLAR ASM KARŞISI) ,  0224 366 40 03",
      "phone": "02243664003",
      "district": "YILDIRIM",
      "city": "Bursa",
      "latitude": 40.18662229528643,
      "longitude": 29.116388708353043,
      "dutyStart": "2026-02-20T18:30:00.000Z",
      "dutyEnd": "2026-02-21T10:00:00.000Z"
    },
    {
      "id": "bursa-14",
      "name": "GÜRSOY ECZANESİ",
      "address": "DAVUTDEDE MAH. 2.AÇIK SOK. NO:3/A,  (DAVUTDEDE METRO İSTASYONU ÇIKIŞI - YILDIRIM BELEDİYESİ ALTI) ,  0224 351 05 00",
      "phone": "02243510500",
      "district": "YILDIRIM",
      "city": "Bursa",
      "latitude": 40.19114972960925,
      "longitude": 29.086506687985946,
      "dutyStart": "2026-02-20T18:30:00.000Z",
      "dutyEnd": "2026-02-21T10:00:00.000Z"
    },
    {
      "id": "bursa-15",
      "name": "BÜYÜKORHAN ECZANESİ",
      "address": "ORHAN MAH. DR.İBRAHİM ÖKTEM CAD. NO:13/B ,  0224 841 23 70 ,  Eczaneyi haritada görüntülemek için tıklayınız...",
      "phone": "02248412370",
      "district": "BÜYÜKORHAN",
      "city": "Bursa",
      "latitude": 39.773187817429196,
      "longitude": 28.885376751422882,
      "dutyStart": "2026-02-20T19:00:00.000Z",
      "dutyEnd": "2026-02-21T08:30:00.000Z"
    },
    {
      "id": "bursa-16",
      "name": "GEMLİK KÖRFEZ ECZANESİ",
      "address": "EŞREF DİNÇER MAH. ÖMER HALİSDEMİR CAD. NO:34 ,  0224 512 25 12 ,  Eczaneyi haritada görüntülemek için tıklayınız...",
      "phone": "02245122512",
      "district": "GEMLİK",
      "city": "Bursa",
      "latitude": 40.42826358582734,
      "longitude": 29.16998863220215,
      "dutyStart": "2026-02-20T18:30:00.000Z",
      "dutyEnd": "2026-02-21T09:30:00.000Z"
    },
    {
      "id": "bursa-17",
      "name": "BAYER ECZANESİ",
      "address": "DR.ZİYA KAYA MAH. İSTİKLAL CAD. NO:121/A ,  0224-5130143 ,  Eczaneyi haritada görüntülemek için tıklayınız...",
      "phone": "02245130143",
      "district": "GEMLİK",
      "city": "Bursa",
      "latitude": 40.430487,
      "longitude": 29.155665999999997,
      "dutyStart": "2026-02-20T18:30:00.000Z",
      "dutyEnd": "2026-02-21T00:00:00.000Z"
    },
    {
      "id": "bursa-18",
      "name": "KAYAPINAR ECZANESİ",
      "address": "YENİDOĞAN MAH. İNKILAP SOK. NO:23 ,  0224-3711233 ,  Eczaneyi haritada görüntülemek için tıklayınız...",
      "phone": "02243711233",
      "district": "GÜRSU",
      "city": "Bursa",
      "latitude": 40.201091,
      "longitude": 29.180690000000027,
      "dutyStart": "2026-02-20T18:30:00.000Z",
      "dutyEnd": "2026-02-21T10:00:00.000Z"
    },
    {
      "id": "bursa-19",
      "name": "ULAŞ ECZANESİ",
      "address": "MERKEZ MAH. FEVZİ PAŞA CAD. NO:9/A ,  0224-8812272 ,  Eczaneyi haritada görüntülemek için tıklayınız...",
      "phone": "02248812272",
      "district": "HARMANCIK",
      "city": "Bursa",
      "latitude": 39.679027,
      "longitude": 29.154901999999993,
      "dutyStart": "2026-02-20T18:00:00.000Z",
      "dutyEnd": "2026-02-21T08:30:00.000Z"
    },
    {
      "id": "bursa-20",
      "name": "ŞAMİL ECZANESİ",
      "address": "TURGUTALP MAH. FİDANLIK SOK. NO:20,  (KAVAKLARALTI MEZARLIĞI YANI) ,  0224 719 33 10",
      "phone": "02247193310",
      "district": "İNEGÖL",
      "city": "Bursa",
      "latitude": 40.07877,
      "longitude": 29.49858,
      "dutyStart": "2026-02-20T18:00:00.000Z",
      "dutyEnd": "2026-02-21T01:00:00.000Z"
    },
    {
      "id": "bursa-21",
      "name": "ATMACA ECZANESİ",
      "address": "MESUDİYE MAH. SEVGİ SOK. NO:4 ,  0224 711 04 24 ,  Eczaneyi haritada görüntülemek için tıklayınız...",
      "phone": "02247110424",
      "district": "İNEGÖL",
      "city": "Bursa",
      "latitude": 40.08124837589111,
      "longitude": 29.53299880027771,
      "dutyStart": "2026-02-20T18:00:00.000Z",
      "dutyEnd": "2026-02-21T01:00:00.000Z"
    },
    {
      "id": "bursa-22",
      "name": "ANNEM ECZANESİ",
      "address": "SÜLEYMANİYE MAH. FURKAN SOK. NO:5/A,  (ÖZEL ARİTMİ HASTANESİ ACİL ÇIKIŞI) ,  0224 502 11 88 / 5021188",
      "phone": "02245021188",
      "district": "İNEGÖL",
      "city": "Bursa",
      "latitude": 40.08948,
      "longitude": 29.494929,
      "dutyStart": "2026-02-20T18:00:00.000Z",
      "dutyEnd": "2026-02-21T10:30:00.000Z"
    },
    {
      "id": "bursa-23",
      "name": "UĞUR ECZANESİ",
      "address": "MUSTAFAKEMALPAŞA MAH. ORHANGAZİ CAD. NO:26/B ,  0224 757 16 56 ,  Eczaneyi haritada görüntülemek için tıklayınız...",
      "phone": "02247571656",
      "district": "İZNİK",
      "city": "Bursa",
      "latitude": 40.436916,
      "longitude": 29.720001,
      "dutyStart": "2026-02-20T18:30:00.000Z",
      "dutyEnd": "2026-02-21T08:30:00.000Z"
    },
    {
      "id": "bursa-24",
      "name": "BEYZA ECZANESİ",
      "address": "GAZİ MAH. FATİH SULTAN MEHMET CAD. NO:4A-4B ,  0224 676 67 70 ,  Eczaneyi haritada görüntülemek için tıklayınız...",
      "phone": "02246766770",
      "district": "KARACABEY",
      "city": "Bursa",
      "latitude": 40.209494,
      "longitude": 28.366459,
      "dutyStart": "2026-02-20T18:00:00.000Z",
      "dutyEnd": "2026-02-21T09:30:00.000Z"
    },
    {
      "id": "bursa-25",
      "name": "ŞİFA ECZANESİ",
      "address": "CUMA MAH. ATATÜRK CAD. ÇARŞI İÇİ NO:3/B ,  0224 861 21 64 ,  Eczaneyi haritada görüntülemek için tıklayınız...",
      "phone": "02248612164",
      "district": "KELES",
      "city": "Bursa",
      "latitude": 39.91276107279525,
      "longitude": 29.233170631710127,
      "dutyStart": "2026-02-20T18:00:00.000Z",
      "dutyEnd": "2026-02-21T00:00:00.000Z"
    },
    {
      "id": "bursa-26",
      "name": "YİĞİTLER ECZANESİ",
      "address": "YENİ MAH. MUHTARBEY SOK. NO:8/A ,  0224 372 17 32 ,  Eczaneyi haritada görüntülemek için tıklayınız...",
      "phone": "02243721732",
      "district": "KESTEL",
      "city": "Bursa",
      "latitude": 40.191098,
      "longitude": 29.210504000000014,
      "dutyStart": "2026-02-20T18:00:00.000Z",
      "dutyEnd": "2026-02-21T10:00:00.000Z"
    },
    {
      "id": "bursa-27",
      "name": "ÇALI CEREN ECZANESİ",
      "address": "ÇALI MAH. 149. SOKAK NO:4/A,  (İCAP NÖBETÇİDİR) ,  0224 482 28 28",
      "phone": "02244822828",
      "district": "NİLÜFER",
      "city": "Bursa",
      "latitude": 40.17215205635093,
      "longitude": 28.92035437203072,
      "dutyStart": "2026-02-20T18:00:00.000Z",
      "dutyEnd": "2026-02-20T20:00:00.000Z"
    },
    {
      "id": "bursa-28",
      "name": "DOĞA ECZANESİ",
      "address": "GÜZELYALI YALI MAH. ATATÜRK CAD. NO:74/A ,  0224 224 84 78 ,  Eczaneyi haritada görüntülemek için tıklayınız...",
      "phone": "02242248478",
      "district": "MUDANYA",
      "city": "Bursa",
      "latitude": 40.357595,
      "longitude": 28.917909,
      "dutyStart": "2026-02-20T18:00:00.000Z",
      "dutyEnd": "2026-02-21T08:30:00.000Z"
    },
    {
      "id": "bursa-29",
      "name": "MUDANYA ECZANESİ",
      "address": "MÜTAREKE MAH. MUSTAFAKEMALPAŞA CAD. NO:67 16940 ,  0224 544 13 07 / 2245440450 ,  Eczaneyi haritada görüntülemek için tıklayınız...",
      "phone": "02245441307",
      "district": "MUDANYA",
      "city": "Bursa",
      "latitude": 40.378557,
      "longitude": 28.88146299999994,
      "dutyStart": "2026-02-20T18:00:00.000Z",
      "dutyEnd": "2026-02-21T08:30:00.000Z"
    },
    {
      "id": "bursa-30",
      "name": "ERDOĞAN ECZANESİ",
      "address": "ŞEYHMÜFTÜ MAH. BALIKESİR CAD. NO:26/14 ,  0224-6131755 / 5333052715 ,  Eczaneyi haritada görüntülemek için tıklayınız...",
      "phone": "02246131755",
      "district": "MUSTAFAKEMALPAŞA",
      "city": "Bursa",
      "latitude": 40.035090078668354,
      "longitude": 28.410647213459015,
      "dutyStart": "2026-02-20T18:00:00.000Z",
      "dutyEnd": "2026-02-21T10:00:00.000Z"
    },
    {
      "id": "bursa-31",
      "name": "YENİ OĞUZ ECZANESİ",
      "address": "İSMET PAŞA MAH. HASTANE SOK. NO:10/A ,  0224-8171308 ,  Eczaneyi haritada görüntülemek için tıklayınız...",
      "phone": "02248171308",
      "district": "ORHANELİ",
      "city": "Bursa",
      "latitude": 39.902116,
      "longitude": 28.988188000000036,
      "dutyStart": "2026-02-20T18:00:00.000Z",
      "dutyEnd": "2026-02-21T08:30:00.000Z"
    },
    {
      "id": "bursa-32",
      "name": "BERNA ECZANESİ",
      "address": "HÜRRİYET MAH. KULÜP SOK. NO:8 ,  0224 572 53 13 ,  Eczaneyi haritada görüntülemek için tıklayınız...",
      "phone": "02245725313",
      "district": "ORHANGAZİ",
      "city": "Bursa",
      "latitude": 40.4811220222772,
      "longitude": 29.304611719251074,
      "dutyStart": "2026-02-20T18:00:00.000Z",
      "dutyEnd": "2026-02-21T09:30:00.000Z"
    },
    {
      "id": "bursa-33",
      "name": "OSMANGAZİ ECZANESİ",
      "address": "DEMİRTAŞ CUMHURİYET MAH. 201.CAD. NO:23/A ,  0224-2625562 ,  Eczaneyi haritada görüntülemek için tıklayınız...",
      "phone": "02242625562",
      "district": "OSMANGAZİ",
      "city": "Bursa",
      "latitude": 40.26852819658334,
      "longitude": 29.093207716941833,
      "dutyStart": "2026-02-20T18:30:00.000Z",
      "dutyEnd": "2026-02-21T10:00:00.000Z"
    },
    {
      "id": "bursa-34",
      "name": "NURDAN ECZANESİ",
      "address": "ÇAYIR MAH. HACI HASAN SOK. BEYSEL ÇARŞISI NO:1 ,  0224 773 13 32 ,  Eczaneyi haritada görüntülemek için tıklayınız...",
      "phone": "02247731332",
      "district": "YENİŞEHİR",
      "city": "Bursa",
      "latitude": 40.26341,
      "longitude": 29.649937000000023,
      "dutyStart": "2026-02-20T18:00:00.000Z",
      "dutyEnd": "2026-02-21T08:00:00.000Z"
    }
  ]
}