{
  "city": "bursa",
  "cityName": "Bursa",
  "cityId": 16,
  "date": "2026-02-15",
  "updatedAt": "2026-02-15T20:30:11.580Z",
  "count": 37,
  "pharmacies": [
    {
      "id": "bursa-0",
      "name": "KOÇOĞLU ECZANESİ",
      "address": "KONAK MAH. MUTLU SOK. NO:11,  (BEŞEVLER PAZAR YERİ ALTI - AİLE SAĞLIĞI MERKEZİ YANI) ,  0224 450 00 21",
      "phone": "02244500021",
      "district": "NİLÜFER",
      "city": "Bursa",
      "latitude": 40.20535378901576,
      "longitude": 28.981840812419364,
      "dutyStart": "2026-02-15T08:30:00.000Z",
      "dutyEnd": "2026-02-16T08:30:00.000Z"
    },
    {
      "id": "bursa-1",
      "name": "DERİN ECZANESİ",
      "address": "ESENTEPE MAH. İNANÇ SOK. NO:18/A,  (ESENTEPE HASTANESİ ACİL GİRİŞİ) ,  0224 247 80 04",
      "phone": "02242478004",
      "district": "NİLÜFER",
      "city": "Bursa",
      "latitude": 40.229435,
      "longitude": 28.984283,
      "dutyStart": "2026-02-15T08:30:00.000Z",
      "dutyEnd": "2026-02-16T08:30:00.000Z"
    },
    {
      "id": "bursa-2",
      "name": "BEKÇİOĞLU ECZANESİ",
      "address": "BEŞEVLER MAH. ALİM SOK. NO:20-21,  (ÖZHAN VE ONUR MARKET KARŞISI) ,  0224 503 40 07 / 2245034010",
      "phone": "02245034007",
      "district": "NİLÜFER",
      "city": "Bursa",
      "latitude": 40.2039873,
      "longitude": 28.9544168,
      "dutyStart": "2026-02-15T08:30:00.000Z",
      "dutyEnd": "2026-02-16T08:30:00.000Z"
    },
    {
      "id": "bursa-3",
      "name": "LAVANTA ECZANESİ",
      "address": "ATAEVLER MAH. GAZİOSMANPAŞA CAD. NO:13F/A,  (ÖZEL 22.YÜZYIL OKULLARI ÇAPRAZI) ,  0544 881 29 30",
      "phone": "05448812930",
      "district": "NİLÜFER",
      "city": "Bursa",
      "latitude": 40.217579855460215,
      "longitude": 28.960356457241822,
      "dutyStart": "2026-02-15T08:30:00.000Z",
      "dutyEnd": "2026-02-16T08:30:00.000Z"
    },
    {
      "id": "bursa-4",
      "name": "MELEK ŞİFA ECZANESİ",
      "address": "KURTULUŞ MAH. 4(510).SOK. D-BLOK NO:17,  (GÖRÜKLE GÖÇMEN KONUTLARI KURTULUŞ ASM KARŞISI) ,  0224 441 82 61",
      "phone": "02244418261",
      "district": "NİLÜFER",
      "city": "Bursa",
      "latitude": 40.2173851,
      "longitude": 28.8246649,
      "dutyStart": "2026-02-15T08:30:00.000Z",
      "dutyEnd": "2026-02-16T08:30:00.000Z"
    },
    {
      "id": "bursa-5",
      "name": "BENGİSU ECZANESİ",
      "address": "ALTINŞEHİR MAH. ABDİ İPEKÇİ CAD. NO:42,  (ŞAHİNKAYA OKULLARI ARKASI) ,  0224 249 38 38",
      "phone": "02242493838",
      "district": "NİLÜFER",
      "city": "Bursa",
      "latitude": 40.229073173875854,
      "longitude": 28.9183471190501,
      "dutyStart": "2026-02-15T08:30:00.000Z",
      "dutyEnd": "2026-02-16T08:30:00.000Z"
    },
    {
      "id": "bursa-6",
      "name": "ŞEREMET ECZANESİ",
      "address": "İHSANİYE MAH. ZİYA GÜNEY CAD. NO:17 ,  0224 245 68 39 / 0224 2493907 ,  Eczaneyi haritada görüntülemek için tıklayınız...",
      "phone": "02242456839",
      "district": "NİLÜFER",
      "city": "Bursa",
      "latitude": 40.21694065,
      "longitude": 28.99152249,
      "dutyStart": "2026-02-15T08:30:00.000Z",
      "dutyEnd": "2026-02-16T08:30:00.000Z"
    },
    {
      "id": "bursa-7",
      "name": "ASUMAN ECZANESİ",
      "address": "EMEK ZEKAİ GÜMÜŞDİŞ MAH. GÜLER SOK. NO:25/A,  (EMEK ZEKAİ GÜMÜŞDİŞ ASM KARŞISI) ,  0224 243 00 42",
      "phone": "02242430042",
      "district": "OSMANGAZİ",
      "city": "Bursa",
      "latitude": 40.2541145850913,
      "longitude": 28.95705074071884,
      "dutyStart": "2026-02-15T08:30:00.000Z",
      "dutyEnd": "2026-02-16T08:30:00.000Z"
    },
    {
      "id": "bursa-8",
      "name": "MEYDAN ECZANESİ",
      "address": "İSTİKLAL MAH. 5.DİNÇ SOK. NO:3,  (HÜRRİYET MEYDANI) ,  0534 828 32 50",
      "phone": "05348283250",
      "district": "OSMANGAZİ",
      "city": "Bursa",
      "latitude": 40.221723129839255,
      "longitude": 29.005968742216368,
      "dutyStart": "2026-02-15T08:30:00.000Z",
      "dutyEnd": "2026-02-16T08:30:00.000Z"
    },
    {
      "id": "bursa-9",
      "name": "AİLEM ECZANESİ",
      "address": "HAMİTLER MAH. 2.COŞKUN SOK. NO:3/B,  (HAMİTLER MACERA PARKI VE 53 NO'LU ŞEHİT ÜTĞM.AYKUT KÖROĞLU ASM KARŞISI) ,  0224 999 58 38",
      "phone": "02249995838",
      "district": "OSMANGAZİ",
      "city": "Bursa",
      "latitude": 40.249793,
      "longitude": 28.983761,
      "dutyStart": "2026-02-15T08:30:00.000Z",
      "dutyEnd": "2026-02-16T08:30:00.000Z"
    },
    {
      "id": "bursa-10",
      "name": "CÖMERT ECZANESİ",
      "address": "KÜKÜRTLÜ MAH. KÜKÜRTLÜ CAD. NO:28/C,  (KÜKÜRTLÜ TİCARET VE SANAYİ ODASI ORTAOKULU KARŞISI) ,  0224 242 32 92",
      "phone": "02242423292",
      "district": "OSMANGAZİ",
      "city": "Bursa",
      "latitude": 40.20572252379723,
      "longitude": 29.025113135576248,
      "dutyStart": "2026-02-15T08:30:00.000Z",
      "dutyEnd": "2026-02-16T08:30:00.000Z"
    },
    {
      "id": "bursa-11",
      "name": "YENİ ÖZGE ECZANESİ",
      "address": "SAKARYA MAH. GAZCILAR CAD. NO:54/2A,  (CEM SULTAN LİSESİ TRAFİK LAMBALARI) ,  0224 222 24 34 / 0224 252 14 83",
      "phone": "02242222434",
      "district": "OSMANGAZİ",
      "city": "Bursa",
      "latitude": 40.19089344,
      "longitude": 29.06713128,
      "dutyStart": "2026-02-15T08:30:00.000Z",
      "dutyEnd": "2026-02-16T08:30:00.000Z"
    },
    {
      "id": "bursa-12",
      "name": "HACEGAN ECZANESİ",
      "address": "FATİH MAH. ETİBANK CAD. NO:175/A,  (BEŞYOL LAMBALARI GİRİŞİ) ,  0224 255 84 91",
      "phone": "02242558491",
      "district": "OSMANGAZİ",
      "city": "Bursa",
      "latitude": 40.2096487,
      "longitude": 29.0582273,
      "dutyStart": "2026-02-15T08:30:00.000Z",
      "dutyEnd": "2026-02-16T08:30:00.000Z"
    },
    {
      "id": "bursa-13",
      "name": "MAKSEM ECZANESİ",
      "address": "MAKSEM MAH. 8.MURAT SOK. NO:3,  (MAKSEM HİZMET BİNASI KARŞISI) ,  0224 220 28 87",
      "phone": "02242202887",
      "district": "OSMANGAZİ",
      "city": "Bursa",
      "latitude": 40.178102261278106,
      "longitude": 29.061649518863533,
      "dutyStart": "2026-02-15T08:30:00.000Z",
      "dutyEnd": "2026-02-16T08:30:00.000Z"
    },
    {
      "id": "bursa-14",
      "name": "EMİRSULTAN ECZANESİ",
      "address": "EMİRSULTAN MAH. DOYURAN CAD. NO:18,  (EMİRSULTAN CAMİİ YANI) ,  0224 327 80 92",
      "phone": "02243278092",
      "district": "YILDIRIM",
      "city": "Bursa",
      "latitude": 40.181060085449914,
      "longitude": 29.082391835668687,
      "dutyStart": "2026-02-15T08:30:00.000Z",
      "dutyEnd": "2026-02-16T08:30:00.000Z"
    },
    {
      "id": "bursa-15",
      "name": "ŞİFANUR ECZANESİ",
      "address": "152 EVLER MAH. 1.NUR SOK. NO:11 ,  (BURSA TEKNİK ÜNİVERSİTESİ YANI) ,  0224 361 28 27",
      "phone": "02243612827",
      "district": "YILDIRIM",
      "city": "Bursa",
      "latitude": 40.18681183,
      "longitude": 29.10456419,
      "dutyStart": "2026-02-15T08:30:00.000Z",
      "dutyEnd": "2026-02-16T08:30:00.000Z"
    },
    {
      "id": "bursa-16",
      "name": "ERTAN KOÇ ECZANESİ",
      "address": "ERİKLİ MAH EFLAK CAD. NO:8/B,  (ZİRAAT BANKASI ÇAPRAZI - ERİKLİ SAĞLIK OCAĞI KARŞISI) ,  0224 368 00 00",
      "phone": "02243680000",
      "district": "YILDIRIM",
      "city": "Bursa",
      "latitude": 40.187643,
      "longitude": 29.139745,
      "dutyStart": "2026-02-15T08:30:00.000Z",
      "dutyEnd": "2026-02-16T08:30:00.000Z"
    },
    {
      "id": "bursa-17",
      "name": "EZGİ ECZANESİ",
      "address": "YUNUS EMRE MAH. 1.KIZILIRMAK SOK. NO:88/A,  (MİLLET ASM KARŞISI - DARÜSSELAM CAMİ ÇAPRAZI) ,  0224 351 11 41",
      "phone": "02243511141",
      "district": "YILDIRIM",
      "city": "Bursa",
      "latitude": 40.210606,
      "longitude": 29.101828,
      "dutyStart": "2026-02-15T08:30:00.000Z",
      "dutyEnd": "2026-02-16T08:30:00.000Z"
    },
    {
      "id": "bursa-18",
      "name": "BÜYÜKORHAN ECZANESİ",
      "address": "ORHAN MAH. DR.İBRAHİM ÖKTEM CAD. NO:13/B ,  0224 841 23 70 ,  Eczaneyi haritada görüntülemek için tıklayınız...",
      "phone": "02248412370",
      "district": "BÜYÜKORHAN",
      "city": "Bursa",
      "latitude": 39.773187817429196,
      "longitude": 28.885376751422882,
      "dutyStart": "2026-02-15T08:30:00.000Z",
      "dutyEnd": "2026-02-16T08:30:00.000Z"
    },
    {
      "id": "bursa-19",
      "name": "SEVİNÇ SARAL ECZANESİ",
      "address": "CUMHURİYET MAH. GÜL CAD. NO:184/B ,  0224-5132973 ,  Eczaneyi haritada görüntülemek için tıklayınız...",
      "phone": "02245132973",
      "district": "GEMLİK",
      "city": "Bursa",
      "latitude": 40.432557,
      "longitude": 29.154678999999987,
      "dutyStart": "2026-02-15T08:30:00.000Z",
      "dutyEnd": "2026-02-16T08:30:00.000Z"
    },
    {
      "id": "bursa-20",
      "name": "FIRTINA ECZANESİ",
      "address": "HİSAR MAH. KINA SOK. NO:35/I-A ,  0224 513 37 37 ,  Eczaneyi haritada görüntülemek için tıklayınız...",
      "phone": "02245133737",
      "district": "GEMLİK",
      "city": "Bursa",
      "latitude": 40.421106,
      "longitude": 29.157668,
      "dutyStart": "2026-02-15T08:30:00.000Z",
      "dutyEnd": "2026-02-16T00:00:00.000Z"
    },
    {
      "id": "bursa-21",
      "name": "ÇAĞRI ECZANESİ",
      "address": "ZAFER MAH. ZAFER MEYDANI CAD. NO:18/A ,  0224 371 19 05 ,  Eczaneyi haritada görüntülemek için tıklayınız...",
      "phone": "02243711905",
      "district": "GÜRSU",
      "city": "Bursa",
      "latitude": 40.218794,
      "longitude": 29.191814,
      "dutyStart": "2026-02-15T09:00:00.000Z",
      "dutyEnd": "2026-02-16T09:00:00.000Z"
    },
    {
      "id": "bursa-22",
      "name": "DERMAN ECZANESİ",
      "address": "MERKEZ MAH. FEVZİ PAŞA CAD. NO:11/1 ,  0224-8812295 ,  Eczaneyi haritada görüntülemek için tıklayınız...",
      "phone": "02248812295",
      "district": "HARMANCIK",
      "city": "Bursa",
      "latitude": 39.679107,
      "longitude": 29.155259,
      "dutyStart": "2026-02-15T08:30:00.000Z",
      "dutyEnd": "2026-02-16T08:30:00.000Z"
    },
    {
      "id": "bursa-23",
      "name": "UĞUR ECZANESİ",
      "address": "SÜLEYMANİYE MAH. PARK YOLU CAD. NO:70,  (YENİ İNEGÖL DEVLET HASTANESİ KARŞISI) ,  0224 715 66 61",
      "phone": "02247156661",
      "district": "İNEGÖL",
      "city": "Bursa",
      "latitude": 40.08239,
      "longitude": 29.49772,
      "dutyStart": "2026-02-15T08:30:00.000Z",
      "dutyEnd": "2026-02-16T08:30:00.000Z"
    },
    {
      "id": "bursa-24",
      "name": "ŞAFAK ECZANESİ",
      "address": "SÜLEYMANİYE MAH. PARKYOLU CAD. NO:68/A,  (İNEGÖL DEVLET HASTANESİ POLİKLİNİKLER KAPISI KARŞISI) ,  0224 713 43 07 / 5537134307",
      "phone": "02247134307",
      "district": "İNEGÖL",
      "city": "Bursa",
      "latitude": 40.08238325758384,
      "longitude": 29.498262852430344,
      "dutyStart": "2026-02-15T08:30:00.000Z",
      "dutyEnd": "2026-02-16T01:00:00.000Z"
    },
    {
      "id": "bursa-25",
      "name": "ALPER ECZANESİ",
      "address": "YUNUSEMRE MAH. MENEKŞE CAD. NO:10/C ALANYURT ,  0224-7192200 ,  Eczaneyi haritada görüntülemek için tıklayınız...",
      "phone": "02247192200",
      "district": "İNEGÖL",
      "city": "Bursa",
      "latitude": 40.107922,
      "longitude": 29.516734,
      "dutyStart": "2026-02-15T08:30:00.000Z",
      "dutyEnd": "2026-02-16T01:00:00.000Z"
    },
    {
      "id": "bursa-26",
      "name": "GÜLŞAH ECZANESİ",
      "address": "BEYLER MAH. ATATÜRK CAD. NO:138/A ,  0224-7576494 ,  Eczaneyi haritada görüntülemek için tıklayınız...",
      "phone": "02247576494",
      "district": "İZNİK",
      "city": "Bursa",
      "latitude": 40.293794,
      "longitude": 28.91977799999995,
      "dutyStart": "2026-02-15T08:30:00.000Z",
      "dutyEnd": "2026-02-16T08:30:00.000Z"
    },
    {
      "id": "bursa-27",
      "name": "GÜNGÖRMÜŞ ECZANESİ",
      "address": "TABAKLAR MAH. BANDIRMA CAD. NO:4,  (BELEDİYE İŞHANI ) ,  0224 676 29 07",
      "phone": "02246762907",
      "district": "KARACABEY",
      "city": "Bursa",
      "latitude": 40.21586126730154,
      "longitude": 28.358377665281296,
      "dutyStart": "2026-02-15T08:30:00.000Z",
      "dutyEnd": "2026-02-16T08:30:00.000Z"
    },
    {
      "id": "bursa-28",
      "name": "KELES ECZANESİ",
      "address": "CUMA MAH. ATATÜRK CAD. NO:20/A ,  0224 861 23 63 ,  Eczaneyi haritada görüntülemek için tıklayınız...",
      "phone": "02248612363",
      "district": "KELES",
      "city": "Bursa",
      "latitude": 39.913008,
      "longitude": 29.233012,
      "dutyStart": "2026-02-15T00:00:00.000Z",
      "dutyEnd": "2026-02-16T00:00:00.000Z"
    },
    {
      "id": "bursa-29",
      "name": "KESTEL ŞİFA ECZANESİ",
      "address": "VANİ MEHMET MAH. HAKİM AYTEKİN BAYSAL SOK. NO:3/A ,  0507 437 26 87 ,  Eczaneyi haritada görüntülemek için tıklayınız...",
      "phone": "05074372687",
      "district": "KESTEL",
      "city": "Bursa",
      "latitude": 40.199426,
      "longitude": 29.213212999999996,
      "dutyStart": "2026-02-15T08:30:00.000Z",
      "dutyEnd": "2026-02-16T08:30:00.000Z"
    },
    {
      "id": "bursa-30",
      "name": "KUTLUAY ECZANESİ",
      "address": "GÜZELYALI EĞİTİM MAH. LİSE CAD. BAYSAN APT. NO:25/A ,  0224 453 12 23 ,  Eczaneyi haritada görüntülemek için tıklayınız...",
      "phone": "02244531223",
      "district": "MUDANYA",
      "city": "Bursa",
      "latitude": 40.3512123,
      "longitude": 28.928488700000003,
      "dutyStart": "2026-02-15T08:30:00.000Z",
      "dutyEnd": "2026-02-16T08:30:00.000Z"
    },
    {
      "id": "bursa-31",
      "name": "İSKELE ECZANESİ",
      "address": "ÖMERBEY MAH. İPAR CAD. NO:74/A ,  0224-5446300 ,  Eczaneyi haritada görüntülemek için tıklayınız...",
      "phone": "02245446300",
      "district": "MUDANYA",
      "city": "Bursa",
      "latitude": 40.373985,
      "longitude": 28.88700599999993,
      "dutyStart": "2026-02-15T08:30:00.000Z",
      "dutyEnd": "2026-02-16T08:30:00.000Z"
    },
    {
      "id": "bursa-32",
      "name": "ÇELEBİ ECZANESİ",
      "address": "YÜZBAŞI SABRİBEY MAH. TAHIL MEYDANI NO:7 ,  0224 613 82 36 ,  Eczaneyi haritada görüntülemek için tıklayınız...",
      "phone": "02246138236",
      "district": "MUSTAFAKEMALPAŞA",
      "city": "Bursa",
      "latitude": 40.03613,
      "longitude": 28.410963000000038,
      "dutyStart": "2026-02-15T08:30:00.000Z",
      "dutyEnd": "2026-02-16T08:30:00.000Z"
    },
    {
      "id": "bursa-33",
      "name": "CANNUR ECZANESİ",
      "address": "İSMET PAŞA MAH. HASTANE CAD. NO:7 ,  0224-8171262 ,  Eczaneyi haritada görüntülemek için tıklayınız...",
      "phone": "02248171262",
      "district": "ORHANELİ",
      "city": "Bursa",
      "latitude": 39.905429,
      "longitude": 28.984375999999997,
      "dutyStart": "2026-02-15T08:30:00.000Z",
      "dutyEnd": "2026-02-16T08:30:00.000Z"
    },
    {
      "id": "bursa-34",
      "name": "BERNA ECZANESİ",
      "address": "HÜRRİYET MAH. KULÜP SOK. NO:8 ,  0224 572 53 13 ,  Eczaneyi haritada görüntülemek için tıklayınız...",
      "phone": "02245725313",
      "district": "ORHANGAZİ",
      "city": "Bursa",
      "latitude": 40.4811220222772,
      "longitude": 29.304611719251074,
      "dutyStart": "2026-02-15T08:30:00.000Z",
      "dutyEnd": "2026-02-16T08:30:00.000Z"
    },
    {
      "id": "bursa-35",
      "name": "DEMİRTAŞ ECZANESİ",
      "address": "DEMİRTAŞ CUMHURİYET MAH. KÜÇÜK SANAYİ 3.CAD. NO:67/A ,  0555 007 74 01 ,  Eczaneyi haritada görüntülemek için tıklayınız...",
      "phone": "05550077401",
      "district": "OSMANGAZİ",
      "city": "Bursa",
      "latitude": 40.264345325900365,
      "longitude": 29.096680717158733,
      "dutyStart": "2026-02-15T08:30:00.000Z",
      "dutyEnd": "2026-02-16T08:30:00.000Z"
    },
    {
      "id": "bursa-36",
      "name": "CEM ECZANESİ",
      "address": "KURTULUŞ MAH. ATATÜRK CAD. NO:64/A ,  0224 773 60 48 ,  Eczaneyi haritada görüntülemek için tıklayınız...",
      "phone": "02247736048",
      "district": "YENİŞEHİR",
      "city": "Bursa",
      "latitude": 40.26771160285151,
      "longitude": 29.651635587215424,
      "dutyStart": "2026-02-15T08:00:00.000Z",
      "dutyEnd": "2026-02-16T08:00:00.000Z"
    }
  ]
}