{
  "city": "bursa",
  "cityName": "Bursa",
  "cityId": 16,
  "date": "2026-02-17",
  "updatedAt": "2026-02-17T12:30:06.666Z",
  "count": 36,
  "pharmacies": [
    {
      "id": "bursa-0",
      "name": "KRİSTAL PARK ECZANESİ",
      "address": "İHSANİYE MAH. İZMİR YOLU NO:98-2K,  (NİLÜFER METRO İSTASYONU VE MİGROS MARKET YANI) ,  0224 240 25 20",
      "phone": "02242402520",
      "district": "NİLÜFER",
      "city": "Bursa",
      "latitude": 40.21259919535945,
      "longitude": 28.987444153798652,
      "dutyStart": "2026-02-17T18:30:00.000Z",
      "dutyEnd": "2026-02-18T08:30:00.000Z"
    },
    {
      "id": "bursa-1",
      "name": "YORDAM ECZANESİ",
      "address": "ÜÇEVLER MAH. BEŞEVLER KÜÇÜK SANAYİ SİTESİ NO:3 ,  (YENİ BATI GARAJI ARKASI 1.BLOK) ,  0224 441 32 40",
      "phone": "02244413240",
      "district": "NİLÜFER",
      "city": "Bursa",
      "latitude": 40.20866358,
      "longitude": 28.94060612,
      "dutyStart": "2026-02-17T18:30:00.000Z",
      "dutyEnd": "2026-02-18T08:30:00.000Z"
    },
    {
      "id": "bursa-2",
      "name": "GÖKÇENAY ECZANESİ",
      "address": "ATAEVLER MAH. BELDE SOK. NO:10/A,  (ÖZEL PEDMER ÇOCUK KLİNİĞİ ÇAPRAZI) ,  0224 441 37 30",
      "phone": "02244413730",
      "district": "NİLÜFER",
      "city": "Bursa",
      "latitude": 40.21466921532911,
      "longitude": 28.956130743026733,
      "dutyStart": "2026-02-17T18:30:00.000Z",
      "dutyEnd": "2026-02-18T08:30:00.000Z"
    },
    {
      "id": "bursa-3",
      "name": "DENİZKIZI ECZANESİ",
      "address": "ODUNLUK MAH. KAZIM KARABEKİR CAD. NO:14/B ,  0224 453 63 00 ,  Eczaneyi haritada görüntülemek için tıklayınız...",
      "phone": "02244536300",
      "district": "NİLÜFER",
      "city": "Bursa",
      "latitude": 40.193567170964535,
      "longitude": 28.99382861425251,
      "dutyStart": "2026-02-17T18:30:00.000Z",
      "dutyEnd": "2026-02-18T08:30:00.000Z"
    },
    {
      "id": "bursa-4",
      "name": "NARMANLI ECZANESİ",
      "address": "100.YIL MAH. HAKAN SEPETÇİ CAD. 512.SOK. NO:2A/H,  (İZMİR YOLU 12.KM - OPET ARKASI) ,  0224 909 35 69",
      "phone": "02249093569",
      "district": "NİLÜFER",
      "city": "Bursa",
      "latitude": 40.21652897109937,
      "longitude": 28.893232941627502,
      "dutyStart": "2026-02-17T18:30:00.000Z",
      "dutyEnd": "2026-02-18T08:30:00.000Z"
    },
    {
      "id": "bursa-5",
      "name": "AYLİN ECZANESİ",
      "address": "DUMLUPINAR MAH. ANAFARTALAR CAD. NO:8/B,  (GÖRÜKLE DUMLUPINAR ASM YANI) ,  0224 502 08 02",
      "phone": "02245020802",
      "district": "NİLÜFER",
      "city": "Bursa",
      "latitude": 40.22612187839763,
      "longitude": 28.83789360523224,
      "dutyStart": "2026-02-17T18:30:00.000Z",
      "dutyEnd": "2026-02-18T08:30:00.000Z"
    },
    {
      "id": "bursa-6",
      "name": "PODYUM ECZANESİ",
      "address": "CUMHURİYET MAH. NİLÜFER HATUN CAD. NO:114,  (PODYUM PARK - PODYUM EXPRESS YANI) ,  0224 272 37 22",
      "phone": "02242723722",
      "district": "NİLÜFER",
      "city": "Bursa",
      "latitude": 40.22523719231373,
      "longitude": 28.971312046051025,
      "dutyStart": "2026-02-17T18:30:00.000Z",
      "dutyEnd": "2026-02-18T08:30:00.000Z"
    },
    {
      "id": "bursa-7",
      "name": "PRESTİJ ECZANESİ",
      "address": "YUNUSELİ MAH. RECEP TAYYİP ERDOĞAN BULVARI NO:7/D,  (PRESTİJ PARK SİTESİ I-BLOK) ,  0224 502 49 88 / 0505 981 16 41",
      "phone": "02245024988",
      "district": "OSMANGAZİ",
      "city": "Bursa",
      "latitude": 40.23958390700101,
      "longitude": 29.011205596152543,
      "dutyStart": "2026-02-17T18:30:00.000Z",
      "dutyEnd": "2026-02-18T08:30:00.000Z"
    },
    {
      "id": "bursa-8",
      "name": "HÜMA ECZANESİ",
      "address": "PANAYIR MAH. 2.DERMAN CAD. NO:56/A,  (44 NOLU PANAYIR AİLE SAĞLIĞI MERKEZİ YANI) ,  0224 211 15 15",
      "phone": "02242111515",
      "district": "OSMANGAZİ",
      "city": "Bursa",
      "latitude": 40.2448331,
      "longitude": 29.0662719,
      "dutyStart": "2026-02-17T18:30:00.000Z",
      "dutyEnd": "2026-02-18T08:30:00.000Z"
    },
    {
      "id": "bursa-9",
      "name": "MERKEZ BURSA ECZANESİ",
      "address": "İNTİZAM MAH. ÇARŞAMBA CAD. NO: 18/A,  (YENİ VALİLİK TAKSİ İLERİSİ - BİM KARŞISI) ,  0224 253 13 19",
      "phone": "02242531319",
      "district": "OSMANGAZİ",
      "city": "Bursa",
      "latitude": 40.19469667,
      "longitude": 29.05613758,
      "dutyStart": "2026-02-17T18:30:00.000Z",
      "dutyEnd": "2026-02-18T08:30:00.000Z"
    },
    {
      "id": "bursa-10",
      "name": "EMİN ECZANESİ",
      "address": "EMEK ADNAN MENDERES MAH. OĞUZHAN CAD. NO:29,  (KORUPARK AVM ARKASI - ÇAMLIK MEVKİİ) ,  0224 242 86 80",
      "phone": "02242428680",
      "district": "OSMANGAZİ",
      "city": "Bursa",
      "latitude": 40.25422922,
      "longitude": 28.96172047,
      "dutyStart": "2026-02-17T18:30:00.000Z",
      "dutyEnd": "2026-02-18T08:30:00.000Z"
    },
    {
      "id": "bursa-11",
      "name": "ÖZGÜR ECZANESİ",
      "address": "SOĞANLI MAH. 2.KANAL CAD. NO:209/A,  (ATIŞ PREMIUM SİTESİ-MEŞELİ CAMİ KARŞISI) ,  0224-2522631",
      "phone": "02242522631",
      "district": "OSMANGAZİ",
      "city": "Bursa",
      "latitude": 40.2147841,
      "longitude": 29.0482548,
      "dutyStart": "2026-02-17T18:30:00.000Z",
      "dutyEnd": "2026-02-18T08:30:00.000Z"
    },
    {
      "id": "bursa-12",
      "name": "AYFER ECZANESİ",
      "address": "HÜDAVENDİGAR MAH. DEĞİRMEN SOK. NO:10/2,  (ÇEKİRGE DEVLET HASTANESİ ALTI - DOĞUMEVİ YÖNÜ) ,  0224 233 79 69 / 0224 2337970",
      "phone": "02242337969",
      "district": "OSMANGAZİ",
      "city": "Bursa",
      "latitude": 40.20456665,
      "longitude": 29.01613712,
      "dutyStart": "2026-02-17T18:30:00.000Z",
      "dutyEnd": "2026-02-18T08:30:00.000Z"
    },
    {
      "id": "bursa-13",
      "name": "SİNANDEDE ECZANESİ",
      "address": "DAVUTDEDE MAH. 2.AÇIK SOK. NO:5,  (ANKARA YOLU DAVUTDEDE SHELL BENZİNLİK ARKASI) ,  0224 364 25 25",
      "phone": "02243642525",
      "district": "YILDIRIM",
      "city": "Bursa",
      "latitude": 40.19121716737205,
      "longitude": 29.086672514677048,
      "dutyStart": "2026-02-17T18:30:00.000Z",
      "dutyEnd": "2026-02-18T08:30:00.000Z"
    },
    {
      "id": "bursa-14",
      "name": "HACİVAT ŞİFA ECZANESİ",
      "address": "HACİVAT MAH. 304.SOK. NO:13,  (HACİVAT SAĞLIK OCAĞI KARŞISI) ,  0224-3425455",
      "phone": "02243425455",
      "district": "YILDIRIM",
      "city": "Bursa",
      "latitude": 40.19477401,
      "longitude": 29.1483593,
      "dutyStart": "2026-02-17T18:30:00.000Z",
      "dutyEnd": "2026-02-18T08:30:00.000Z"
    },
    {
      "id": "bursa-15",
      "name": "ÖRNEK ECZANESİ",
      "address": "ERTUĞRULGAZİ MAH. EMEK CAD. NO:34,  (GÖĞÜS HASTANESİ ALTI - ERTUĞRULGAZİ POLİS KARAKOLU YANI) ,  0224 368 58 59",
      "phone": "02243685859",
      "district": "YILDIRIM",
      "city": "Bursa",
      "latitude": 40.1784859,
      "longitude": 29.1133478,
      "dutyStart": "2026-02-17T18:30:00.000Z",
      "dutyEnd": "2026-02-18T08:30:00.000Z"
    },
    {
      "id": "bursa-16",
      "name": "YENİ ORHAN ECZANESİ",
      "address": "ORHAN MAH. DR.İBRAHİM ÖKTEM CAD. NO:35 ,  0506 226 03 44 ,  Eczaneyi haritada görüntülemek için tıklayınız...",
      "phone": "05062260344",
      "district": "BÜYÜKORHAN",
      "city": "Bursa",
      "latitude": 39.775043,
      "longitude": 28.881995,
      "dutyStart": "2026-02-17T19:00:00.000Z",
      "dutyEnd": "2026-02-18T08:30:00.000Z"
    },
    {
      "id": "bursa-17",
      "name": "SEDA ECZANESİ",
      "address": "EŞREF DİNÇER MAH. KESTANE SOK. NO:20 ,  0224 513 70 68 ,  Eczaneyi haritada görüntülemek için tıklayınız...",
      "phone": "02245137068",
      "district": "GEMLİK",
      "city": "Bursa",
      "latitude": 40.43175,
      "longitude": 29.15563099999997,
      "dutyStart": "2026-02-17T18:30:00.000Z",
      "dutyEnd": "2026-02-18T08:30:00.000Z"
    },
    {
      "id": "bursa-18",
      "name": "BEYZA AKGÜN ECZANESİ",
      "address": "DEMİRSUBAŞI MAH. ŞEHİR GÖKHAN AYDINLI SOK. NO:1 ,  0224 514 72 62 ,  Eczaneyi haritada görüntülemek için tıklayınız...",
      "phone": "02245147262",
      "district": "GEMLİK",
      "city": "Bursa",
      "latitude": 40.43194210978875,
      "longitude": 29.155044044248726,
      "dutyStart": "2026-02-17T18:30:00.000Z",
      "dutyEnd": "2026-02-18T00:00:00.000Z"
    },
    {
      "id": "bursa-19",
      "name": "CEREN ECZANESİ",
      "address": "YENİDOĞAN MAH. ŞEHİT ASTSUBAY TEK.ÜSTÇAVUŞ VEDAT AVCI SOK. NO:28 ,  0224 371 75 87 ,  Eczaneyi haritada görüntülemek için tıklayınız...",
      "phone": "02243717587",
      "district": "GÜRSU",
      "city": "Bursa",
      "latitude": 40.201741,
      "longitude": 29.180944,
      "dutyStart": "2026-02-17T18:30:00.000Z",
      "dutyEnd": "2026-02-18T09:00:00.000Z"
    },
    {
      "id": "bursa-20",
      "name": "DERMAN ECZANESİ",
      "address": "MERKEZ MAH. FEVZİ PAŞA CAD. NO:11/1 ,  0224-8812295 ,  Eczaneyi haritada görüntülemek için tıklayınız...",
      "phone": "02248812295",
      "district": "HARMANCIK",
      "city": "Bursa",
      "latitude": 39.679107,
      "longitude": 29.155259,
      "dutyStart": "2026-02-17T18:00:00.000Z",
      "dutyEnd": "2026-02-18T08:30:00.000Z"
    },
    {
      "id": "bursa-21",
      "name": "NİLGÜN ECZANESİ",
      "address": "SÜLEYMANİYE MAH. PARKYOLU CAD. NO:72 ,  0224-7132384 ,  Eczaneyi haritada görüntülemek için tıklayınız...",
      "phone": "02247132384",
      "district": "İNEGÖL",
      "city": "Bursa",
      "latitude": 40.08242635398411,
      "longitude": 29.497521221637726,
      "dutyStart": "2026-02-17T18:00:00.000Z",
      "dutyEnd": "2026-02-18T08:30:00.000Z"
    },
    {
      "id": "bursa-22",
      "name": "NEJLA ECZANESİ",
      "address": "SÜLEYMANİYE MAH. PARK YOLU CAD. NO:78 ,  0224 715 46 20 ,  Eczaneyi haritada görüntülemek için tıklayınız...",
      "phone": "02247154620",
      "district": "İNEGÖL",
      "city": "Bursa",
      "latitude": 40.08221,
      "longitude": 29.49686,
      "dutyStart": "2026-02-17T18:00:00.000Z",
      "dutyEnd": "2026-02-18T01:00:00.000Z"
    },
    {
      "id": "bursa-23",
      "name": "ERDEM ECZANESİ",
      "address": "ERTUĞRULGAZİ MAH. AYGÖREN SOK. NO:20/A ,  0224 719 67 34 ,  Eczaneyi haritada görüntülemek için tıklayınız...",
      "phone": "02247196734",
      "district": "İNEGÖL",
      "city": "Bursa",
      "latitude": 40.100629039207455,
      "longitude": 29.520334375469695,
      "dutyStart": "2026-02-17T18:00:00.000Z",
      "dutyEnd": "2026-02-18T01:00:00.000Z"
    },
    {
      "id": "bursa-24",
      "name": "YENİ ECZANESİ",
      "address": "YENİ MAH. KILIÇASLAN CAD. NO:134 ,  0224 757 24 25 ,  Eczaneyi haritada görüntülemek için tıklayınız...",
      "phone": "02247572425",
      "district": "İZNİK",
      "city": "Bursa",
      "latitude": 40.42921094982254,
      "longitude": 29.72274899482727,
      "dutyStart": "2026-02-17T18:30:00.000Z",
      "dutyEnd": "2026-02-18T08:30:00.000Z"
    },
    {
      "id": "bursa-25",
      "name": "ÇINAR ECZANESİ",
      "address": "GAZİ MAH. ORTAOKUL CAD. NO:43/A ,  0224 662 20 62 ,  Eczaneyi haritada görüntülemek için tıklayınız...",
      "phone": "02246622062",
      "district": "KARACABEY",
      "city": "Bursa",
      "latitude": 40.2115636,
      "longitude": 28.3614437,
      "dutyStart": "2026-02-17T18:30:00.000Z",
      "dutyEnd": "2026-02-18T08:30:00.000Z"
    },
    {
      "id": "bursa-26",
      "name": "ŞİFA ECZANESİ",
      "address": "CUMA MAH. ATATÜRK CAD. ÇARŞI İÇİ NO:3/B ,  0224 861 21 64 ,  Eczaneyi haritada görüntülemek için tıklayınız...",
      "phone": "02248612164",
      "district": "KELES",
      "city": "Bursa",
      "latitude": 39.91276107279525,
      "longitude": 29.233170631710127,
      "dutyStart": "2026-02-17T18:00:00.000Z",
      "dutyEnd": "2026-02-18T08:30:00.000Z"
    },
    {
      "id": "bursa-27",
      "name": "OKTAY ECZANESİ",
      "address": "AHMET VEFİK PAŞA MAH. HAL CAD. NO:7/F,  (KESTEL DEVLET HASTANESİ ACİL KARŞISI) ,  0224 211 68 72",
      "phone": "02242116872",
      "district": "KESTEL",
      "city": "Bursa",
      "latitude": 40.199091,
      "longitude": 29.203128,
      "dutyStart": "2026-02-17T18:00:00.000Z",
      "dutyEnd": "2026-02-18T08:30:00.000Z"
    },
    {
      "id": "bursa-28",
      "name": "MÜGE ECZANESİ",
      "address": "ÇALI MAH. SARIYERLER CAD. ÇAĞATAY APT. NO:3/A,  (İCAP NÖBETÇİDİR) ,  0224 222 13 33",
      "phone": "02242221333",
      "district": "NİLÜFER",
      "city": "Bursa",
      "latitude": 40.17236264233075,
      "longitude": 28.920752680037072,
      "dutyStart": "2026-02-17T18:00:00.000Z",
      "dutyEnd": "2026-02-17T20:00:00.000Z"
    },
    {
      "id": "bursa-29",
      "name": "GÜZELYALI ECZANESİ",
      "address": "GÜZELYALI EĞİTİM MAH. KAZIM KARABEKİR CAD. NO:8/B ,  0224 554 85 80 ,  Eczaneyi haritada görüntülemek için tıklayınız...",
      "phone": "02245548580",
      "district": "MUDANYA",
      "city": "Bursa",
      "latitude": 40.354676,
      "longitude": 28.928739,
      "dutyStart": "2026-02-17T18:00:00.000Z",
      "dutyEnd": "2026-02-18T08:30:00.000Z"
    },
    {
      "id": "bursa-30",
      "name": "SERDAR ECZANESİ",
      "address": "ÖMERBEY MAH. HALİTPAŞA CAD. NO:80/BD,  (MUDANYA ÇARŞISI) ,  0224 544 61 30",
      "phone": "02245446130",
      "district": "MUDANYA",
      "city": "Bursa",
      "latitude": 40.374983,
      "longitude": 28.887100000000032,
      "dutyStart": "2026-02-17T18:00:00.000Z",
      "dutyEnd": "2026-02-18T08:30:00.000Z"
    },
    {
      "id": "bursa-31",
      "name": "TRAKYALI ECZANESİ",
      "address": "ŞEYHMÜFTÜ MAH. BALIKESİR CAD. NO:36/B ,  0224-6139795 ,  Eczaneyi haritada görüntülemek için tıklayınız...",
      "phone": "02246139795",
      "district": "MUSTAFAKEMALPAŞA",
      "city": "Bursa",
      "latitude": 40.034347,
      "longitude": 28.40935300000001,
      "dutyStart": "2026-02-17T18:30:00.000Z",
      "dutyEnd": "2026-02-18T08:30:00.000Z"
    },
    {
      "id": "bursa-32",
      "name": "YENİ OĞUZ ECZANESİ",
      "address": "İSMET PAŞA MAH. HASTANE SOK. NO:10/A ,  0224-8171308 ,  Eczaneyi haritada görüntülemek için tıklayınız...",
      "phone": "02248171308",
      "district": "ORHANELİ",
      "city": "Bursa",
      "latitude": 39.902116,
      "longitude": 28.988188000000036,
      "dutyStart": "2026-02-17T18:00:00.000Z",
      "dutyEnd": "2026-02-18T08:30:00.000Z"
    },
    {
      "id": "bursa-33",
      "name": "SAĞLIK ECZANESİ",
      "address": "CAMİİKEBİR MAH. TOZKOPARAN CAD. NO:18 ,  0224 573 64 29 ,  Eczaneyi haritada görüntülemek için tıklayınız...",
      "phone": "02245736429",
      "district": "ORHANGAZİ",
      "city": "Bursa",
      "latitude": 40.488609,
      "longitude": 29.308084000000008,
      "dutyStart": "2026-02-17T18:30:00.000Z",
      "dutyEnd": "2026-02-18T08:30:00.000Z"
    },
    {
      "id": "bursa-34",
      "name": "DEMİRTAŞ MERKEZ ECZANESİ",
      "address": "DEMİRTAŞ CUMHURİYET MAH. ÇEVRE YOLU CAD. NO:123/C,  (A-101 MARKET KARŞISI - 20'LİK YOL) ,  0224 503 56 55 / 0551 855 05 52",
      "phone": "02245035655",
      "district": "OSMANGAZİ",
      "city": "Bursa",
      "latitude": 40.2664998451428,
      "longitude": 29.097453903732834,
      "dutyStart": "2026-02-17T18:30:00.000Z",
      "dutyEnd": "2026-02-18T08:30:00.000Z"
    },
    {
      "id": "bursa-35",
      "name": "ENGİN ECZANESİ",
      "address": "YENİ MAH. YARIMAĞA SOK. NO:33-1/A ,  0224-7731160 ,  Eczaneyi haritada görüntülemek için tıklayınız...",
      "phone": "02247731160",
      "district": "YENİŞEHİR",
      "city": "Bursa",
      "latitude": 40.267959,
      "longitude": 29.651850999999965,
      "dutyStart": "2026-02-17T18:00:00.000Z",
      "dutyEnd": "2026-02-18T08:00:00.000Z"
    }
  ]
}