{
  "city": "bursa",
  "cityName": "Bursa",
  "cityId": 16,
  "date": "2026-03-01",
  "updatedAt": "2026-03-01T15:30:06.678Z",
  "count": 38,
  "pharmacies": [
    {
      "id": "bursa-0",
      "name": "ZARİFOĞLU ECZANESİ",
      "address": "ATAEVLER MAH. YILMAZ AKKILIÇ CAD. NO:60/A,  (MAGAZİN AVM KARŞISI - AKUĞUR MARKET YANI) ,  0224 441 79 34",
      "phone": "02244417934",
      "district": "NİLÜFER",
      "city": "Bursa",
      "latitude": 40.2202726,
      "longitude": 28.96012799999994,
      "dutyStart": "2026-03-01T08:30:00.000Z",
      "dutyEnd": "2026-03-02T08:30:00.000Z"
    },
    {
      "id": "bursa-1",
      "name": "SELVİ ECZANESİ",
      "address": "KONAK MAH. BEŞEVLER CAD. GONCA SİT. D-BLOK NO:40,  (ÖĞRETMEN MEHMET ARAS İLKOKULU KARŞISI) ,  0533 201 06 66",
      "phone": "05332010666",
      "district": "NİLÜFER",
      "city": "Bursa",
      "latitude": 40.20642276913933,
      "longitude": 28.981628246800945,
      "dutyStart": "2026-03-01T08:30:00.000Z",
      "dutyEnd": "2026-03-02T08:30:00.000Z"
    },
    {
      "id": "bursa-2",
      "name": "KIZILCIKLI ECZANESİ",
      "address": "KIZILCIKLI MAH. KANATLI SOK. NO:2/C,  (KIZILCIKLI MAH. MUHTARLIĞI VE ASM KAŞISI - FURPA MARKET YANI) ,  0224 477 00 00",
      "phone": "02244770000",
      "district": "NİLÜFER",
      "city": "Bursa",
      "latitude": 40.198124,
      "longitude": 28.806261,
      "dutyStart": "2026-03-01T08:30:00.000Z",
      "dutyEnd": "2026-03-02T08:30:00.000Z"
    },
    {
      "id": "bursa-3",
      "name": "ÇAĞDAŞ ECZANESİ",
      "address": "ERTUĞRUL MAH. DOĞAN AVCIOĞLU CAD. NO:8A/F,  (DÖRTÇELİK ÇOCUK HASTALIKLARI HASTANESİ VE ERTUĞRUL METRO İST. YANI) ,  0224 413 81 41",
      "phone": "02244138141",
      "district": "NİLÜFER",
      "city": "Bursa",
      "latitude": 40.21859550981529,
      "longitude": 28.923352735100096,
      "dutyStart": "2026-03-01T08:30:00.000Z",
      "dutyEnd": "2026-03-02T08:30:00.000Z"
    },
    {
      "id": "bursa-4",
      "name": "BETÜL ECZANESİ",
      "address": "İHSANİYE MAH. ZİYA GÜNEY CAD. NO:4/D,  (ERSOYKENT SİTESİ) ,  0224 246 53 80",
      "phone": "02242465380",
      "district": "NİLÜFER",
      "city": "Bursa",
      "latitude": 40.2151796,
      "longitude": 28.9901666,
      "dutyStart": "2026-03-01T08:30:00.000Z",
      "dutyEnd": "2026-03-02T08:30:00.000Z"
    },
    {
      "id": "bursa-5",
      "name": "ARDA MENEKŞE ECZANESİ",
      "address": "AHMET YESEVİ MAH. BEY SOK. NO:4D/1/C,  (BALAT BAKGÖR CITY-1 EVLERİ) ,  0535 416 85 59 / 0224999669",
      "phone": "05354168559",
      "district": "NİLÜFER",
      "city": "Bursa",
      "latitude": 40.266641215686,
      "longitude": 28.937797844409943,
      "dutyStart": "2026-03-01T08:30:00.000Z",
      "dutyEnd": "2026-03-02T08:30:00.000Z"
    },
    {
      "id": "bursa-6",
      "name": "ÜÇEVLER SU ECZANESİ",
      "address": "ÜÇEVLER MAH. ÜLMAN SOK. NO:6/A,  (ÜÇEVLER KÜTÜPHANESİ YANI) ,  0224-4437956",
      "phone": "02244437956",
      "district": "NİLÜFER",
      "city": "Bursa",
      "latitude": 40.1974251288579,
      "longitude": 28.948337584733963,
      "dutyStart": "2026-03-01T08:30:00.000Z",
      "dutyEnd": "2026-03-02T08:30:00.000Z"
    },
    {
      "id": "bursa-7",
      "name": "OKAN ECZANESİ",
      "address": "CUMHURİYET MAH. NİLÜFER HATUN CAD. NO:150/C,  (F.S.M. BULVARI SELİN SİTESİ B-BLOK) ,  0224 453 04 05",
      "phone": "02244530405",
      "district": "NİLÜFER",
      "city": "Bursa",
      "latitude": 40.22466582457113,
      "longitude": 28.978218737340285,
      "dutyStart": "2026-03-01T08:30:00.000Z",
      "dutyEnd": "2026-03-02T08:30:00.000Z"
    },
    {
      "id": "bursa-8",
      "name": "ÖZLEM ECZANESİ",
      "address": "DİKKALDIRIM MAH. DİKKALDIRIM CAD. NO:106 ,  0224-2382744 ,  Eczaneyi haritada görüntülemek için tıklayınız...",
      "phone": "02242382744",
      "district": "OSMANGAZİ",
      "city": "Bursa",
      "latitude": 40.20335392,
      "longitude": 29.00716782,
      "dutyStart": "2026-03-01T08:30:00.000Z",
      "dutyEnd": "2026-03-02T08:30:00.000Z"
    },
    {
      "id": "bursa-9",
      "name": "AY IŞIĞI ECZANESİ",
      "address": "EMEK ZEKAİ GÜMÜŞDİŞ MAH. GÜLER SOK. NO:23/B,  (EMEK ADNAN MENDERES SAĞLIK OCAĞI KARŞISI) ,  0224 220 02 51",
      "phone": "02242200251",
      "district": "OSMANGAZİ",
      "city": "Bursa",
      "latitude": 40.254178843302114,
      "longitude": 28.956924257667044,
      "dutyStart": "2026-03-01T08:30:00.000Z",
      "dutyEnd": "2026-03-02T08:30:00.000Z"
    },
    {
      "id": "bursa-10",
      "name": "YUVACI ECZANESİ",
      "address": "YUNUSELİ MAH. YUNUSELİ BULVARI NO:199/A,  (31 NOLU ŞEVKİ AĞIRGİDEN SAĞLIK OCAĞI YANI) ,  0224 224 14 84",
      "phone": "02242241484",
      "district": "OSMANGAZİ",
      "city": "Bursa",
      "latitude": 40.248304,
      "longitude": 29.015674,
      "dutyStart": "2026-03-01T08:30:00.000Z",
      "dutyEnd": "2026-03-02T08:30:00.000Z"
    },
    {
      "id": "bursa-11",
      "name": "CUMHURİYET ECZANESİ",
      "address": "NALBANTOĞLU MAH. CUMHURİYET CAD. NO:143/1,  (CUMHURİYET CAD. TRAMVAYLI CADDE - KAPALI ÇARŞI ALTI) ,  0224 222 57 70",
      "phone": "02242225770",
      "district": "OSMANGAZİ",
      "city": "Bursa",
      "latitude": 40.18594609814064,
      "longitude": 29.06124767877668,
      "dutyStart": "2026-03-01T08:30:00.000Z",
      "dutyEnd": "2026-03-02T08:30:00.000Z"
    },
    {
      "id": "bursa-12",
      "name": "ÖZVARLIK ECZANESİ",
      "address": "ATICILAR MAH. DAVUT SOK. NO:15,  (ATICILAR SAĞLIK OCAĞI KARŞISI) ,  0224-2733301 / 0224 2732999",
      "phone": "02242733301",
      "district": "OSMANGAZİ",
      "city": "Bursa",
      "latitude": 40.20209609,
      "longitude": 29.08082664,
      "dutyStart": "2026-03-01T08:30:00.000Z",
      "dutyEnd": "2026-03-02T08:30:00.000Z"
    },
    {
      "id": "bursa-13",
      "name": "EMEL ECZANESİ",
      "address": "ALEMDAR MAH. ORMANLAR YOLU CAD. N0:76,  (MUHTARLIK KARŞISI - EMNİYET ÇOCUK ŞUBE YAKINI) ,  0546 679 94 58",
      "phone": "05466799458",
      "district": "OSMANGAZİ",
      "city": "Bursa",
      "latitude": 40.20826823,
      "longitude": 29.03707981,
      "dutyStart": "2026-03-01T08:30:00.000Z",
      "dutyEnd": "2026-03-02T08:30:00.000Z"
    },
    {
      "id": "bursa-14",
      "name": "GÖKAY ECZANESİ",
      "address": "HÜRRİYET MAH. SÖĞÜTLÜ SOK. NO:3-B/C,  (HÜRRİYET MERKEZ CAMİ YANI) ,  0224 249 20 40 / 02242462024",
      "phone": "02242492040",
      "district": "OSMANGAZİ",
      "city": "Bursa",
      "latitude": 40.22051458,
      "longitude": 29.00342882,
      "dutyStart": "2026-03-01T08:30:00.000Z",
      "dutyEnd": "2026-03-02T08:30:00.000Z"
    },
    {
      "id": "bursa-15",
      "name": "KARDELEN ECZANESİ",
      "address": "ZÜMRÜTEVLER MAH. ÇİÇEK CAD. NO:99,  (ZÜMRÜTEVLER CAMİ - TELEFERİK ARASI) ,  0224 327 27 50",
      "phone": "02243272750",
      "district": "YILDIRIM",
      "city": "Bursa",
      "latitude": 40.17351675,
      "longitude": 29.09305014,
      "dutyStart": "2026-03-01T08:30:00.000Z",
      "dutyEnd": "2026-03-02T08:30:00.000Z"
    },
    {
      "id": "bursa-16",
      "name": "ESİNTİ ECZANESİ",
      "address": "MİLLET MAH. 2. VATAN CAD. NO:327/A,  (YUNUS EMRE TAKSİ VE ONUR MARKET KARŞISI) ,  0224 266 00 11",
      "phone": "02242660011",
      "district": "YILDIRIM",
      "city": "Bursa",
      "latitude": 40.212256,
      "longitude": 29.104897,
      "dutyStart": "2026-03-01T08:30:00.000Z",
      "dutyEnd": "2026-03-02T08:30:00.000Z"
    },
    {
      "id": "bursa-17",
      "name": "ÖZNUR ECZANESİ",
      "address": "ŞÜKRANİYE MAH. SELAM SOK. NO:16/1,  (ŞÜKRANİYE SAĞLIK OCAĞI YANI) ,  0224-3626947",
      "phone": "02243626947",
      "district": "YILDIRIM",
      "city": "Bursa",
      "latitude": 40.19025007,
      "longitude": 29.09473658,
      "dutyStart": "2026-03-01T08:30:00.000Z",
      "dutyEnd": "2026-03-02T08:30:00.000Z"
    },
    {
      "id": "bursa-18",
      "name": "BAŞAKCAN ECZANESİ",
      "address": "MİMAR SİNAN MAH. EMNİYET CAD. 4.KALFA SOK. NO:2A,  (ŞEVKET YILMAZ - DİŞ HASTANESİ VE POLİS OKULU ALTI) ,  0224 367 97 97",
      "phone": "02243679797",
      "district": "YILDIRIM",
      "city": "Bursa",
      "latitude": 40.18812732,
      "longitude": 29.12741661,
      "dutyStart": "2026-03-01T08:30:00.000Z",
      "dutyEnd": "2026-03-02T08:30:00.000Z"
    },
    {
      "id": "bursa-19",
      "name": "BÜYÜKORHAN ECZANESİ",
      "address": "ORHAN MAH. DR.İBRAHİM ÖKTEM CAD. NO:13/B ,  0224 841 23 70 ,  Eczaneyi haritada görüntülemek için tıklayınız...",
      "phone": "02248412370",
      "district": "BÜYÜKORHAN",
      "city": "Bursa",
      "latitude": 39.773187817429196,
      "longitude": 28.885376751422882,
      "dutyStart": "2026-03-01T08:30:00.000Z",
      "dutyEnd": "2026-03-02T08:30:00.000Z"
    },
    {
      "id": "bursa-20",
      "name": "DENİZYILDIZI ECZANESİ",
      "address": "DEMİRSUBAŞI MAH. SEMERCİLER YOKUŞU NO:18/A ,  0224 512 00 63 ,  Eczaneyi haritada görüntülemek için tıklayınız...",
      "phone": "02245120063",
      "district": "GEMLİK",
      "city": "Bursa",
      "latitude": 40.432348,
      "longitude": 29.154517,
      "dutyStart": "2026-03-01T08:30:00.000Z",
      "dutyEnd": "2026-03-02T08:30:00.000Z"
    },
    {
      "id": "bursa-21",
      "name": "ALTUNİZADE ECZANESİ",
      "address": "BALIKPAZARI MAH. YEDİEVLER SOK. NO:59/A,  (ATATÜRK İLKOKULU YANI) ,  0555 768 16 16",
      "phone": "05557681616",
      "district": "GEMLİK",
      "city": "Bursa",
      "latitude": 40.435586,
      "longitude": 29.154011,
      "dutyStart": "2026-03-01T08:30:00.000Z",
      "dutyEnd": "2026-03-02T00:00:00.000Z"
    },
    {
      "id": "bursa-22",
      "name": "ÇELİK ECZANESİ",
      "address": "İSTİKLAL MAH. CAMİ SOK. NO:1-2 ,  0224-3712626 ,  Eczaneyi haritada görüntülemek için tıklayınız...",
      "phone": "02243712626",
      "district": "GÜRSU",
      "city": "Bursa",
      "latitude": 40.2174916,
      "longitude": 29.19386069999996,
      "dutyStart": "2026-03-01T09:00:00.000Z",
      "dutyEnd": "2026-03-02T09:00:00.000Z"
    },
    {
      "id": "bursa-23",
      "name": "DERMAN ECZANESİ",
      "address": "MERKEZ MAH. FEVZİ PAŞA CAD. NO:11/1 ,  0224-8812295 ,  Eczaneyi haritada görüntülemek için tıklayınız...",
      "phone": "02248812295",
      "district": "HARMANCIK",
      "city": "Bursa",
      "latitude": 39.679107,
      "longitude": 29.155259,
      "dutyStart": "2026-03-01T08:30:00.000Z",
      "dutyEnd": "2026-03-02T08:30:00.000Z"
    },
    {
      "id": "bursa-24",
      "name": "NİLGÜN ECZANESİ",
      "address": "SÜLEYMANİYE MAH. PARKYOLU CAD. NO:72 ,  0224-7132384 ,  Eczaneyi haritada görüntülemek için tıklayınız...",
      "phone": "02247132384",
      "district": "İNEGÖL",
      "city": "Bursa",
      "latitude": 40.08242635398411,
      "longitude": 29.497521221637726,
      "dutyStart": "2026-03-01T08:30:00.000Z",
      "dutyEnd": "2026-03-02T01:00:00.000Z"
    },
    {
      "id": "bursa-25",
      "name": "NEJLA ECZANESİ",
      "address": "SÜLEYMANİYE MAH. PARK YOLU CAD. NO:78 ,  0224 715 46 20 ,  Eczaneyi haritada görüntülemek için tıklayınız...",
      "phone": "02247154620",
      "district": "İNEGÖL",
      "city": "Bursa",
      "latitude": 40.08221,
      "longitude": 29.49686,
      "dutyStart": "2026-03-01T08:30:00.000Z",
      "dutyEnd": "2026-03-02T08:30:00.000Z"
    },
    {
      "id": "bursa-26",
      "name": "ENVER ECZANESİ",
      "address": "FATİH MAH. ALANYURT CAD. NO:113/D ,  0224 504 80 80 ,  Eczaneyi haritada görüntülemek için tıklayınız...",
      "phone": "02245048080",
      "district": "İNEGÖL",
      "city": "Bursa",
      "latitude": 40.10834,
      "longitude": 29.51384,
      "dutyStart": "2026-03-01T08:30:00.000Z",
      "dutyEnd": "2026-03-02T01:00:00.000Z"
    },
    {
      "id": "bursa-27",
      "name": "YÜCEL ECZANESİ",
      "address": "BEYLER MAH. KILIÇASLAN CAD. NO:123 ,  0224 757 10 87 ,  Eczaneyi haritada görüntülemek için tıklayınız...",
      "phone": "02247571087",
      "district": "İZNİK",
      "city": "Bursa",
      "latitude": 40.42935391964568,
      "longitude": 29.721960330658554,
      "dutyStart": "2026-03-01T08:30:00.000Z",
      "dutyEnd": "2026-03-02T08:30:00.000Z"
    },
    {
      "id": "bursa-28",
      "name": "YENİ CEM ECZANESİ",
      "address": "CANBALI MAH. ŞİFA SOK. NO:7/1-5 ,  0224 676 00 97 ,  Eczaneyi haritada görüntülemek için tıklayınız...",
      "phone": "02246760097",
      "district": "KARACABEY",
      "city": "Bursa",
      "latitude": 40.20715593788936,
      "longitude": 28.348808884620667,
      "dutyStart": "2026-03-01T08:30:00.000Z",
      "dutyEnd": "2026-03-02T08:30:00.000Z"
    },
    {
      "id": "bursa-29",
      "name": "ŞİFA ECZANESİ",
      "address": "CUMA MAH. ATATÜRK CAD. ÇARŞI İÇİ NO:3/B ,  0224 861 21 64 ,  Eczaneyi haritada görüntülemek için tıklayınız...",
      "phone": "02248612164",
      "district": "KELES",
      "city": "Bursa",
      "latitude": 39.91276107279525,
      "longitude": 29.233170631710127,
      "dutyStart": "2026-03-01T00:00:00.000Z",
      "dutyEnd": "2026-03-02T00:00:00.000Z"
    },
    {
      "id": "bursa-30",
      "name": "BERA ECZANESİ",
      "address": "AHMET VEFİK PAŞA MAH. HAL CAD. NO:4/D,  (KESTEL DEVLET HASTANESİ ACİL ÇIKIŞI) ,  0224 341 66 11",
      "phone": "02243416611",
      "district": "KESTEL",
      "city": "Bursa",
      "latitude": 40.19891052807458,
      "longitude": 29.203509876205988,
      "dutyStart": "2026-03-01T08:30:00.000Z",
      "dutyEnd": "2026-03-02T08:30:00.000Z"
    },
    {
      "id": "bursa-31",
      "name": "SİBEL ECZANESİ",
      "address": "GÜZELYALI EĞİTİM MAH. LİSE CAD. NO:26/A-B ATALAR-5 APT. A-BLOK ,  0224 554 54 53 ,  Eczaneyi haritada görüntülemek için tıklayınız...",
      "phone": "02245545453",
      "district": "MUDANYA",
      "city": "Bursa",
      "latitude": 40.3517295,
      "longitude": 28.9280826,
      "dutyStart": "2026-03-01T08:30:00.000Z",
      "dutyEnd": "2026-03-02T08:30:00.000Z"
    },
    {
      "id": "bursa-32",
      "name": "SERDAR ECZANESİ",
      "address": "ÖMERBEY MAH. HALİTPAŞA CAD. NO:80/BD,  (MUDANYA ÇARŞISI) ,  0224 544 61 30",
      "phone": "02245446130",
      "district": "MUDANYA",
      "city": "Bursa",
      "latitude": 40.374983,
      "longitude": 28.887100000000032,
      "dutyStart": "2026-03-01T08:30:00.000Z",
      "dutyEnd": "2026-03-02T08:30:00.000Z"
    },
    {
      "id": "bursa-33",
      "name": "KARAMAN SAĞLIK ECZANESİ",
      "address": "BARIŞ MAH. FATİH CAD. NO:2/B ,  0224 613 80 00 ,  Eczaneyi haritada görüntülemek için tıklayınız...",
      "phone": "02246138000",
      "district": "MUSTAFAKEMALPAŞA",
      "city": "Bursa",
      "latitude": 40.036982,
      "longitude": 28.383833,
      "dutyStart": "2026-03-01T08:30:00.000Z",
      "dutyEnd": "2026-03-02T08:30:00.000Z"
    },
    {
      "id": "bursa-34",
      "name": "ÜMİT ECZANESİ",
      "address": "İSMETPAŞA MAH. HASTANE CAD. NO:11/A ,  0224-8171999 ,  Eczaneyi haritada görüntülemek için tıklayınız...",
      "phone": "02248171999",
      "district": "ORHANELİ",
      "city": "Bursa",
      "latitude": 39.90137947427627,
      "longitude": 28.987212725210384,
      "dutyStart": "2026-03-01T08:30:00.000Z",
      "dutyEnd": "2026-03-02T08:30:00.000Z"
    },
    {
      "id": "bursa-35",
      "name": "EYLÜL ECZANESİ",
      "address": "CAMİKEBİR MAH. ORHANBEY CAD. BEKTAŞ PSJ. NO:27 ,  0224 572 24 06 ,  Eczaneyi haritada görüntülemek için tıklayınız...",
      "phone": "02245722406",
      "district": "ORHANGAZİ",
      "city": "Bursa",
      "latitude": 40.49137,
      "longitude": 29.308254000000034,
      "dutyStart": "2026-03-01T08:30:00.000Z",
      "dutyEnd": "2026-03-02T08:30:00.000Z"
    },
    {
      "id": "bursa-36",
      "name": "ULUÇINAR ECZANESİ",
      "address": "DEMİRTAŞ CUMHURİYET MAH. KÜÇÜK SANAYİ 3.CAD. NO:57/A,  (DEMİRTAŞ İSMAİL HAKKI BURSEVİ KIZ ANADOLU İMAM HATİP LİSESİ KARŞISI) ,  224 262 93 21 / 5397723161",
      "phone": "2242629321",
      "district": "OSMANGAZİ",
      "city": "Bursa",
      "latitude": 40.2648941,
      "longitude": 29.0969014,
      "dutyStart": "2026-03-01T08:30:00.000Z",
      "dutyEnd": "2026-03-02T08:30:00.000Z"
    },
    {
      "id": "bursa-37",
      "name": "SEVDİCAN ECZANESİ",
      "address": "HIDIRBALİ MAH. ALİCAN CAD. NO:12/A ,  0224 773 03 03 ,  Eczaneyi haritada görüntülemek için tıklayınız...",
      "phone": "02247730303",
      "district": "YENİŞEHİR",
      "city": "Bursa",
      "latitude": 40.264521,
      "longitude": 29.64954,
      "dutyStart": "2026-03-01T08:00:00.000Z",
      "dutyEnd": "2026-03-02T08:00:00.000Z"
    }
  ]
}