{
  "city": "bursa",
  "cityName": "Bursa",
  "cityId": 16,
  "date": "2026-03-06",
  "updatedAt": "2026-03-06T06:00:53.090Z",
  "count": 36,
  "pharmacies": [
    {
      "id": "bursa-0",
      "name": "BERİL ECZANESİ",
      "address": "30 AĞUSTOS ZAFER MAH. ÇAMLIK BULVARI NO:15A/D,  (KALE TREND SİTESİ ALTI - A101 MARKET YANI) ,  0224 999 24 30",
      "phone": "02249992430",
      "district": "NİLÜFER",
      "city": "Bursa",
      "latitude": 40.199573721989815,
      "longitude": 28.84281756736373,
      "dutyStart": "2026-03-06T18:30:00.000Z",
      "dutyEnd": "2026-03-07T10:00:00.000Z"
    },
    {
      "id": "bursa-1",
      "name": "KIVANÇ ECZANESİ",
      "address": "ESENTEPE MAH. İSTİKLAL CAD. NO:36/C,  (ESENTEPE SAĞLIK OCAĞI KARŞISI) ,  0224-2452560",
      "phone": "02242452560",
      "district": "NİLÜFER",
      "city": "Bursa",
      "latitude": 40.22548293909316,
      "longitude": 28.986781689786994,
      "dutyStart": "2026-03-06T18:30:00.000Z",
      "dutyEnd": "2026-03-07T10:00:00.000Z"
    },
    {
      "id": "bursa-2",
      "name": "METROPOL ECZANESİ",
      "address": "KONAK MAH. GÜLBİTEN SOK. NO:1A/A,  (ÖZEL DORUK NİLÜFER HASTANESİ ARKA GİRİŞ KAPISI KARŞISI) ,  0224 451 42 00 / 0541 146 42 16",
      "phone": "02244514200",
      "district": "NİLÜFER",
      "city": "Bursa",
      "latitude": 40.20950069539228,
      "longitude": 28.991267601224465,
      "dutyStart": "2026-03-06T18:30:00.000Z",
      "dutyEnd": "2026-03-07T10:00:00.000Z"
    },
    {
      "id": "bursa-3",
      "name": "NURDAN ECZANESİ",
      "address": "BEŞEVLER MAH. BEŞEVLER CAD. NO:118/A,  (T.C. SAĞ. BAK. NİLÜFER AĞIZ DİŞ SAĞLIĞI MERKEZİ KARŞISI) ,  0224 453 11 13",
      "phone": "02244531113",
      "district": "NİLÜFER",
      "city": "Bursa",
      "latitude": 40.20845054,
      "longitude": 28.97066295,
      "dutyStart": "2026-03-06T18:30:00.000Z",
      "dutyEnd": "2026-03-07T10:00:00.000Z"
    },
    {
      "id": "bursa-4",
      "name": "NİSA ECZANESİ",
      "address": "ÖZLÜCE MAH. ERDİNÇ SOK. NO:10/D ,  (ESKİ ÖZLÜCE KÖYÜ GİRİŞİ - OKYANUS KOLEJİ ALTI) ,  0507 461 79 60",
      "phone": "05074617960",
      "district": "NİLÜFER",
      "city": "Bursa",
      "latitude": 40.23571,
      "longitude": 28.91053,
      "dutyStart": "2026-03-06T18:30:00.000Z",
      "dutyEnd": "2026-03-07T10:00:00.000Z"
    },
    {
      "id": "bursa-5",
      "name": "KAMİL ECZANESİ",
      "address": "23 NİSAN MAH. MİTHATPAŞA CAD. 251.SOK. NO:7B/C,  (UYGUN AVM ARKASI) ,  0224 470 19 64",
      "phone": "02244701964",
      "district": "NİLÜFER",
      "city": "Bursa",
      "latitude": 40.21843,
      "longitude": 28.94333,
      "dutyStart": "2026-03-06T18:30:00.000Z",
      "dutyEnd": "2026-03-07T10:00:00.000Z"
    },
    {
      "id": "bursa-6",
      "name": "MERKEZ SAĞLIK ECZANESİ",
      "address": "ALAADDİN MAH. ORTAPAZAR CAD. NO:47/2,  (MURADİYE DEVLET VE ALİ OSMAN SÖNMEZ ONKOLOJİ HASTANESİ ÜSTÜ) ,  0224 222 40 68",
      "phone": "02242224068",
      "district": "OSMANGAZİ",
      "city": "Bursa",
      "latitude": 40.18593893,
      "longitude": 29.0538919,
      "dutyStart": "2026-03-06T18:30:00.000Z",
      "dutyEnd": "2026-03-07T10:00:00.000Z"
    },
    {
      "id": "bursa-7",
      "name": "TUNA BEGÜM ECZANESİ",
      "address": "TUNA MAH. GÜRDAL CAD. NO:27,  (TUNA SAĞLIK OCAĞI KARŞISI) ,  0224-2721626",
      "phone": "02242721626",
      "district": "OSMANGAZİ",
      "city": "Bursa",
      "latitude": 40.20735310018631,
      "longitude": 29.057902468937527,
      "dutyStart": "2026-03-06T18:30:00.000Z",
      "dutyEnd": "2026-03-07T10:00:00.000Z"
    },
    {
      "id": "bursa-8",
      "name": "YENİKALE ECZANESİ",
      "address": "DİKKALDIRIM MAH. HAT CAD. NO:1/1-B,  (ZÜBEYDE HANIM DOĞUMEVİ KARŞISI) ,  0224 236 46 98",
      "phone": "02242364698",
      "district": "OSMANGAZİ",
      "city": "Bursa",
      "latitude": 40.20788928,
      "longitude": 29.01790202,
      "dutyStart": "2026-03-06T18:30:00.000Z",
      "dutyEnd": "2026-03-07T10:00:00.000Z"
    },
    {
      "id": "bursa-9",
      "name": "HİPODROM ECZANESİ",
      "address": "ATICILAR MAH. 2.GÜLER SOK. NO:22/B ,  0224 254 04 14 ,  Eczaneyi haritada görüntülemek için tıklayınız...",
      "phone": "02242540414",
      "district": "OSMANGAZİ",
      "city": "Bursa",
      "latitude": 40.200218499083164,
      "longitude": 29.07930998364215,
      "dutyStart": "2026-03-06T18:30:00.000Z",
      "dutyEnd": "2026-03-07T10:00:00.000Z"
    },
    {
      "id": "bursa-10",
      "name": "HUZUR ECZANESİ",
      "address": "HAMİTLER MAH. HARBİYE CAD. NO:88/B,  (DOĞA KOLEJ YAKINI - YENİBAĞLAR TAKSİ DURAĞI KARŞISI) ,  0224 251 10 80",
      "phone": "02242511080",
      "district": "OSMANGAZİ",
      "city": "Bursa",
      "latitude": 40.251342357218476,
      "longitude": 28.97836907318363,
      "dutyStart": "2026-03-06T18:30:00.000Z",
      "dutyEnd": "2026-03-07T10:00:00.000Z"
    },
    {
      "id": "bursa-11",
      "name": "AY IŞIĞI ECZANESİ",
      "address": "EMEK ZEKAİ GÜMÜŞDİŞ MAH. GÜLER SOK. NO:23/B,  (EMEK ADNAN MENDERES SAĞLIK OCAĞI KARŞISI) ,  0224 220 02 51",
      "phone": "02242200251",
      "district": "OSMANGAZİ",
      "city": "Bursa",
      "latitude": 40.254178843302114,
      "longitude": 28.956924257667044,
      "dutyStart": "2026-03-06T18:30:00.000Z",
      "dutyEnd": "2026-03-07T10:00:00.000Z"
    },
    {
      "id": "bursa-12",
      "name": "FURKAN ECZANESİ",
      "address": "ORTABAĞLAR MAH. ÇELİK SOK. NO:4,  (ESKİ FAKÜLTE KARŞISI - GÖZLÜKÇÜLER ÜSTÜ) ,  0224 366 59 31 / 0224366578",
      "phone": "02243665931",
      "district": "YILDIRIM",
      "city": "Bursa",
      "latitude": 40.19064398223581,
      "longitude": 29.111188906125562,
      "dutyStart": "2026-03-06T18:30:00.000Z",
      "dutyEnd": "2026-03-07T10:00:00.000Z"
    },
    {
      "id": "bursa-13",
      "name": "GÜL ECZANESİ",
      "address": "SAMANLI MAH. KOCAALİ CAD. NO:106 ,  0224 351 12 62 ,  Eczaneyi haritada görüntülemek için tıklayınız...",
      "phone": "02243511262",
      "district": "YILDIRIM",
      "city": "Bursa",
      "latitude": 40.22974812055591,
      "longitude": 29.12513401637864,
      "dutyStart": "2026-03-06T18:30:00.000Z",
      "dutyEnd": "2026-03-07T10:00:00.000Z"
    },
    {
      "id": "bursa-14",
      "name": "TÜLAY ECZANESİ",
      "address": "BAĞLARALTI MAH. A-309 SOK. NO:5/A,  (PAZAR PAZARI-BAĞLARALTI ASM YANI) ,  0224 341 61 62",
      "phone": "02243416162",
      "district": "YILDIRIM",
      "city": "Bursa",
      "latitude": 40.18436521290417,
      "longitude": 29.138307720422745,
      "dutyStart": "2026-03-06T18:30:00.000Z",
      "dutyEnd": "2026-03-07T10:00:00.000Z"
    },
    {
      "id": "bursa-15",
      "name": "AHISKA ECZANESİ",
      "address": "SIRACEVİZLER MAH. KURTBASAN CAD. NO:33/A,  (KURTBASAN CAD. ESKİ PTT YERİ) ,  0501 298 16 22",
      "phone": "05012981622",
      "district": "YILDIRIM",
      "city": "Bursa",
      "latitude": 40.1773836,
      "longitude": 29.0902363,
      "dutyStart": "2026-03-06T18:30:00.000Z",
      "dutyEnd": "2026-03-07T10:00:00.000Z"
    },
    {
      "id": "bursa-16",
      "name": "BÜYÜKORHAN ECZANESİ",
      "address": "ORHAN MAH. DR.İBRAHİM ÖKTEM CAD. NO:13/B ,  0224 841 23 70 ,  Eczaneyi haritada görüntülemek için tıklayınız...",
      "phone": "02248412370",
      "district": "BÜYÜKORHAN",
      "city": "Bursa",
      "latitude": 39.773187817429196,
      "longitude": 28.885376751422882,
      "dutyStart": "2026-03-06T19:00:00.000Z",
      "dutyEnd": "2026-03-07T08:30:00.000Z"
    },
    {
      "id": "bursa-17",
      "name": "ZEYNEP ÖZDEMİR ECZANESİ",
      "address": "DR.ZİYA KAYA MAH. HÜRRİYET CAD. DEDE KORKUT SOK. NO:26/A ,  0224 512 19 95 ,  Eczaneyi haritada görüntülemek için tıklayınız...",
      "phone": "02245121995",
      "district": "GEMLİK",
      "city": "Bursa",
      "latitude": 40.426023751931325,
      "longitude": 29.161636233329773,
      "dutyStart": "2026-03-06T18:30:00.000Z",
      "dutyEnd": "2026-03-07T00:00:00.000Z"
    },
    {
      "id": "bursa-18",
      "name": "BURAK ECZANESİ",
      "address": "EŞREF DİNÇER MAH. KUVAYİ MİLLİYE BULVARI NO:255/B ,  0224 504 51 86 ,  Eczaneyi haritada görüntülemek için tıklayınız...",
      "phone": "02245045186",
      "district": "GEMLİK",
      "city": "Bursa",
      "latitude": 40.430732699690786,
      "longitude": 29.17758512367669,
      "dutyStart": "2026-03-06T18:30:00.000Z",
      "dutyEnd": "2026-03-07T09:30:00.000Z"
    },
    {
      "id": "bursa-19",
      "name": "SELÇUK ECZANESİ",
      "address": "KURTULUŞ MAH. ATATÜRK CAD. NO:120/B ,  0224 371 25 08 ,  Eczaneyi haritada görüntülemek için tıklayınız...",
      "phone": "02243712508",
      "district": "GÜRSU",
      "city": "Bursa",
      "latitude": 40.212467,
      "longitude": 29.19244,
      "dutyStart": "2026-03-06T18:30:00.000Z",
      "dutyEnd": "2026-03-07T10:00:00.000Z"
    },
    {
      "id": "bursa-20",
      "name": "ULAŞ ECZANESİ",
      "address": "MERKEZ MAH. FEVZİ PAŞA CAD. NO:9/A ,  0224-8812272 ,  Eczaneyi haritada görüntülemek için tıklayınız...",
      "phone": "02248812272",
      "district": "HARMANCIK",
      "city": "Bursa",
      "latitude": 39.679027,
      "longitude": 29.154901999999993,
      "dutyStart": "2026-03-06T18:00:00.000Z",
      "dutyEnd": "2026-03-07T08:30:00.000Z"
    },
    {
      "id": "bursa-21",
      "name": "ELİF ECZANESİ",
      "address": "HAMİDİYE MAH. KASIMEFENDİ CAD. NO:102-1/A ,  0224 711 24 17 ,  Eczaneyi haritada görüntülemek için tıklayınız...",
      "phone": "02247112417",
      "district": "İNEGÖL",
      "city": "Bursa",
      "latitude": 40.07331,
      "longitude": 29.51391,
      "dutyStart": "2026-03-06T18:00:00.000Z",
      "dutyEnd": "2026-03-07T01:00:00.000Z"
    },
    {
      "id": "bursa-22",
      "name": "ATMACA ECZANESİ",
      "address": "MESUDİYE MAH. SEVGİ SOK. NO:4 ,  0224 711 04 24 ,  Eczaneyi haritada görüntülemek için tıklayınız...",
      "phone": "02247110424",
      "district": "İNEGÖL",
      "city": "Bursa",
      "latitude": 40.08124837589111,
      "longitude": 29.53299880027771,
      "dutyStart": "2026-03-06T18:00:00.000Z",
      "dutyEnd": "2026-03-07T01:00:00.000Z"
    },
    {
      "id": "bursa-23",
      "name": "TUBA GÜMÜŞ ECZANESİ",
      "address": "BURHANİYE MAH. KEMALETTİN SAMİ PAŞA CAD. NO:33 ,  0224 715 63 68 ,  Eczaneyi haritada görüntülemek için tıklayınız...",
      "phone": "02247156368",
      "district": "İNEGÖL",
      "city": "Bursa",
      "latitude": 40.08052,
      "longitude": 29.50671,
      "dutyStart": "2026-03-06T18:00:00.000Z",
      "dutyEnd": "2026-03-07T10:30:00.000Z"
    },
    {
      "id": "bursa-24",
      "name": "YENİ ECZANESİ",
      "address": "YENİ MAH. KILIÇASLAN CAD. NO:134 ,  0224 757 24 25 ,  Eczaneyi haritada görüntülemek için tıklayınız...",
      "phone": "02247572425",
      "district": "İZNİK",
      "city": "Bursa",
      "latitude": 40.42921094982254,
      "longitude": 29.72274899482727,
      "dutyStart": "2026-03-06T18:00:00.000Z",
      "dutyEnd": "2026-03-07T08:30:00.000Z"
    },
    {
      "id": "bursa-25",
      "name": "ASLI ECZANESİ",
      "address": "SIRABADEMLER MAH. 241.SOK. NO: 104 ,  0224 676 16 15 ,  Eczaneyi haritada görüntülemek için tıklayınız...",
      "phone": "02246761615",
      "district": "KARACABEY",
      "city": "Bursa",
      "latitude": 40.204592,
      "longitude": 28.359032,
      "dutyStart": "2026-03-06T18:00:00.000Z",
      "dutyEnd": "2026-03-07T09:30:00.000Z"
    },
    {
      "id": "bursa-26",
      "name": "ÇINAR ECZANESİ",
      "address": "CUMA MAH. TAHİR HOCA CAD. NO:1 ,  0224 861 30 72 ,  Eczaneyi haritada görüntülemek için tıklayınız...",
      "phone": "02248613072",
      "district": "KELES",
      "city": "Bursa",
      "latitude": 39.9132,
      "longitude": 29.2329,
      "dutyStart": "2026-03-06T18:00:00.000Z",
      "dutyEnd": "2026-03-07T00:00:00.000Z"
    },
    {
      "id": "bursa-27",
      "name": "BAYRAK ECZANESİ",
      "address": "VANİ MEHMET MAH. PARS SOK. NO:11/A ,  0224-3740040 ,  Eczaneyi haritada görüntülemek için tıklayınız...",
      "phone": "02243740040",
      "district": "KESTEL",
      "city": "Bursa",
      "latitude": 40.19887971751529,
      "longitude": 29.213016629219055,
      "dutyStart": "2026-03-06T18:00:00.000Z",
      "dutyEnd": "2026-03-07T10:00:00.000Z"
    },
    {
      "id": "bursa-28",
      "name": "DORUK ECZANESİ",
      "address": "ÇALI MAH. BURSA CAD. NO:38/B,  (İCAP NÖBETÇİDİR) ,  0535 209 54 15",
      "phone": "05352095415",
      "district": "NİLÜFER",
      "city": "Bursa",
      "latitude": 40.17164568691568,
      "longitude": 28.92117939814688,
      "dutyStart": "2026-03-06T18:00:00.000Z",
      "dutyEnd": "2026-03-06T20:00:00.000Z"
    },
    {
      "id": "bursa-29",
      "name": "YENİ SAĞLIK ECZANESİ",
      "address": "GÜZELYALI MAH. FUNDA SOK. AYSAY APT. C-BLOK NO:5 ,  2245542712 ,  Eczaneyi haritada görüntülemek için tıklayınız...",
      "phone": "2245542712",
      "district": "MUDANYA",
      "city": "Bursa",
      "latitude": 40.3543998,
      "longitude": 28.928767,
      "dutyStart": "2026-03-06T18:00:00.000Z",
      "dutyEnd": "2026-03-07T08:30:00.000Z"
    },
    {
      "id": "bursa-30",
      "name": "HALİTPAŞA ECZANESİ",
      "address": "HALİTPAŞA MAH. ZİRAAT CAD. NO:5,  (1 NOLU SAĞLIK OCAĞI YANI) ,  0224 544 14 46",
      "phone": "02245441446",
      "district": "MUDANYA",
      "city": "Bursa",
      "latitude": 40.379875,
      "longitude": 28.873684000000026,
      "dutyStart": "2026-03-06T18:00:00.000Z",
      "dutyEnd": "2026-03-07T08:30:00.000Z"
    },
    {
      "id": "bursa-31",
      "name": "YALIN ECZANESİ",
      "address": "YALINTAŞ MAH. DEVECİKONAK CAD. NO:72 ,  0224 647 21 21 ,  Eczaneyi haritada görüntülemek için tıklayınız...",
      "phone": "02246472121",
      "district": "MUSTAFAKEMALPAŞA",
      "city": "Bursa",
      "latitude": 40.018443331149335,
      "longitude": 28.398038141989076,
      "dutyStart": "2026-03-06T18:00:00.000Z",
      "dutyEnd": "2026-03-07T10:00:00.000Z"
    },
    {
      "id": "bursa-32",
      "name": "CANNUR ECZANESİ",
      "address": "İSMET PAŞA MAH. HASTANE CAD. NO:7 ,  0224-8171262 ,  Eczaneyi haritada görüntülemek için tıklayınız...",
      "phone": "02248171262",
      "district": "ORHANELİ",
      "city": "Bursa",
      "latitude": 39.905429,
      "longitude": 28.984375999999997,
      "dutyStart": "2026-03-06T18:00:00.000Z",
      "dutyEnd": "2026-03-07T08:30:00.000Z"
    },
    {
      "id": "bursa-33",
      "name": "OKSİJEN ECZANESİ",
      "address": "CAMİİKEBİR MAH. MUSTAFAKEMALPAŞA CAD. AYHAN APT. 54/A NO:6 ,  (FİNANSBANK ARKASI) ,  0224 573 03 13",
      "phone": "02245730313",
      "district": "ORHANGAZİ",
      "city": "Bursa",
      "latitude": 40.490852992153435,
      "longitude": 29.30746063848232,
      "dutyStart": "2026-03-06T18:00:00.000Z",
      "dutyEnd": "2026-03-07T09:30:00.000Z"
    },
    {
      "id": "bursa-34",
      "name": "EVREN ECZANESİ",
      "address": "DEMİRTAŞ CUMHURİYET MAH. PANAYIR YOLU CAD. NO:12/J,  (BAKYAPI PRESTİJ PARK BULVAR SİTESİ ALTI - ONUR MARKET YANI) ,  02243665696 / 0507 445 01 32",
      "phone": "02243665696",
      "district": "OSMANGAZİ",
      "city": "Bursa",
      "latitude": 40.243702,
      "longitude": 29.080066,
      "dutyStart": "2026-03-06T18:30:00.000Z",
      "dutyEnd": "2026-03-07T10:00:00.000Z"
    },
    {
      "id": "bursa-35",
      "name": "UYSAL ECZANESİ",
      "address": "ÇAYIR MAH. CUMHURİYET CAD. NO:38 16900 ,  0224 773 03 55 ,  Eczaneyi haritada görüntülemek için tıklayınız...",
      "phone": "02247730355",
      "district": "YENİŞEHİR",
      "city": "Bursa",
      "latitude": 40.262624,
      "longitude": 29.649992999999995,
      "dutyStart": "2026-03-06T18:00:00.000Z",
      "dutyEnd": "2026-03-07T08:00:00.000Z"
    }
  ]
}