{
  "city": "bursa",
  "cityName": "Bursa",
  "cityId": 16,
  "date": "2026-02-19",
  "updatedAt": "2026-02-19T10:00:41.373Z",
  "count": 35,
  "pharmacies": [
    {
      "id": "bursa-0",
      "name": "TERAPİ ECZANESİ",
      "address": "BALAT MAH. BAHAR(300) SOK. NO:6/A,  (HEYBELİ KONAKLARI KARŞISI) ,  0224 244 86 65 / 5550 747 71 4_",
      "phone": "02242448665",
      "district": "NİLÜFER",
      "city": "Bursa",
      "latitude": 40.264212,
      "longitude": 28.937341,
      "dutyStart": "2026-02-19T18:30:00.000Z",
      "dutyEnd": "2026-02-20T08:30:00.000Z"
    },
    {
      "id": "bursa-1",
      "name": "DERYA GÜLPINAR ECZANESİ",
      "address": "İHSANİYE MAH. BARBAROS CAD. ATALAY-9 SİT. NO:18/A,  (İZMİR YOLU BANKALAR CAD. ARKASI) ,  0224 247 09 49",
      "phone": "02242470949",
      "district": "NİLÜFER",
      "city": "Bursa",
      "latitude": 40.212832,
      "longitude": 28.980993000000012,
      "dutyStart": "2026-02-19T18:30:00.000Z",
      "dutyEnd": "2026-02-20T08:30:00.000Z"
    },
    {
      "id": "bursa-2",
      "name": "LOTUS ECZANESİ",
      "address": "23 NİSAN MAH. 253.SOK. PARADİSE VİSTA SİTESİ NO:10,  (23 NİSAN MAHALLESİ MUHTARLIĞI YANI) ,  0224 502 25 05",
      "phone": "02245022505",
      "district": "NİLÜFER",
      "city": "Bursa",
      "latitude": 40.21535889407327,
      "longitude": 28.941637132673566,
      "dutyStart": "2026-02-19T18:30:00.000Z",
      "dutyEnd": "2026-02-20T08:30:00.000Z"
    },
    {
      "id": "bursa-3",
      "name": "KAMPÜS ECZANESİ",
      "address": "DUMLUPINAR MAH. ATATÜRK CAD. NO:98B/E,  (GÖRÜKLE İÇİ - PETROL OFİSİ AKARYAKIT İSTASYONU KARŞISI) ,  0224 483 54 83",
      "phone": "02244835483",
      "district": "NİLÜFER",
      "city": "Bursa",
      "latitude": 40.225808,
      "longitude": 28.846786000000066,
      "dutyStart": "2026-02-19T18:30:00.000Z",
      "dutyEnd": "2026-02-20T08:30:00.000Z"
    },
    {
      "id": "bursa-4",
      "name": "BURCU BALABAN ECZANESİ",
      "address": "KÜLTÜR MAH. GÜMÜŞDERE CAD. NO:47/B,  (ÖZEL AKCAN OKULLARI ÜSTÜ) ,  0224 504 52 43",
      "phone": "02245045243",
      "district": "NİLÜFER",
      "city": "Bursa",
      "latitude": 40.200998,
      "longitude": 28.958345,
      "dutyStart": "2026-02-19T18:30:00.000Z",
      "dutyEnd": "2026-02-20T08:30:00.000Z"
    },
    {
      "id": "bursa-5",
      "name": "BUKETİM ECZANESİ",
      "address": "ALTINŞEHİR MAH. 331.SOK. NO:2C/A,  (KUVEYT TÜRK BANKASI ÖZLÜCE ŞUBESİ YANI) ,  0224 413 29 78",
      "phone": "02244132978",
      "district": "NİLÜFER",
      "city": "Bursa",
      "latitude": 40.2219185,
      "longitude": 28.9153221,
      "dutyStart": "2026-02-19T18:30:00.000Z",
      "dutyEnd": "2026-02-20T08:30:00.000Z"
    },
    {
      "id": "bursa-6",
      "name": "ATLI ECZANESİ",
      "address": "HÜDAVENDİGAR MAH. DEMET SOK. NO:5/A,  (DİKKALDIRIM PAZARI KARŞISI) ,  0224-2396200",
      "phone": "02242396200",
      "district": "OSMANGAZİ",
      "city": "Bursa",
      "latitude": 40.20100418,
      "longitude": 29.0094839,
      "dutyStart": "2026-02-19T18:30:00.000Z",
      "dutyEnd": "2026-02-20T08:30:00.000Z"
    },
    {
      "id": "bursa-7",
      "name": "AYŞEGÜL ECZANESİ",
      "address": "BAĞLARBAŞI MAH. 1.ÇAMLI SOK. NO:52,  (BAĞLARBAŞI SAĞLIK OCAĞI KARŞISI) ,  0224-2495559",
      "phone": "02242495559",
      "district": "OSMANGAZİ",
      "city": "Bursa",
      "latitude": 40.2326624628231,
      "longitude": 28.99018406867981,
      "dutyStart": "2026-02-19T18:30:00.000Z",
      "dutyEnd": "2026-02-20T08:30:00.000Z"
    },
    {
      "id": "bursa-8",
      "name": "GENÇOSMAN ECZANESİ",
      "address": "KEMERÇEŞME MAH. NO:38/D,  (GENÇOSMAN PTT KARŞISI - PAZAR PAZARI GİRİŞİ) ,  0224 271 15 15",
      "phone": "02242711515",
      "district": "OSMANGAZİ",
      "city": "Bursa",
      "latitude": 40.19900263907047,
      "longitude": 29.0627284348011,
      "dutyStart": "2026-02-19T18:30:00.000Z",
      "dutyEnd": "2026-02-20T08:30:00.000Z"
    },
    {
      "id": "bursa-9",
      "name": "NİLÜFERKÖY ECZANESİ",
      "address": "NİLÜFERKÖY MAH. NİLÜFER CAD. NO:71/A ,  0533 087 40 92 ,  Eczaneyi haritada görüntülemek için tıklayınız...",
      "phone": "05330874092",
      "district": "OSMANGAZİ",
      "city": "Bursa",
      "latitude": 40.283907621627975,
      "longitude": 28.94755754840555,
      "dutyStart": "2026-02-19T18:30:00.000Z",
      "dutyEnd": "2026-02-20T08:30:00.000Z"
    },
    {
      "id": "bursa-10",
      "name": "ÇAĞLA ECZANESİ",
      "address": "ALEMDAR MAH. ORMANLAR YOLU CAD. NO:57,  (ALEMDAR SAĞLIK OCAĞI YANI) ,  0224 232 01 96 / 0224 233 87 76",
      "phone": "02242320196",
      "district": "OSMANGAZİ",
      "city": "Bursa",
      "latitude": 40.20826414112653,
      "longitude": 29.03712809579497,
      "dutyStart": "2026-02-19T18:30:00.000Z",
      "dutyEnd": "2026-02-20T08:30:00.000Z"
    },
    {
      "id": "bursa-11",
      "name": "UŞUN ECZANESİ",
      "address": "OSMANGAZİ MAH. YİĞİTLER CAD. NO:9,  (BURSA ORDU EVİ ALTI - TOPHANE MEYDANI) ,  0224 223 11 93 / 0224 221 73 40",
      "phone": "02242231193",
      "district": "OSMANGAZİ",
      "city": "Bursa",
      "latitude": 40.18632825,
      "longitude": 29.05744582,
      "dutyStart": "2026-02-19T18:30:00.000Z",
      "dutyEnd": "2026-02-20T08:30:00.000Z"
    },
    {
      "id": "bursa-12",
      "name": "TELEFERİK ECZANESİ",
      "address": "MUSABABA MAH. 3.CEVİZLİ SOK. NO:15 ,  0224 327 44 64 ,  Eczaneyi haritada görüntülemek için tıklayınız...",
      "phone": "02243274464",
      "district": "YILDIRIM",
      "city": "Bursa",
      "latitude": 40.176201,
      "longitude": 29.084553,
      "dutyStart": "2026-02-19T18:30:00.000Z",
      "dutyEnd": "2026-02-20T08:30:00.000Z"
    },
    {
      "id": "bursa-13",
      "name": "MİLLET IŞIK ECZANESİ",
      "address": "MİLLET MAH. DERYA CAD. NO:142/A,  (ÇEVRE YOLU ALTI VİLLA) ,  0224-3512526",
      "phone": "02243512526",
      "district": "YILDIRIM",
      "city": "Bursa",
      "latitude": 40.22107706693134,
      "longitude": 29.10165366268916,
      "dutyStart": "2026-02-19T18:30:00.000Z",
      "dutyEnd": "2026-02-20T08:30:00.000Z"
    },
    {
      "id": "bursa-14",
      "name": "SELÇUKBEY ECZANESİ",
      "address": "ERTUĞRULGAZİ MAH. SELÇUKBEY CAD. NO:96/A,  (MESKEN/SİTELER ARASI - ÖZDİLEK ALTI) ,  0224 366 37 69",
      "phone": "02243663769",
      "district": "YILDIRIM",
      "city": "Bursa",
      "latitude": 40.1800537,
      "longitude": 29.11774993,
      "dutyStart": "2026-02-19T18:30:00.000Z",
      "dutyEnd": "2026-02-20T08:30:00.000Z"
    },
    {
      "id": "bursa-15",
      "name": "YENİ ORHAN ECZANESİ",
      "address": "ORHAN MAH. DR.İBRAHİM ÖKTEM CAD. NO:35 ,  0506 226 03 44 ,  Eczaneyi haritada görüntülemek için tıklayınız...",
      "phone": "05062260344",
      "district": "BÜYÜKORHAN",
      "city": "Bursa",
      "latitude": 39.775043,
      "longitude": 28.881995,
      "dutyStart": "2026-02-19T19:00:00.000Z",
      "dutyEnd": "2026-02-20T08:30:00.000Z"
    },
    {
      "id": "bursa-16",
      "name": "TUĞBA ECZANESİ",
      "address": "EŞREF DİNÇER MAH. IRMAK SOK. NO:289,  (YENİ GEMLİK DEVLET HASTANESİ YOLU ÜZERİ) ,  0224-5130465",
      "phone": "02245130465",
      "district": "GEMLİK",
      "city": "Bursa",
      "latitude": 40.430823855753324,
      "longitude": 29.179243892033355,
      "dutyStart": "2026-02-19T18:30:00.000Z",
      "dutyEnd": "2026-02-20T00:00:00.000Z"
    },
    {
      "id": "bursa-17",
      "name": "EMİN ECZANESİ",
      "address": "DR.ZİYA KAYA MAH. İSTİKLAL CAD. NO:86/1-A,  (ESKİ DİŞ HASTANESİ KARŞISI) ,  0224 514 85 65",
      "phone": "02245148565",
      "district": "GEMLİK",
      "city": "Bursa",
      "latitude": 40.425312,
      "longitude": 29.15558999999996,
      "dutyStart": "2026-02-19T18:30:00.000Z",
      "dutyEnd": "2026-02-20T08:30:00.000Z"
    },
    {
      "id": "bursa-18",
      "name": "YENİDOĞAN ECZANESİ",
      "address": "YENİDOĞAN MAH. ŞEHİT ASTSUBAY TEK.ÜSÇAVUŞ VEDAT AVCI SOK. A-BLOK NO:24/C ,  0545 966 88 45 ,  Eczaneyi haritada görüntülemek için tıklayınız...",
      "phone": "05459668845",
      "district": "GÜRSU",
      "city": "Bursa",
      "latitude": 40.20135735649773,
      "longitude": 29.18093037589116,
      "dutyStart": "2026-02-19T18:30:00.000Z",
      "dutyEnd": "2026-02-20T09:00:00.000Z"
    },
    {
      "id": "bursa-19",
      "name": "DERMAN ECZANESİ",
      "address": "MERKEZ MAH. FEVZİ PAŞA CAD. NO:11/1 ,  0224-8812295 ,  Eczaneyi haritada görüntülemek için tıklayınız...",
      "phone": "02248812295",
      "district": "HARMANCIK",
      "city": "Bursa",
      "latitude": 39.679107,
      "longitude": 29.155259,
      "dutyStart": "2026-02-19T18:00:00.000Z",
      "dutyEnd": "2026-02-20T08:30:00.000Z"
    },
    {
      "id": "bursa-20",
      "name": "ŞİFA ECZANESİ",
      "address": "CUMA MAH. 1.TABAKHANE SOK. NO:2/A,  (KUYUMCULAR ÇARŞISI KARŞISI) ,  0224 712 07 94",
      "phone": "02247120794",
      "district": "İNEGÖL",
      "city": "Bursa",
      "latitude": 40.07816447436219,
      "longitude": 29.510878801413526,
      "dutyStart": "2026-02-19T18:00:00.000Z",
      "dutyEnd": "2026-02-20T01:00:00.000Z"
    },
    {
      "id": "bursa-21",
      "name": "ENVER ECZANESİ",
      "address": "FATİH MAH. ALANYURT CAD. NO:113/D ,  0224 504 80 80 ,  Eczaneyi haritada görüntülemek için tıklayınız...",
      "phone": "02245048080",
      "district": "İNEGÖL",
      "city": "Bursa",
      "latitude": 40.10834,
      "longitude": 29.51384,
      "dutyStart": "2026-02-19T18:00:00.000Z",
      "dutyEnd": "2026-02-20T01:00:00.000Z"
    },
    {
      "id": "bursa-22",
      "name": "AHU ECZANESİ",
      "address": "OSMANİYE MAH. AHMET AKYOLLU CAD. NO:31/A ,  0224 711 47 94 ,  Eczaneyi haritada görüntülemek için tıklayınız...",
      "phone": "02247114794",
      "district": "İNEGÖL",
      "city": "Bursa",
      "latitude": 40.082568,
      "longitude": 29.510275,
      "dutyStart": "2026-02-19T18:00:00.000Z",
      "dutyEnd": "2026-02-20T08:30:00.000Z"
    },
    {
      "id": "bursa-23",
      "name": "BÜŞRA ECZANESİ",
      "address": "BEYLER MAH. ATATÜRK CAD. NO:84 ,  0224 757 49 75 ,  Eczaneyi haritada görüntülemek için tıklayınız...",
      "phone": "02247574975",
      "district": "İZNİK",
      "city": "Bursa",
      "latitude": 40.429727,
      "longitude": 29.71990900000003,
      "dutyStart": "2026-02-19T18:30:00.000Z",
      "dutyEnd": "2026-02-20T08:30:00.000Z"
    },
    {
      "id": "bursa-24",
      "name": "AYSEL ECZANESİ",
      "address": "TAVŞANLI MAH. 56.SOK. NO:13/A,  (GARAJ ÜZERİ - ESKİ DEVLET HASTANESİ KARŞISI) ,  0224 695 25 00",
      "phone": "02246952500",
      "district": "KARACABEY",
      "city": "Bursa",
      "latitude": 40.214156958218446,
      "longitude": 28.35430095588127,
      "dutyStart": "2026-02-19T18:00:00.000Z",
      "dutyEnd": "2026-02-20T08:30:00.000Z"
    },
    {
      "id": "bursa-25",
      "name": "ÇINAR ECZANESİ",
      "address": "CUMA MAH. TAHİR HOCA CAD. NO:1 ,  0224 861 30 72 ,  Eczaneyi haritada görüntülemek için tıklayınız...",
      "phone": "02248613072",
      "district": "KELES",
      "city": "Bursa",
      "latitude": 39.9132,
      "longitude": 29.2329,
      "dutyStart": "2026-02-19T18:00:00.000Z",
      "dutyEnd": "2026-02-20T08:30:00.000Z"
    },
    {
      "id": "bursa-26",
      "name": "EDA GÜNDÜZ ECZANESİ",
      "address": "KALE MAH. FEVZİ ÇAKMAK CAD. NO:6/B ,  0224 372 22 55 ,  Eczaneyi haritada görüntülemek için tıklayınız...",
      "phone": "02243722255",
      "district": "KESTEL",
      "city": "Bursa",
      "latitude": 40.201276,
      "longitude": 29.211675,
      "dutyStart": "2026-02-19T18:00:00.000Z",
      "dutyEnd": "2026-02-20T08:30:00.000Z"
    },
    {
      "id": "bursa-27",
      "name": "ÇALI DERMAN ECZANESİ",
      "address": "ÇALI MAH. BURSA CAD. NO:3,  (İCAP NÖBETÇİDİR) ,  0224 482 32 18",
      "phone": "02244823218",
      "district": "NİLÜFER",
      "city": "Bursa",
      "latitude": 40.168661406877135,
      "longitude": 28.919362404144998,
      "dutyStart": "2026-02-19T18:00:00.000Z",
      "dutyEnd": "2026-02-19T20:00:00.000Z"
    },
    {
      "id": "bursa-28",
      "name": "MUDANYA DERMAN ECZANESİ",
      "address": "GÜZELYALI SİTELER MAH. BURSA ASFALTI CAD. NO:162/2B ,  0224-5440627 ,  Eczaneyi haritada görüntülemek için tıklayınız...",
      "phone": "02245440627",
      "district": "MUDANYA",
      "city": "Bursa",
      "latitude": 40.357593,
      "longitude": 28.9127091,
      "dutyStart": "2026-02-19T18:00:00.000Z",
      "dutyEnd": "2026-02-20T08:30:00.000Z"
    },
    {
      "id": "bursa-29",
      "name": "İSKELE ECZANESİ",
      "address": "ÖMERBEY MAH. İPAR CAD. NO:74/A ,  0224-5446300 ,  Eczaneyi haritada görüntülemek için tıklayınız...",
      "phone": "02245446300",
      "district": "MUDANYA",
      "city": "Bursa",
      "latitude": 40.373985,
      "longitude": 28.88700599999993,
      "dutyStart": "2026-02-19T18:00:00.000Z",
      "dutyEnd": "2026-02-20T08:30:00.000Z"
    },
    {
      "id": "bursa-30",
      "name": "DURUMBEY ECZANESİ",
      "address": "VIRACA MAH. BURSA CAD. NO:57 ,  0224 614 15 74 ,  Eczaneyi haritada görüntülemek için tıklayınız...",
      "phone": "02246141574",
      "district": "MUSTAFAKEMALPAŞA",
      "city": "Bursa",
      "latitude": 40.037293,
      "longitude": 28.408334999999965,
      "dutyStart": "2026-02-19T18:30:00.000Z",
      "dutyEnd": "2026-02-20T08:30:00.000Z"
    },
    {
      "id": "bursa-31",
      "name": "EZEL ECZANESİ",
      "address": "İSMET PAŞA MAH. HASTANE SOK. NO:11 ,  0224-8173637 ,  Eczaneyi haritada görüntülemek için tıklayınız...",
      "phone": "02248173637",
      "district": "ORHANELİ",
      "city": "Bursa",
      "latitude": 39.901235,
      "longitude": 28.98706100000004,
      "dutyStart": "2026-02-19T18:00:00.000Z",
      "dutyEnd": "2026-02-20T08:30:00.000Z"
    },
    {
      "id": "bursa-32",
      "name": "TUĞÇE ECZANESİ",
      "address": "CAMİKEBİR MAH. TOZKOPARAN CAD. NO:16 ,  0224-5722596 ,  Eczaneyi haritada görüntülemek için tıklayınız...",
      "phone": "02245722596",
      "district": "ORHANGAZİ",
      "city": "Bursa",
      "latitude": 40.489942,
      "longitude": 29.30894599999999,
      "dutyStart": "2026-02-19T18:00:00.000Z",
      "dutyEnd": "2026-02-20T08:30:00.000Z"
    },
    {
      "id": "bursa-33",
      "name": "YEŞİM ÖNAL ECZANESİ",
      "address": "DEMİRTAŞ CUMHURİYET MAH. 4.CAD. OPTİMUM SİTESİ A-BLOK NO:116/117,  (BAKYAPI PRESTİJ OPTİMUM AVM - BURSA MODERN ANA GİRİŞ KAPISI KARŞISI) ,  0224 277 00 16",
      "phone": "02242770016",
      "district": "OSMANGAZİ",
      "city": "Bursa",
      "latitude": 40.2459,
      "longitude": 29.0879409,
      "dutyStart": "2026-02-19T18:30:00.000Z",
      "dutyEnd": "2026-02-20T08:30:00.000Z"
    },
    {
      "id": "bursa-34",
      "name": "YÜCELER ECZANESİ",
      "address": "ÇAYIR MAH. CUMHURİYET CAD. GİRGİN SOK. NO:1 ,  0224 773 12 79 ,  Eczaneyi haritada görüntülemek için tıklayınız...",
      "phone": "02247731279",
      "district": "YENİŞEHİR",
      "city": "Bursa",
      "latitude": 40.262634449536925,
      "longitude": 29.649763833869365,
      "dutyStart": "2026-02-19T18:00:00.000Z",
      "dutyEnd": "2026-02-20T08:00:00.000Z"
    }
  ]
}