{
  "city": "bursa",
  "cityName": "Bursa",
  "cityId": 16,
  "date": "2026-03-06",
  "updatedAt": "2026-03-05T23:30:52.983Z",
  "count": 31,
  "pharmacies": [
    {
      "id": "bursa-0",
      "name": "MELİSİN ECZANESİ",
      "address": "GÖRÜKLE MAH. ATATÜRK BULVARI NO:4D/C,  (GLORIA JEAN'S ÇAPRAZI) ,  0224 483 37 73",
      "phone": "02244833773",
      "district": "NİLÜFER",
      "city": "Bursa",
      "latitude": 40.227086674789454,
      "longitude": 28.84441640228033,
      "dutyStart": "2026-03-05T18:30:00.000Z",
      "dutyEnd": "2026-03-06T08:30:00.000Z"
    },
    {
      "id": "bursa-1",
      "name": "ŞEN ECZANESİ",
      "address": "KARAMAN MAH. GÜRBÜZLER CAD. NO:22,  (İZMİR YOLU DURAK MUHALLEBİCİSİ ARKASI) ,  0224 246 00 06",
      "phone": "02242460006",
      "district": "NİLÜFER",
      "city": "Bursa",
      "latitude": 40.2148217404487,
      "longitude": 28.998745787014162,
      "dutyStart": "2026-03-05T18:30:00.000Z",
      "dutyEnd": "2026-03-06T08:30:00.000Z"
    },
    {
      "id": "bursa-2",
      "name": "YENİGÜN ECZANESİ",
      "address": "ERTUĞRUL MAH. SAVCI DOĞAN ÖZ CAD. NO:18/B,  (15 TEMMUZ ŞEHİTLER CAMİ YANI) ,  0224 448 77 87",
      "phone": "02244487787",
      "district": "NİLÜFER",
      "city": "Bursa",
      "latitude": 40.21831412000331,
      "longitude": 28.926002573863702,
      "dutyStart": "2026-03-05T18:30:00.000Z",
      "dutyEnd": "2026-03-06T08:30:00.000Z"
    },
    {
      "id": "bursa-3",
      "name": "MEVSİM ECZANESİ",
      "address": "ATAEVLER MAH. GAZİOSMANPAŞA CAD. NO:13/1D,  (ÖZEL 22.YÜZYIL OKULLARI ÇAPRAZI) ,  0544 481 16 20",
      "phone": "05444811620",
      "district": "NİLÜFER",
      "city": "Bursa",
      "latitude": 40.217628687155816,
      "longitude": 28.96013263396654,
      "dutyStart": "2026-03-05T18:30:00.000Z",
      "dutyEnd": "2026-03-06T08:30:00.000Z"
    },
    {
      "id": "bursa-4",
      "name": "EDA ECZANESİ",
      "address": "İHSANİYE MAH. TUNA CAD. ORTAMKENT ST. NO:167/C-A,  (FATİH SULTAN MEHMET BULVARI TUNA CAD. GİRİŞİ) ,  0224 245 37 70 / 0533 524 71 57",
      "phone": "02242453770",
      "district": "NİLÜFER",
      "city": "Bursa",
      "latitude": 40.224424172421436,
      "longitude": 28.9809116766271,
      "dutyStart": "2026-03-05T18:30:00.000Z",
      "dutyEnd": "2026-03-06T08:30:00.000Z"
    },
    {
      "id": "bursa-5",
      "name": "PETEK ECZANESİ",
      "address": "BEŞEVLER MAH. ACAR SOK. NO:9/A,  (ÖZEL ANADOLU HASTANESİ ACİL ÇIKIŞ KARŞISI) ,  0224 452 16 66",
      "phone": "02244521666",
      "district": "NİLÜFER",
      "city": "Bursa",
      "latitude": 40.21029602662561,
      "longitude": 28.976630185354225,
      "dutyStart": "2026-03-05T18:30:00.000Z",
      "dutyEnd": "2026-03-06T08:30:00.000Z"
    },
    {
      "id": "bursa-6",
      "name": "KÜKÜRTLÜ DOĞA ECZANESİ",
      "address": "KÜKÜRTLÜ MAH. BAŞARAN SOK. NO:3/A,  (PEMBE ÇARŞI KARŞISI) ,  0224-2322127 / 5532296637",
      "phone": "02242322127",
      "district": "OSMANGAZİ",
      "city": "Bursa",
      "latitude": 40.20866767,
      "longitude": 29.02432323,
      "dutyStart": "2026-03-05T18:30:00.000Z",
      "dutyEnd": "2026-03-06T08:30:00.000Z"
    },
    {
      "id": "bursa-7",
      "name": "ÇELİK ECZANESİ",
      "address": "YEŞİLOVA MAH. 22.ÇEŞME SOK. NO:34,  (YEŞİLOVA SAĞLIK OCAĞI YANI) ,  0224-2516102",
      "phone": "02242516102",
      "district": "OSMANGAZİ",
      "city": "Bursa",
      "latitude": 40.211585,
      "longitude": 29.066753000000062,
      "dutyStart": "2026-03-05T18:30:00.000Z",
      "dutyEnd": "2026-03-06T08:30:00.000Z"
    },
    {
      "id": "bursa-8",
      "name": "OĞUZ ECZANESİ",
      "address": "ALACAHIRKA MAH. ORHANELİ CAD. NO:1/A,  (1 NOLU ALACAHIRKA AİLE SAĞLIĞI MERKEZİ KARŞISI) ,  0224 225 01 16",
      "phone": "02242250116",
      "district": "OSMANGAZİ",
      "city": "Bursa",
      "latitude": 40.18303736176448,
      "longitude": 29.0468430519104,
      "dutyStart": "2026-03-05T18:30:00.000Z",
      "dutyEnd": "2026-03-06T08:30:00.000Z"
    },
    {
      "id": "bursa-9",
      "name": "SEHERKENT ECZANESİ",
      "address": "ÇIRPAN MAH. GÜÇLÜ SOK. NO:3/A,  (OSMANGAZİ METRO İSTASYONU ÜSTÜ) ,  0224 271 32 13",
      "phone": "02242713213",
      "district": "OSMANGAZİ",
      "city": "Bursa",
      "latitude": 40.19556075,
      "longitude": 29.05650938,
      "dutyStart": "2026-03-05T18:30:00.000Z",
      "dutyEnd": "2026-03-06T08:30:00.000Z"
    },
    {
      "id": "bursa-10",
      "name": "DEMİRCAN ECZANESİ",
      "address": "GEÇİT MAH. 3.BAĞ SOK. NO:12/A,  (GEÇİT ASM YANI - GEÇİT CAMİ ARKASI) ,  0224 244 72 31",
      "phone": "02242447231",
      "district": "OSMANGAZİ",
      "city": "Bursa",
      "latitude": 40.27351759524524,
      "longitude": 28.94418954849243,
      "dutyStart": "2026-03-05T18:30:00.000Z",
      "dutyEnd": "2026-03-06T08:30:00.000Z"
    },
    {
      "id": "bursa-11",
      "name": "AKPINAR ECZANESİ",
      "address": "AKPINAR MAH. HANCI CAD. NO:25/1,  (MAL HATUN CAMİ ALTI) ,  0224 242 89 11",
      "phone": "02242428911",
      "district": "OSMANGAZİ",
      "city": "Bursa",
      "latitude": 40.24563937041908,
      "longitude": 28.96859497327887,
      "dutyStart": "2026-03-05T18:30:00.000Z",
      "dutyEnd": "2026-03-06T08:30:00.000Z"
    },
    {
      "id": "bursa-12",
      "name": "FEYZA ECZANESİ",
      "address": "DAVUTDEDE MAH. KURTULUŞ CAD. NO:150/B,  (OPET KARŞISI) ,  0224 360 22 88",
      "phone": "02243602288",
      "district": "YILDIRIM",
      "city": "Bursa",
      "latitude": 40.1900372,
      "longitude": 29.0816699,
      "dutyStart": "2026-03-05T18:30:00.000Z",
      "dutyEnd": "2026-03-06T08:30:00.000Z"
    },
    {
      "id": "bursa-13",
      "name": "NURDAN SAĞLIK ECZANESİ",
      "address": "152 EVLER MAH. PROF.TEZOK CAD. NO:10,  (AKUĞUR MARKET YANI) ,  0224 360 44 44",
      "phone": "02243604444",
      "district": "YILDIRIM",
      "city": "Bursa",
      "latitude": 40.18993863,
      "longitude": 29.11057752,
      "dutyStart": "2026-03-05T18:30:00.000Z",
      "dutyEnd": "2026-03-06T08:30:00.000Z"
    },
    {
      "id": "bursa-14",
      "name": "BERNA KESKİN ECZANESİ",
      "address": "YİĞİTLER MAH. E-224.SOK. NO:35/A,  (YİĞİTLER MUHTARLIĞI VE ASM KARŞISI) ,  0224 342 38 34",
      "phone": "02243423834",
      "district": "YILDIRIM",
      "city": "Bursa",
      "latitude": 40.18935,
      "longitude": 29.154638,
      "dutyStart": "2026-03-05T18:30:00.000Z",
      "dutyEnd": "2026-03-06T08:30:00.000Z"
    },
    {
      "id": "bursa-15",
      "name": "YENİ ORHAN ECZANESİ",
      "address": "ORHAN MAH. DR.İBRAHİM ÖKTEM CAD. NO:35 ,  0506 226 03 44 ,  Eczaneyi haritada görüntülemek için tıklayınız...",
      "phone": "05062260344",
      "district": "BÜYÜKORHAN",
      "city": "Bursa",
      "latitude": 39.775043,
      "longitude": 28.881995,
      "dutyStart": "2026-03-05T19:00:00.000Z",
      "dutyEnd": "2026-03-06T08:30:00.000Z"
    },
    {
      "id": "bursa-16",
      "name": "DENİZYILDIZI ECZANESİ",
      "address": "DEMİRSUBAŞI MAH. SEMERCİLER YOKUŞU NO:18/A ,  0224 512 00 63 ,  Eczaneyi haritada görüntülemek için tıklayınız...",
      "phone": "02245120063",
      "district": "GEMLİK",
      "city": "Bursa",
      "latitude": 40.432348,
      "longitude": 29.154517,
      "dutyStart": "2026-03-05T18:30:00.000Z",
      "dutyEnd": "2026-03-06T08:30:00.000Z"
    },
    {
      "id": "bursa-17",
      "name": "ÖZGÜR ŞİFA ECZANESİ",
      "address": "KURTULUŞ MAH. ATATÜRK CAD. NO:110 ,  0224 371 58 78 ,  Eczaneyi haritada görüntülemek için tıklayınız...",
      "phone": "02243715878",
      "district": "GÜRSU",
      "city": "Bursa",
      "latitude": 40.213154555578754,
      "longitude": 29.19272889171684,
      "dutyStart": "2026-03-05T18:30:00.000Z",
      "dutyEnd": "2026-03-06T09:00:00.000Z"
    },
    {
      "id": "bursa-18",
      "name": "DERMAN ECZANESİ",
      "address": "MERKEZ MAH. FEVZİ PAŞA CAD. NO:11/1 ,  0224-8812295 ,  Eczaneyi haritada görüntülemek için tıklayınız...",
      "phone": "02248812295",
      "district": "HARMANCIK",
      "city": "Bursa",
      "latitude": 39.679107,
      "longitude": 29.155259,
      "dutyStart": "2026-03-05T18:00:00.000Z",
      "dutyEnd": "2026-03-06T08:30:00.000Z"
    },
    {
      "id": "bursa-19",
      "name": "ÇAĞLA ECZANESİ",
      "address": "SÜLEYMANİYE MAH. FURKAN SOK. NO:5/C,  (ÖZEL ARİTMİ HASTANESİ ACİL KAPISI KARŞISI) ,  0540 277 77 16",
      "phone": "05402777716",
      "district": "İNEGÖL",
      "city": "Bursa",
      "latitude": 40.089438,
      "longitude": 29.494898,
      "dutyStart": "2026-03-05T18:00:00.000Z",
      "dutyEnd": "2026-03-06T08:30:00.000Z"
    },
    {
      "id": "bursa-20",
      "name": "İZNİK ECZANESİ",
      "address": "MUSTAFAKEMALPAŞA MAH. ORHANGAZİ CAD. NO:74/4,  (İZNİK DEVLET HASTANESİ YANI) ,  0224-7571017",
      "phone": "02247571017",
      "district": "İZNİK",
      "city": "Bursa",
      "latitude": 40.442758428094535,
      "longitude": 29.717105627059937,
      "dutyStart": "2026-03-05T18:00:00.000Z",
      "dutyEnd": "2026-03-06T08:30:00.000Z"
    },
    {
      "id": "bursa-21",
      "name": "IŞIL ECZANESİ",
      "address": "RUNGUÇPAŞA MAH. PARK CAD. NO:3/B ,  0224-6766081 / 5333236021 ,  Eczaneyi haritada görüntülemek için tıklayınız...",
      "phone": "02246766081",
      "district": "KARACABEY",
      "city": "Bursa",
      "latitude": 40.21744,
      "longitude": 28.358746999999994,
      "dutyStart": "2026-03-05T18:00:00.000Z",
      "dutyEnd": "2026-03-06T08:30:00.000Z"
    },
    {
      "id": "bursa-22",
      "name": "KELES ECZANESİ",
      "address": "CUMA MAH. ATATÜRK CAD. NO:20/A ,  0224 861 23 63 ,  Eczaneyi haritada görüntülemek için tıklayınız...",
      "phone": "02248612363",
      "district": "KELES",
      "city": "Bursa",
      "latitude": 39.913008,
      "longitude": 29.233012,
      "dutyStart": "2026-03-05T18:00:00.000Z",
      "dutyEnd": "2026-03-06T08:30:00.000Z"
    },
    {
      "id": "bursa-23",
      "name": "YİĞİTLER ECZANESİ",
      "address": "YENİ MAH. MUHTARBEY SOK. NO:8/A ,  0224 372 17 32 ,  Eczaneyi haritada görüntülemek için tıklayınız...",
      "phone": "02243721732",
      "district": "KESTEL",
      "city": "Bursa",
      "latitude": 40.191098,
      "longitude": 29.210504000000014,
      "dutyStart": "2026-03-05T18:00:00.000Z",
      "dutyEnd": "2026-03-06T08:30:00.000Z"
    },
    {
      "id": "bursa-24",
      "name": "YALIM ECZANESİ",
      "address": "GÜZELYALI YALI MAH. 41.SOK. NO:13/C ,  0224 554 66 77 ,  Eczaneyi haritada görüntülemek için tıklayınız...",
      "phone": "02245546677",
      "district": "MUDANYA",
      "city": "Bursa",
      "latitude": 40.35618822323153,
      "longitude": 28.921120572989473,
      "dutyStart": "2026-03-05T18:00:00.000Z",
      "dutyEnd": "2026-03-06T08:30:00.000Z"
    },
    {
      "id": "bursa-25",
      "name": "İNCİ ECZANESİ",
      "address": "HALİTPAŞA MAH. ZİRAAT CAD. NO:12,  (HALİTPAŞA SAĞLIK OCAĞI ÇAPRAZI) ,  0224 544 06 91",
      "phone": "02245440691",
      "district": "MUDANYA",
      "city": "Bursa",
      "latitude": 40.18487032,
      "longitude": 29.06888679,
      "dutyStart": "2026-03-05T18:00:00.000Z",
      "dutyEnd": "2026-03-06T08:30:00.000Z"
    },
    {
      "id": "bursa-26",
      "name": "KARAMAN ECZANESİ",
      "address": "HAMİDİYE MAH. YALINTAŞ CAD. NO:22 ,  0224 613 20 30 ,  Eczaneyi haritada görüntülemek için tıklayınız...",
      "phone": "02246132030",
      "district": "MUSTAFAKEMALPAŞA",
      "city": "Bursa",
      "latitude": 40.032865,
      "longitude": 28.398695,
      "dutyStart": "2026-03-05T18:00:00.000Z",
      "dutyEnd": "2026-03-06T08:30:00.000Z"
    },
    {
      "id": "bursa-27",
      "name": "YENİ OĞUZ ECZANESİ",
      "address": "İSMET PAŞA MAH. HASTANE SOK. NO:10/A ,  0224-8171308 ,  Eczaneyi haritada görüntülemek için tıklayınız...",
      "phone": "02248171308",
      "district": "ORHANELİ",
      "city": "Bursa",
      "latitude": 39.902116,
      "longitude": 28.988188000000036,
      "dutyStart": "2026-03-05T18:00:00.000Z",
      "dutyEnd": "2026-03-06T08:30:00.000Z"
    },
    {
      "id": "bursa-28",
      "name": "ORHANGAZİ ECZANESİ",
      "address": "HÜRRİYET MAH. CAMİ SOK. NO:13/B ,  0224 573 33 73 ,  Eczaneyi haritada görüntülemek için tıklayınız...",
      "phone": "02245733373",
      "district": "ORHANGAZİ",
      "city": "Bursa",
      "latitude": 40.48385010929443,
      "longitude": 29.306069986105634,
      "dutyStart": "2026-03-05T18:00:00.000Z",
      "dutyEnd": "2026-03-06T08:30:00.000Z"
    },
    {
      "id": "bursa-29",
      "name": "ULUÇINAR ECZANESİ",
      "address": "DEMİRTAŞ CUMHURİYET MAH. KÜÇÜK SANAYİ 3.CAD. NO:57/A,  (DEMİRTAŞ İSMAİL HAKKI BURSEVİ KIZ ANADOLU İMAM HATİP LİSESİ KARŞISI) ,  224 262 93 21 / 5397723161",
      "phone": "2242629321",
      "district": "OSMANGAZİ",
      "city": "Bursa",
      "latitude": 40.2648941,
      "longitude": 29.0969014,
      "dutyStart": "2026-03-05T18:30:00.000Z",
      "dutyEnd": "2026-03-06T08:30:00.000Z"
    },
    {
      "id": "bursa-30",
      "name": "ACAR ECZANESİ",
      "address": "KURTULUŞ MAH. İZNİK CAD. NO:21 ,  0224 773 05 06 ,  Eczaneyi haritada görüntülemek için tıklayınız...",
      "phone": "02247730506",
      "district": "YENİŞEHİR",
      "city": "Bursa",
      "latitude": 40.27516291097589,
      "longitude": 29.654296338558197,
      "dutyStart": "2026-03-05T18:00:00.000Z",
      "dutyEnd": "2026-03-06T08:00:00.000Z"
    }
  ]
}