{
  "city": "bursa",
  "cityName": "Bursa",
  "cityId": 16,
  "date": "2026-02-25",
  "updatedAt": "2026-02-25T19:30:35.860Z",
  "count": 34,
  "pharmacies": [
    {
      "id": "bursa-0",
      "name": "ŞEHİR ECZANESİ",
      "address": "DOĞANKÖY MAH. ŞAHİN(320) SOK. NO:2/A,  (ŞEHİR HASTANESİ KARŞISI - DOĞANKÖY GİRİŞİ) ,  0224 413 19 37 / 5444131937",
      "phone": "02244131937",
      "district": "NİLÜFER",
      "city": "Bursa",
      "latitude": 40.2591321,
      "longitude": 28.9102538,
      "dutyStart": "2026-02-25T18:30:00.000Z",
      "dutyEnd": "2026-02-26T08:30:00.000Z"
    },
    {
      "id": "bursa-1",
      "name": "AKKON ECZANESİ",
      "address": "ÜÇEVLER MAH. 72.SOK. KALE PLAZA NO:4/C,  (KÜÇÜK SANAYİ SİTESİ BANKALAR MEVKİİ - 18.NOTER YANI) ,  0224 451 43 21",
      "phone": "02244514321",
      "district": "NİLÜFER",
      "city": "Bursa",
      "latitude": 40.210925,
      "longitude": 28.937032,
      "dutyStart": "2026-02-25T18:30:00.000Z",
      "dutyEnd": "2026-02-26T08:30:00.000Z"
    },
    {
      "id": "bursa-2",
      "name": "ÖYKÜ ECZANESİ",
      "address": "KONAK MAH. EĞİTİMCİLER CAD. NO:82/9 BEŞEVLER ,  0224-4531834 ,  Eczaneyi haritada görüntülemek için tıklayınız...",
      "phone": "02244531834",
      "district": "NİLÜFER",
      "city": "Bursa",
      "latitude": 40.20141186,
      "longitude": 28.98182631,
      "dutyStart": "2026-02-25T18:30:00.000Z",
      "dutyEnd": "2026-02-26T08:30:00.000Z"
    },
    {
      "id": "bursa-3",
      "name": "KAZANÇ ECZANESİ",
      "address": "KIZILCIKLI MAH. TURAÇ SOK. D-BLOK NO:15D/K,  (HASANAĞA TOKİ - MİNİBÜS DURAKLARI KARŞISI) ,  0553 080 16 17",
      "phone": "05530801617",
      "district": "NİLÜFER",
      "city": "Bursa",
      "latitude": 40.197012,
      "longitude": 28.8056723,
      "dutyStart": "2026-02-25T18:30:00.000Z",
      "dutyEnd": "2026-02-26T08:30:00.000Z"
    },
    {
      "id": "bursa-4",
      "name": "ALTINŞEHİR ECZANESİ",
      "address": "ALTINŞEHİR MAH. ABDİ İPEKÇİ CAD. NO:16/A,  (AGC PREMIUM APT. / A-101 MARKET YANI) ,  0224 413 74 88",
      "phone": "02244137488",
      "district": "NİLÜFER",
      "city": "Bursa",
      "latitude": 40.22342604047284,
      "longitude": 28.921831333426628,
      "dutyStart": "2026-02-25T18:30:00.000Z",
      "dutyEnd": "2026-02-26T08:30:00.000Z"
    },
    {
      "id": "bursa-5",
      "name": "ANKA ECZANESİ",
      "address": "İHSANİYE MAH. KANUNİ CAD. NO:40/B,  (SETBAŞI FIRINI KARŞI CADDESİ) ,  0224 245 43 40 / 5342024340",
      "phone": "02242454340",
      "district": "NİLÜFER",
      "city": "Bursa",
      "latitude": 40.2220844,
      "longitude": 28.9830426,
      "dutyStart": "2026-02-25T18:30:00.000Z",
      "dutyEnd": "2026-02-26T08:30:00.000Z"
    },
    {
      "id": "bursa-6",
      "name": "BERNA ECZANESİ",
      "address": "ULU MAH. ULUBATLI HASAN BULVARI NO:46/F,  (ÖZEL ARİTMİ OSMANGAZİ HASTANESİ YANI - KENT MEYDANI) ,  0224 232 32 04",
      "phone": "02242323204",
      "district": "OSMANGAZİ",
      "city": "Bursa",
      "latitude": 40.19649294174806,
      "longitude": 29.06369000592281,
      "dutyStart": "2026-02-25T18:30:00.000Z",
      "dutyEnd": "2026-02-26T08:30:00.000Z"
    },
    {
      "id": "bursa-7",
      "name": "GEÇİT ECZANESİ",
      "address": "GEÇİT MAH. SANAYİ CAD. (MUDANYA YOLU) NO:816,  (26 NOLU GEÇİT ASM KARŞISI) ,  0224 244 61 26",
      "phone": "02242446126",
      "district": "OSMANGAZİ",
      "city": "Bursa",
      "latitude": 40.27332932,
      "longitude": 28.9432025,
      "dutyStart": "2026-02-25T18:30:00.000Z",
      "dutyEnd": "2026-02-26T08:30:00.000Z"
    },
    {
      "id": "bursa-8",
      "name": "CAN ECZANESİ",
      "address": "DİKKALDIRIM MAH. DİKKALDIRIM CAD. NO:124,  (MİHRAPLI CAMİİ KARŞISI) ,  0224-2399932",
      "phone": "02242399932",
      "district": "OSMANGAZİ",
      "city": "Bursa",
      "latitude": 40.20328836,
      "longitude": 29.00559604,
      "dutyStart": "2026-02-25T18:30:00.000Z",
      "dutyEnd": "2026-02-26T08:30:00.000Z"
    },
    {
      "id": "bursa-9",
      "name": "ALADAĞ ECZANESİ",
      "address": "HÜRRİYET MAH. 1.HÜRRİYET CAD. NO:63/A,  (HÜRRİYET TAKSİ DURAĞI KARŞISI) ,  0224 246 43 41",
      "phone": "02242464341",
      "district": "OSMANGAZİ",
      "city": "Bursa",
      "latitude": 40.22067,
      "longitude": 29.00545420000003,
      "dutyStart": "2026-02-25T18:30:00.000Z",
      "dutyEnd": "2026-02-26T08:30:00.000Z"
    },
    {
      "id": "bursa-10",
      "name": "USLAN ECZANESİ",
      "address": "YUNUSELİ MAH. 2.KARANFİL CAD. NO:28/A,  (AKYILDIZ SAĞLIK OCAĞI YANI) ,  0224 303 00 04",
      "phone": "02243030004",
      "district": "OSMANGAZİ",
      "city": "Bursa",
      "latitude": 40.26259,
      "longitude": 29.01322,
      "dutyStart": "2026-02-25T18:30:00.000Z",
      "dutyEnd": "2026-02-26T08:30:00.000Z"
    },
    {
      "id": "bursa-11",
      "name": "YENİ ZAFER ECZANESİ",
      "address": "NAMIK KEMAL MAH. NAMIK KEMAL CAD. NO:105,  (ZAFER DOLMUŞ DURAĞI KARŞISI) ,  0224 255 75 70",
      "phone": "02242557570",
      "district": "OSMANGAZİ",
      "city": "Bursa",
      "latitude": 40.19587894773291,
      "longitude": 29.080939243908944,
      "dutyStart": "2026-02-25T18:30:00.000Z",
      "dutyEnd": "2026-02-26T08:30:00.000Z"
    },
    {
      "id": "bursa-12",
      "name": "EZGİ ECZANESİ",
      "address": "YUNUS EMRE MAH. 1.KIZILIRMAK SOK. NO:88/A,  (MİLLET ASM KARŞISI - DARÜSSELAM CAMİ ÇAPRAZI) ,  0224 351 11 41",
      "phone": "02243511141",
      "district": "YILDIRIM",
      "city": "Bursa",
      "latitude": 40.210606,
      "longitude": 29.101828,
      "dutyStart": "2026-02-25T18:30:00.000Z",
      "dutyEnd": "2026-02-26T08:30:00.000Z"
    },
    {
      "id": "bursa-13",
      "name": "RUMELİ ECZANESİ",
      "address": "MİMAR SİNAN MAH. EMNİYET CAD. NO:26/A,  (ŞEVKET YILMAZ HASTANESİ - POLİS OKULU ALTI) ,  0224 367 51 00 / 0531 566 51 50",
      "phone": "02243675100",
      "district": "YILDIRIM",
      "city": "Bursa",
      "latitude": 40.18845516,
      "longitude": 29.12732273,
      "dutyStart": "2026-02-25T18:30:00.000Z",
      "dutyEnd": "2026-02-26T08:30:00.000Z"
    },
    {
      "id": "bursa-14",
      "name": "UMURBEY ECZANESİ",
      "address": "UMURBEY MAH. EFE SOK. GÜL SİTESİ E-BLOK NO:2/13,  (SETBAŞI TOFAŞ ANADOLU ARABALARI MÜZESİ KARŞI ARALIĞI) ,  0224 326 37 24",
      "phone": "02243263724",
      "district": "YILDIRIM",
      "city": "Bursa",
      "latitude": 40.17666823,
      "longitude": 29.070189,
      "dutyStart": "2026-02-25T18:30:00.000Z",
      "dutyEnd": "2026-02-26T08:30:00.000Z"
    },
    {
      "id": "bursa-15",
      "name": "YENİ ORHAN ECZANESİ",
      "address": "ORHAN MAH. DR.İBRAHİM ÖKTEM CAD. NO:35 ,  0506 226 03 44 ,  Eczaneyi haritada görüntülemek için tıklayınız...",
      "phone": "05062260344",
      "district": "BÜYÜKORHAN",
      "city": "Bursa",
      "latitude": 39.775043,
      "longitude": 28.881995,
      "dutyStart": "2026-02-25T19:00:00.000Z",
      "dutyEnd": "2026-02-26T08:30:00.000Z"
    },
    {
      "id": "bursa-16",
      "name": "ZEYNEP ÖZDEMİR ECZANESİ",
      "address": "DR.ZİYA KAYA MAH. HÜRRİYET CAD. DEDE KORKUT SOK. NO:26/A ,  0224 512 19 95 ,  Eczaneyi haritada görüntülemek için tıklayınız...",
      "phone": "02245121995",
      "district": "GEMLİK",
      "city": "Bursa",
      "latitude": 40.426023751931325,
      "longitude": 29.161636233329773,
      "dutyStart": "2026-02-25T18:30:00.000Z",
      "dutyEnd": "2026-02-26T00:00:00.000Z"
    },
    {
      "id": "bursa-17",
      "name": "BURAK ECZANESİ",
      "address": "EŞREF DİNÇER MAH. KUVAYİ MİLLİYE BULVARI NO:255/B ,  0224 504 51 86 ,  Eczaneyi haritada görüntülemek için tıklayınız...",
      "phone": "02245045186",
      "district": "GEMLİK",
      "city": "Bursa",
      "latitude": 40.430732699690786,
      "longitude": 29.17758512367669,
      "dutyStart": "2026-02-25T18:30:00.000Z",
      "dutyEnd": "2026-02-26T08:30:00.000Z"
    },
    {
      "id": "bursa-18",
      "name": "KÖSE ECZANESİ",
      "address": "ZAFER MAH. BARBAROS SOK. NO:13/A ,  0224-3719119 ,  Eczaneyi haritada görüntülemek için tıklayınız...",
      "phone": "02243719119",
      "district": "GÜRSU",
      "city": "Bursa",
      "latitude": 40.21948235499387,
      "longitude": 29.190829396247864,
      "dutyStart": "2026-02-25T18:30:00.000Z",
      "dutyEnd": "2026-02-26T09:00:00.000Z"
    },
    {
      "id": "bursa-19",
      "name": "DERMAN ECZANESİ",
      "address": "MERKEZ MAH. FEVZİ PAŞA CAD. NO:11/1 ,  0224-8812295 ,  Eczaneyi haritada görüntülemek için tıklayınız...",
      "phone": "02248812295",
      "district": "HARMANCIK",
      "city": "Bursa",
      "latitude": 39.679107,
      "longitude": 29.155259,
      "dutyStart": "2026-02-25T18:00:00.000Z",
      "dutyEnd": "2026-02-26T08:30:00.000Z"
    },
    {
      "id": "bursa-20",
      "name": "SILA ECZANESİ",
      "address": "TURGUT ALP MAH. MAHMUT ESAT BEY CAD. NO:128/C ,  0224 715 84 57 ,  Eczaneyi haritada görüntülemek için tıklayınız...",
      "phone": "02247158457",
      "district": "İNEGÖL",
      "city": "Bursa",
      "latitude": 40.07737,
      "longitude": 29.50202,
      "dutyStart": "2026-02-25T18:00:00.000Z",
      "dutyEnd": "2026-02-26T08:30:00.000Z"
    },
    {
      "id": "bursa-21",
      "name": "ÖMER ECZANESİ",
      "address": "MESUDİYE MAH. TEMİZ SOK. NO:13/A ,  0224 715 00 16 ,  Eczaneyi haritada görüntülemek için tıklayınız...",
      "phone": "02247150016",
      "district": "İNEGÖL",
      "city": "Bursa",
      "latitude": 40.081787,
      "longitude": 29.533116,
      "dutyStart": "2026-02-25T18:00:00.000Z",
      "dutyEnd": "2026-02-26T01:00:00.000Z"
    },
    {
      "id": "bursa-22",
      "name": "GÜVEN ECZANESİ",
      "address": "CUMA MAH. ATATÜRK BULVARI NO:39/A,  (ESKİ BELEDİYE EK HİZMET BİNASI - İNEGÖL KENT KONSEYİ YANI) ,  0224 715 13 74",
      "phone": "02247151374",
      "district": "İNEGÖL",
      "city": "Bursa",
      "latitude": 40.07716,
      "longitude": 29.50972,
      "dutyStart": "2026-02-25T18:00:00.000Z",
      "dutyEnd": "2026-02-26T01:00:00.000Z"
    },
    {
      "id": "bursa-23",
      "name": "YENİ POYRAZ ECZANESİ",
      "address": "MUSTAFAKEMALPAŞA MAH. ORHANGAZİ CAD. NO:23 ,  0224-7577272 ,  Eczaneyi haritada görüntülemek için tıklayınız...",
      "phone": "02247577272",
      "district": "İZNİK",
      "city": "Bursa",
      "latitude": 40.435766,
      "longitude": 29.720049000000017,
      "dutyStart": "2026-02-25T18:00:00.000Z",
      "dutyEnd": "2026-02-26T08:30:00.000Z"
    },
    {
      "id": "bursa-24",
      "name": "DERMAN ECZANESİ",
      "address": "TAVŞANLI MAH. BURSA CAD. NO:13 ,  0224 676 15 73 ,  Eczaneyi haritada görüntülemek için tıklayınız...",
      "phone": "02246761573",
      "district": "KARACABEY",
      "city": "Bursa",
      "latitude": 40.21519858365441,
      "longitude": 28.35878751099762,
      "dutyStart": "2026-02-25T18:00:00.000Z",
      "dutyEnd": "2026-02-26T08:30:00.000Z"
    },
    {
      "id": "bursa-25",
      "name": "ÇINAR ECZANESİ",
      "address": "CUMA MAH. TAHİR HOCA CAD. NO:1 ,  0224 861 30 72 ,  Eczaneyi haritada görüntülemek için tıklayınız...",
      "phone": "02248613072",
      "district": "KELES",
      "city": "Bursa",
      "latitude": 39.9132,
      "longitude": 29.2329,
      "dutyStart": "2026-02-25T18:00:00.000Z",
      "dutyEnd": "2026-02-26T08:30:00.000Z"
    },
    {
      "id": "bursa-26",
      "name": "ŞULE ECZANESİ",
      "address": "AHMET VEFİK PAŞA MAH. BURSA CAD. NO:45/2A ,  0224 504 11 60 ,  Eczaneyi haritada görüntülemek için tıklayınız...",
      "phone": "02245041160",
      "district": "KESTEL",
      "city": "Bursa",
      "latitude": 40.1985046,
      "longitude": 29.2081236,
      "dutyStart": "2026-02-25T18:00:00.000Z",
      "dutyEnd": "2026-02-26T08:30:00.000Z"
    },
    {
      "id": "bursa-27",
      "name": "LİVANE ECZANESİ",
      "address": "GÜZELYALI EĞİTİM MAH. LİSE CAD. NO:10/B ,  0224 554 16 06 ,  Eczaneyi haritada görüntülemek için tıklayınız...",
      "phone": "02245541606",
      "district": "MUDANYA",
      "city": "Bursa",
      "latitude": 40.352936,
      "longitude": 28.927675,
      "dutyStart": "2026-02-25T18:00:00.000Z",
      "dutyEnd": "2026-02-26T08:30:00.000Z"
    },
    {
      "id": "bursa-28",
      "name": "ARIMAN ECZANESİ",
      "address": "ÖMERBEY MAH. DENİZ CAD. AKARSU-2 SİTESİ D-BLOK NO:31/A/1 ,  0224 544 17 93 ,  Eczaneyi haritada görüntülemek için tıklayınız...",
      "phone": "02245441793",
      "district": "MUDANYA",
      "city": "Bursa",
      "latitude": 40.36980956756527,
      "longitude": 28.891060255740598,
      "dutyStart": "2026-02-25T18:00:00.000Z",
      "dutyEnd": "2026-02-26T08:30:00.000Z"
    },
    {
      "id": "bursa-29",
      "name": "HİLAL ECZANESİ",
      "address": "HAMİDİYE MAH. 17 NOLU SOK. NO:23 ,  0224-6121266 ,  Eczaneyi haritada görüntülemek için tıklayınız...",
      "phone": "02246121266",
      "district": "MUSTAFAKEMALPAŞA",
      "city": "Bursa",
      "latitude": 40.030045,
      "longitude": 28.395420999999942,
      "dutyStart": "2026-02-25T18:00:00.000Z",
      "dutyEnd": "2026-02-26T08:30:00.000Z"
    },
    {
      "id": "bursa-30",
      "name": "YENİ OĞUZ ECZANESİ",
      "address": "İSMET PAŞA MAH. HASTANE SOK. NO:10/A ,  0224-8171308 ,  Eczaneyi haritada görüntülemek için tıklayınız...",
      "phone": "02248171308",
      "district": "ORHANELİ",
      "city": "Bursa",
      "latitude": 39.902116,
      "longitude": 28.988188000000036,
      "dutyStart": "2026-02-25T18:00:00.000Z",
      "dutyEnd": "2026-02-26T08:30:00.000Z"
    },
    {
      "id": "bursa-31",
      "name": "EMİR ECZANESİ",
      "address": "MURADİYE MAH. TURİST YOLU ALTI SOK. NO:102 ,  0224-5750005 ,  Eczaneyi haritada görüntülemek için tıklayınız...",
      "phone": "02245750005",
      "district": "ORHANGAZİ",
      "city": "Bursa",
      "latitude": 40.492218,
      "longitude": 29.311735,
      "dutyStart": "2026-02-25T18:00:00.000Z",
      "dutyEnd": "2026-02-26T08:30:00.000Z"
    },
    {
      "id": "bursa-32",
      "name": "DEMİRTAŞ SAĞLIK ECZANESİ",
      "address": "DEMİRTAŞ DUMLUPINAR MAH. 47.CAD. NO:70,  (DOSAB SEMT POLİKLİNİĞİ YANI) ,  0224 329 95 96",
      "phone": "02243299596",
      "district": "OSMANGAZİ",
      "city": "Bursa",
      "latitude": 40.27040489217964,
      "longitude": 29.080067574977875,
      "dutyStart": "2026-02-25T18:30:00.000Z",
      "dutyEnd": "2026-02-26T08:30:00.000Z"
    },
    {
      "id": "bursa-33",
      "name": "YASEMİN ECZANESİ",
      "address": "YENİGÜN MAH. GÜL SOK. NO:1 ,  0224 772 26 06 ,  Eczaneyi haritada görüntülemek için tıklayınız...",
      "phone": "02247722606",
      "district": "YENİŞEHİR",
      "city": "Bursa",
      "latitude": 40.268341,
      "longitude": 29.652052000000026,
      "dutyStart": "2026-02-25T18:00:00.000Z",
      "dutyEnd": "2026-02-26T08:00:00.000Z"
    }
  ]
}