{
  "city": "bursa",
  "cityName": "Bursa",
  "cityId": 16,
  "date": "2026-02-24",
  "updatedAt": "2026-02-24T16:30:59.813Z",
  "count": 37,
  "pharmacies": [
    {
      "id": "bursa-0",
      "name": "ÇALIŞKAN ECZANESİ",
      "address": "KURTULUŞ MAH. 4(510).SOK. D-BLOK NO:15,  (RUH SAĞLIĞI VE HASTALIKLARI HASTANESİ ARKASI) ,  0224 503 01 64",
      "phone": "02245030164",
      "district": "NİLÜFER",
      "city": "Bursa",
      "latitude": 40.21741211633127,
      "longitude": 28.824696286291424,
      "dutyStart": "2026-02-24T18:30:00.000Z",
      "dutyEnd": "2026-02-25T08:30:00.000Z"
    },
    {
      "id": "bursa-1",
      "name": "BEYZA ALTAY ECZANESİ",
      "address": "ERTUĞRUL MAH. DOĞAN AVCIOĞLU CAD. NO:22AA,  (DÖRTÇELİK ÇOCUK HASTANESİ İLERİSİ - ÖZLÜCE BULVARI) ,  0532 747 94 20",
      "phone": "05327479420",
      "district": "NİLÜFER",
      "city": "Bursa",
      "latitude": 40.2188,
      "longitude": 28.91534,
      "dutyStart": "2026-02-24T18:30:00.000Z",
      "dutyEnd": "2026-02-25T08:30:00.000Z"
    },
    {
      "id": "bursa-2",
      "name": "POLEN ECZANESİ",
      "address": "ATAEVLER MAH. ATA(230)SOK. NO:8B/B,  (ATA BULVARI MAKBUL KURUYEMİŞ YANI) ,  0224 453 17 44 / 0530 883 44 17",
      "phone": "02244531744",
      "district": "NİLÜFER",
      "city": "Bursa",
      "latitude": 40.21847417235819,
      "longitude": 28.953053871771797,
      "dutyStart": "2026-02-24T18:30:00.000Z",
      "dutyEnd": "2026-02-25T08:30:00.000Z"
    },
    {
      "id": "bursa-3",
      "name": "GRAMOFON ECZANESİ",
      "address": "KARAMAN MAH. KONUK SOK. NO:3/A ,  (DORUK KENT SİTESİ B-BLOK - NİLPARK MEDIAMARKT YANI) ,  0224 453 08 00 / 0530 845 89 89",
      "phone": "02244530800",
      "district": "NİLÜFER",
      "city": "Bursa",
      "latitude": 40.213251000699,
      "longitude": 28.99426114448657,
      "dutyStart": "2026-02-24T18:30:00.000Z",
      "dutyEnd": "2026-02-25T08:30:00.000Z"
    },
    {
      "id": "bursa-4",
      "name": "KARACA ECZANESİ",
      "address": "BALAT MAH. AHİ EVREN CAD. NO:23/AA ,  0224 999 33 26 ,  Eczaneyi haritada görüntülemek için tıklayınız...",
      "phone": "02249993326",
      "district": "NİLÜFER",
      "city": "Bursa",
      "latitude": 40.2578171711493,
      "longitude": 28.933343644758306,
      "dutyStart": "2026-02-24T18:30:00.000Z",
      "dutyEnd": "2026-02-25T08:30:00.000Z"
    },
    {
      "id": "bursa-5",
      "name": "BİRAY ECZANESİ",
      "address": "ÇAMLICA MAH. KAVAKDERE CAD. NO:156/A,  (ÇAMLICA PAZAR YERİ KARŞISI) ,  0224 451 06 25 / 0506 947 76 16",
      "phone": "02244510625",
      "district": "NİLÜFER",
      "city": "Bursa",
      "latitude": 40.19454044,
      "longitude": 28.98417592,
      "dutyStart": "2026-02-24T18:30:00.000Z",
      "dutyEnd": "2026-02-25T08:30:00.000Z"
    },
    {
      "id": "bursa-6",
      "name": "ANADOLU BURCU ECZANESİ",
      "address": "BEŞEVLER MAH. ACAR SOK. NO:11/B,  (ANADOLU HASTANESİ ACİL ÇIKIŞ KARŞISI) ,  0224 453 58 90",
      "phone": "02244535890",
      "district": "NİLÜFER",
      "city": "Bursa",
      "latitude": 40.21050916,
      "longitude": 28.97557944,
      "dutyStart": "2026-02-24T18:30:00.000Z",
      "dutyEnd": "2026-02-25T08:30:00.000Z"
    },
    {
      "id": "bursa-7",
      "name": "ALPAY ECZANESİ",
      "address": "ÇIRPAN MAH. DARMSTAD CAD. NO:41/A,  (ÇARŞAMBA CİCİM PASTANESİ ÇAPRAZI) ,  0224 251 22 16",
      "phone": "02242512216",
      "district": "OSMANGAZİ",
      "city": "Bursa",
      "latitude": 40.19474,
      "longitude": 29.05413,
      "dutyStart": "2026-02-24T18:30:00.000Z",
      "dutyEnd": "2026-02-25T08:30:00.000Z"
    },
    {
      "id": "bursa-8",
      "name": "TORUNLAR ECZANESİ",
      "address": "HÜDAVENDİGAR MAH. BENT CAD. NO:3,  (MİHRAPLI CAMİ KARŞISI) ,  0224 239 30 00",
      "phone": "02242393000",
      "district": "OSMANGAZİ",
      "city": "Bursa",
      "latitude": 0,
      "longitude": 0,
      "dutyStart": "2026-02-24T18:30:00.000Z",
      "dutyEnd": "2026-02-25T08:30:00.000Z"
    },
    {
      "id": "bursa-9",
      "name": "İKİ KAPILI ECZANESİ",
      "address": "ALTINOVA MAH. İSTANBUL CAD. NO:410/D SKYTOWER,  (YALOVA YOLU ÖZDİLEK - HİLTON OTEL KARŞISI) ,  0224 504 74 34",
      "phone": "02245047434",
      "district": "OSMANGAZİ",
      "city": "Bursa",
      "latitude": 40.226847,
      "longitude": 29.062963,
      "dutyStart": "2026-02-24T18:30:00.000Z",
      "dutyEnd": "2026-02-25T08:30:00.000Z"
    },
    {
      "id": "bursa-10",
      "name": "ÖMÜR SAĞLIK ECZANESİ",
      "address": "BAĞLARBAŞI MAH. 1.ERİM SOK. NO:11/A,  (BAĞLARBAŞI 23 NOLU ASM KARŞISI) ,  0224 249 99 87 / 2242499986",
      "phone": "02242499987",
      "district": "OSMANGAZİ",
      "city": "Bursa",
      "latitude": 40.232235,
      "longitude": 28.990059,
      "dutyStart": "2026-02-24T18:30:00.000Z",
      "dutyEnd": "2026-02-25T08:30:00.000Z"
    },
    {
      "id": "bursa-11",
      "name": "BAĞ ECZANESİ",
      "address": "YENİBAĞLAR MAH. YAKUT SOK. NO:35/A,  (YENİBAĞLAR 32 NOLU AİLE SAĞLIĞI MERKEZİ KARŞISI) ,  0224 241 99 00",
      "phone": "02242419900",
      "district": "OSMANGAZİ",
      "city": "Bursa",
      "latitude": 40.2560797,
      "longitude": 28.97276044,
      "dutyStart": "2026-02-24T18:30:00.000Z",
      "dutyEnd": "2026-02-25T08:30:00.000Z"
    },
    {
      "id": "bursa-12",
      "name": "MAKSEM SAĞLIK ECZANESİ",
      "address": "MAKSEM MAH. MAKSEM CAD. 8.MURAT SOK. NO:1/2C ,  (HEYKEL PTT YOKUŞU) ,  0224 224 31 41 / 0554 958 01 01",
      "phone": "02242243141",
      "district": "OSMANGAZİ",
      "city": "Bursa",
      "latitude": 40.178074086615574,
      "longitude": 29.061514736364643,
      "dutyStart": "2026-02-24T18:30:00.000Z",
      "dutyEnd": "2026-02-25T08:30:00.000Z"
    },
    {
      "id": "bursa-13",
      "name": "BATI TRAKYA ECZANESİ",
      "address": "YİĞİTLER MAH. TÜRKMENBAŞI CAD. NO:123/B,  (YİĞİTLER TOKİ KARŞISI) ,  0224 342 02 98",
      "phone": "02243420298",
      "district": "YILDIRIM",
      "city": "Bursa",
      "latitude": 40.18925016993506,
      "longitude": 29.154641032218933,
      "dutyStart": "2026-02-24T18:30:00.000Z",
      "dutyEnd": "2026-02-25T08:30:00.000Z"
    },
    {
      "id": "bursa-14",
      "name": "OKUR ECZANESİ",
      "address": "MİLLET MAH. CENGİZHAN CAD. NO:26/B,  (MİLLET ASM VE MİLLET MAH. MUHTARLIĞI KARŞISI) ,  0224 363 06 03",
      "phone": "02243630603",
      "district": "YILDIRIM",
      "city": "Bursa",
      "latitude": 40.21030284757692,
      "longitude": 29.095373310390745,
      "dutyStart": "2026-02-24T18:30:00.000Z",
      "dutyEnd": "2026-02-25T08:30:00.000Z"
    },
    {
      "id": "bursa-15",
      "name": "MAKİ ECZANESİ",
      "address": "ZÜMRÜTEVLER MAH. KURTBASAN CAD. NO:170/A ,  (AKÇAĞLAYAN TOKİ - SHELL ALTI - ZÜMRÜTEVLER ASM YANI) ,  0224 329 50 01",
      "phone": "02243295001",
      "district": "YILDIRIM",
      "city": "Bursa",
      "latitude": 40.174308,
      "longitude": 29.099737,
      "dutyStart": "2026-02-24T18:30:00.000Z",
      "dutyEnd": "2026-02-25T08:30:00.000Z"
    },
    {
      "id": "bursa-16",
      "name": "FURKAN ECZANESİ",
      "address": "ORTABAĞLAR MAH. ÇELİK SOK. NO:4,  (ESKİ FAKÜLTE KARŞISI - GÖZLÜKÇÜLER ÜSTÜ) ,  0224 366 59 31 / 0224366578",
      "phone": "02243665931",
      "district": "YILDIRIM",
      "city": "Bursa",
      "latitude": 40.19064398223581,
      "longitude": 29.111188906125562,
      "dutyStart": "2026-02-24T18:30:00.000Z",
      "dutyEnd": "2026-02-25T08:30:00.000Z"
    },
    {
      "id": "bursa-17",
      "name": "BÜYÜKORHAN ECZANESİ",
      "address": "ORHAN MAH. DR.İBRAHİM ÖKTEM CAD. NO:13/B ,  0224 841 23 70 ,  Eczaneyi haritada görüntülemek için tıklayınız...",
      "phone": "02248412370",
      "district": "BÜYÜKORHAN",
      "city": "Bursa",
      "latitude": 39.773187817429196,
      "longitude": 28.885376751422882,
      "dutyStart": "2026-02-24T19:00:00.000Z",
      "dutyEnd": "2026-02-25T08:30:00.000Z"
    },
    {
      "id": "bursa-18",
      "name": "GEMLİK SAĞLIK ECZANESİ",
      "address": "DR.ZİYA KAYA MAH. HÜRRİYET CAD. NO:47/32-33 ,  0224 514 66 77 ,  Eczaneyi haritada görüntülemek için tıklayınız...",
      "phone": "02245146677",
      "district": "GEMLİK",
      "city": "Bursa",
      "latitude": 40.4265224,
      "longitude": 29.1616154,
      "dutyStart": "2026-02-24T18:30:00.000Z",
      "dutyEnd": "2026-02-25T00:00:00.000Z"
    },
    {
      "id": "bursa-19",
      "name": "CİHATLI ECZANESİ",
      "address": "CİHATLI MAH. CİHATLI CAD. NO:215/B-A ,  0224 503 88 99 ,  Eczaneyi haritada görüntülemek için tıklayınız...",
      "phone": "02245038899",
      "district": "GEMLİK",
      "city": "Bursa",
      "latitude": 40.432038,
      "longitude": 29.187466,
      "dutyStart": "2026-02-24T18:30:00.000Z",
      "dutyEnd": "2026-02-25T08:30:00.000Z"
    },
    {
      "id": "bursa-20",
      "name": "ZAFER MEYDANI ECZANESİ",
      "address": "ZAFER MAH. ZAFER CAD. NO:20/A ,  0224 371 12 12 ,  Eczaneyi haritada görüntülemek için tıklayınız...",
      "phone": "02243711212",
      "district": "GÜRSU",
      "city": "Bursa",
      "latitude": 40.218877,
      "longitude": 29.191578,
      "dutyStart": "2026-02-24T18:30:00.000Z",
      "dutyEnd": "2026-02-25T09:00:00.000Z"
    },
    {
      "id": "bursa-21",
      "name": "ULAŞ ECZANESİ",
      "address": "MERKEZ MAH. FEVZİ PAŞA CAD. NO:9/A ,  0224-8812272 ,  Eczaneyi haritada görüntülemek için tıklayınız...",
      "phone": "02248812272",
      "district": "HARMANCIK",
      "city": "Bursa",
      "latitude": 39.679027,
      "longitude": 29.154901999999993,
      "dutyStart": "2026-02-24T18:00:00.000Z",
      "dutyEnd": "2026-02-25T08:30:00.000Z"
    },
    {
      "id": "bursa-22",
      "name": "ZÜMRÜT ECZANESİ",
      "address": "YENİ MAH. GÜLFİDAN SOK. NO:3,  (ALANYURT ZÜBEYDE İBRAHİM SÜLEK SAĞLIK OCAĞI KARŞISI) ,  0531 239 44 04",
      "phone": "05312394404",
      "district": "İNEGÖL",
      "city": "Bursa",
      "latitude": 40.10167,
      "longitude": 29.524557,
      "dutyStart": "2026-02-24T18:00:00.000Z",
      "dutyEnd": "2026-02-25T01:00:00.000Z"
    },
    {
      "id": "bursa-23",
      "name": "DÜZENLİ ECZANESİ",
      "address": "CUMA MAH. ATATÜRK BULVARI NO:49 ,  0224 711 48 49 ,  Eczaneyi haritada görüntülemek için tıklayınız...",
      "phone": "02247114849",
      "district": "İNEGÖL",
      "city": "Bursa",
      "latitude": 40.076373,
      "longitude": 29.50992700000006,
      "dutyStart": "2026-02-24T18:00:00.000Z",
      "dutyEnd": "2026-02-25T01:00:00.000Z"
    },
    {
      "id": "bursa-24",
      "name": "ÇİĞDEM ECZANESİ",
      "address": "CUMA MAH. NURİ DOĞRUL CAD. NO:24/A ,  0224 715 34 50 / 0224 711 54 92 ,  Eczaneyi haritada görüntülemek için tıklayınız...",
      "phone": "02247153450",
      "district": "İNEGÖL",
      "city": "Bursa",
      "latitude": 40.079132312354595,
      "longitude": 29.512124149355923,
      "dutyStart": "2026-02-24T18:00:00.000Z",
      "dutyEnd": "2026-02-25T08:30:00.000Z"
    },
    {
      "id": "bursa-25",
      "name": "GÜLŞAH ECZANESİ",
      "address": "BEYLER MAH. ATATÜRK CAD. NO:138/A ,  0224-7576494 ,  Eczaneyi haritada görüntülemek için tıklayınız...",
      "phone": "02247576494",
      "district": "İZNİK",
      "city": "Bursa",
      "latitude": 40.293794,
      "longitude": 28.91977799999995,
      "dutyStart": "2026-02-24T18:00:00.000Z",
      "dutyEnd": "2026-02-25T08:30:00.000Z"
    },
    {
      "id": "bursa-26",
      "name": "ERDEM ECZANESİ",
      "address": "TABAKLAR MAH. BANDIRMA CAD. NO:16/A ,  0224-6763425 ,  Eczaneyi haritada görüntülemek için tıklayınız...",
      "phone": "02246763425",
      "district": "KARACABEY",
      "city": "Bursa",
      "latitude": 40.215385,
      "longitude": 28.357666999999992,
      "dutyStart": "2026-02-24T18:00:00.000Z",
      "dutyEnd": "2026-02-25T08:30:00.000Z"
    },
    {
      "id": "bursa-27",
      "name": "KELES ECZANESİ",
      "address": "CUMA MAH. ATATÜRK CAD. NO:20/A ,  0224 861 23 63 ,  Eczaneyi haritada görüntülemek için tıklayınız...",
      "phone": "02248612363",
      "district": "KELES",
      "city": "Bursa",
      "latitude": 39.913008,
      "longitude": 29.233012,
      "dutyStart": "2026-02-24T18:00:00.000Z",
      "dutyEnd": "2026-02-25T08:30:00.000Z"
    },
    {
      "id": "bursa-28",
      "name": "BAYRAKTAR ECZANESİ",
      "address": "VANİ MEHMET MAH. ŞEHİT MUSTAFA KURT CAD. NO:20/A ,  0224 373 07 77 ,  Eczaneyi haritada görüntülemek için tıklayınız...",
      "phone": "02243730777",
      "district": "KESTEL",
      "city": "Bursa",
      "latitude": 40.196854651443445,
      "longitude": 29.2155674269445,
      "dutyStart": "2026-02-24T18:00:00.000Z",
      "dutyEnd": "2026-02-25T08:30:00.000Z"
    },
    {
      "id": "bursa-29",
      "name": "ÇALI CEREN ECZANESİ",
      "address": "ÇALI MAH. 149. SOKAK NO:4/A,  (İCAP NÖBETÇİDİR) ,  0224 482 28 28",
      "phone": "02244822828",
      "district": "NİLÜFER",
      "city": "Bursa",
      "latitude": 40.17215205635093,
      "longitude": 28.92035437203072,
      "dutyStart": "2026-02-24T18:00:00.000Z",
      "dutyEnd": "2026-02-24T20:00:00.000Z"
    },
    {
      "id": "bursa-30",
      "name": "PAMUKÇU ECZANESİ",
      "address": "GÜZELYALI EĞİTİM MAH. ANAFARTALAR CAD. NO:15/C ,  0224-5543603 ,  Eczaneyi haritada görüntülemek için tıklayınız...",
      "phone": "02245543603",
      "district": "MUDANYA",
      "city": "Bursa",
      "latitude": 40.351445,
      "longitude": 28.928418999999963,
      "dutyStart": "2026-02-24T18:00:00.000Z",
      "dutyEnd": "2026-02-25T08:30:00.000Z"
    },
    {
      "id": "bursa-31",
      "name": "DOĞANÇAY ECZANESİ",
      "address": "MÜTAREKE MAH. MUSTAFAKEMALPAŞA CAD. NO:36 ,  0224 544 59 54 ,  Eczaneyi haritada görüntülemek için tıklayınız...",
      "phone": "02245445954",
      "district": "MUDANYA",
      "city": "Bursa",
      "latitude": 40.378543,
      "longitude": 28.88184000000001,
      "dutyStart": "2026-02-24T18:00:00.000Z",
      "dutyEnd": "2026-02-25T08:30:00.000Z"
    },
    {
      "id": "bursa-32",
      "name": "NERGİS ECZANESİ",
      "address": "ZÜFERBEY MAH. İSMETPAŞA CAD. NO:38/A-B ,  0224-6130809 ,  Eczaneyi haritada görüntülemek için tıklayınız...",
      "phone": "02246130809",
      "district": "MUSTAFAKEMALPAŞA",
      "city": "Bursa",
      "latitude": 40.036276,
      "longitude": 28.410763999999972,
      "dutyStart": "2026-02-24T18:00:00.000Z",
      "dutyEnd": "2026-02-25T08:30:00.000Z"
    },
    {
      "id": "bursa-33",
      "name": "YALÇIN ECZANESİ",
      "address": "İSMETPAŞA MAH. CAMİ KARŞISI SOK. NO:3 ,  0224-8171286 / 0224-8171286 ,  Eczaneyi haritada görüntülemek için tıklayınız...",
      "phone": "02248171286",
      "district": "ORHANELİ",
      "city": "Bursa",
      "latitude": 39.902445,
      "longitude": 28.988786000000005,
      "dutyStart": "2026-02-24T18:00:00.000Z",
      "dutyEnd": "2026-02-25T08:30:00.000Z"
    },
    {
      "id": "bursa-34",
      "name": "BAŞER ECZANESİ",
      "address": "HÜRRİYET MAH. DOLMACI 1 NOLU SOK. NO:2,  (MEZARLIK YANI) ,  0224 573 72 32",
      "phone": "02245737232",
      "district": "ORHANGAZİ",
      "city": "Bursa",
      "latitude": 40.485351,
      "longitude": 29.305031999999983,
      "dutyStart": "2026-02-24T18:00:00.000Z",
      "dutyEnd": "2026-02-25T08:30:00.000Z"
    },
    {
      "id": "bursa-35",
      "name": "ŞEMA ECZANESİ",
      "address": "DEMİRTAŞ CUMHURİYET MAH. SAĞLIK SOK. NO:16/D,  (DEMİRTAŞ AİLE SAĞLIĞI MERKEZİ KARŞISI) ,  0535 647 18 18",
      "phone": "05356471818",
      "district": "OSMANGAZİ",
      "city": "Bursa",
      "latitude": 40.2703414496675,
      "longitude": 29.093968123197556,
      "dutyStart": "2026-02-24T18:30:00.000Z",
      "dutyEnd": "2026-02-25T08:30:00.000Z"
    },
    {
      "id": "bursa-36",
      "name": "SEVDİCAN ECZANESİ",
      "address": "HIDIRBALİ MAH. ALİCAN CAD. NO:12/A ,  0224 773 03 03 ,  Eczaneyi haritada görüntülemek için tıklayınız...",
      "phone": "02247730303",
      "district": "YENİŞEHİR",
      "city": "Bursa",
      "latitude": 40.264521,
      "longitude": 29.64954,
      "dutyStart": "2026-02-24T18:00:00.000Z",
      "dutyEnd": "2026-02-25T08:00:00.000Z"
    }
  ]
}