{
  "city": "bursa",
  "cityName": "Bursa",
  "cityId": 16,
  "date": "2026-03-07",
  "updatedAt": "2026-03-07T13:30:15.482Z",
  "count": 36,
  "pharmacies": [
    {
      "id": "bursa-0",
      "name": "SERAPARK ECZANESİ",
      "address": "ALAADDİNBEY MAH. İZMİR YOLU CAD. NO:307/11,  (ÖZDİLEK PARK AVM) ,  0224 224 62 66",
      "phone": "02242246266",
      "district": "NİLÜFER",
      "city": "Bursa",
      "latitude": 40.21285651879199,
      "longitude": 28.918480575084686,
      "dutyStart": "2026-03-07T17:00:00.000Z",
      "dutyEnd": "2026-03-08T08:30:00.000Z"
    },
    {
      "id": "bursa-1",
      "name": "KÜLTÜR ECZANESİ",
      "address": "KÜLTÜR MAH. GÜMÜŞDERE CAD. NO:22/A,  (23 NOLU KÜLTÜR ASM ARKASI) ,  0224 504 55 99",
      "phone": "02245045599",
      "district": "NİLÜFER",
      "city": "Bursa",
      "latitude": 40.20175,
      "longitude": 28.960347,
      "dutyStart": "2026-03-07T17:00:00.000Z",
      "dutyEnd": "2026-03-08T08:30:00.000Z"
    },
    {
      "id": "bursa-2",
      "name": "DAMLA ECZANESİ",
      "address": "ODUNLUK MAH. 345.İSİMSİZ SOK. NO:3/A,  (BEŞEVLER ÖZEL JİMER HASTANESİ YANI) ,  0224 223 86 87",
      "phone": "02242238687",
      "district": "NİLÜFER",
      "city": "Bursa",
      "latitude": 40.20635,
      "longitude": 28.992946,
      "dutyStart": "2026-03-07T17:00:00.000Z",
      "dutyEnd": "2026-03-08T08:30:00.000Z"
    },
    {
      "id": "bursa-3",
      "name": "UTKU ECZANESİ",
      "address": "KIZILCIKLI MAH. TURAÇ SOK. NO:15/D-L,  (FURPA MARKET KARŞISI - KIZILCIKLI SAĞLIK OCAĞI YANI) ,  0224 470 08 08",
      "phone": "02244700808",
      "district": "NİLÜFER",
      "city": "Bursa",
      "latitude": 40.1969295,
      "longitude": 28.8055267,
      "dutyStart": "2026-03-07T17:00:00.000Z",
      "dutyEnd": "2026-03-08T08:30:00.000Z"
    },
    {
      "id": "bursa-4",
      "name": "FERZAN ECZANESİ",
      "address": "BARIŞ MAH. LOZAN SOK. FSM BULVARI NO:21/15,  (ACIBADEM HASTANESİ ANA GİRİŞ KAPISI YANI) ,  0224 452 99 66",
      "phone": "02244529966",
      "district": "NİLÜFER",
      "city": "Bursa",
      "latitude": 40.21339521,
      "longitude": 28.9763546,
      "dutyStart": "2026-03-07T17:00:00.000Z",
      "dutyEnd": "2026-03-08T08:30:00.000Z"
    },
    {
      "id": "bursa-5",
      "name": "FETHİYE EZGİ ECZANESİ",
      "address": "FETHİYE MAH. ULU CAD. NO:11,  (FETHİYE MEYDANI - İSTANBUL SİMİT YANI) ,  0224 242 13 74",
      "phone": "02242421374",
      "district": "NİLÜFER",
      "city": "Bursa",
      "latitude": 40.2320763,
      "longitude": 28.973883,
      "dutyStart": "2026-03-07T17:00:00.000Z",
      "dutyEnd": "2026-03-08T08:30:00.000Z"
    },
    {
      "id": "bursa-6",
      "name": "TURAN ECZANESİ",
      "address": "EMEK ZEKAİ GÜMÜŞDİŞ MAH. SANAYİ CAD. NO:612/A,  (ÖZEL CEYLAN HASTANESİ YANI) ,  0224 253 10 11",
      "phone": "02242531011",
      "district": "OSMANGAZİ",
      "city": "Bursa",
      "latitude": 40.256469,
      "longitude": 28.953291,
      "dutyStart": "2026-03-07T17:00:00.000Z",
      "dutyEnd": "2026-03-08T08:30:00.000Z"
    },
    {
      "id": "bursa-7",
      "name": "GÜLSOY ECZANESİ",
      "address": "SOĞANLI MAH. 3.MELTEM SOK. NO:4/B ,  (SOĞANLI MEZARLIĞI KARŞISI) ,  0224 502 77 40",
      "phone": "02245027740",
      "district": "OSMANGAZİ",
      "city": "Bursa",
      "latitude": 40.21394010806456,
      "longitude": 29.043026381623463,
      "dutyStart": "2026-03-07T17:00:00.000Z",
      "dutyEnd": "2026-03-08T08:30:00.000Z"
    },
    {
      "id": "bursa-8",
      "name": "BİRSEL ECZANESİ",
      "address": "KOĞUKÇINAR MAH. GÜZEL SOK. NO:38/A,  (ÇINAR LİSESİ ALTI-BAHAR ASM KARŞISI) ,  0224 273 08 45 / 0224 273 08 46",
      "phone": "02242730845",
      "district": "OSMANGAZİ",
      "city": "Bursa",
      "latitude": 40.203192852147744,
      "longitude": 29.067323057969247,
      "dutyStart": "2026-03-07T17:00:00.000Z",
      "dutyEnd": "2026-03-08T08:30:00.000Z"
    },
    {
      "id": "bursa-9",
      "name": "HÜRRİYET ECZANESİ",
      "address": "İSTİKLAL MAH. EDİRNE SOK. N0:21 HÜRRİYET,  (B.D.H. HÜRRİYET POLİKLİNİĞİ KARŞISI) ,  0224 247 87 99 / 0224 247 87 00",
      "phone": "02242478799",
      "district": "OSMANGAZİ",
      "city": "Bursa",
      "latitude": 40.22089244,
      "longitude": 29.00769487,
      "dutyStart": "2026-03-07T17:00:00.000Z",
      "dutyEnd": "2026-03-08T08:30:00.000Z"
    },
    {
      "id": "bursa-10",
      "name": "BULVAR ECZANESİ",
      "address": "AKTARHÜSSAM MAH. 1.DEĞİRMEN SOK. NO:6/A,  (GÖKTAŞ GÜNDOĞDU İŞ HANI - FOMARA KERVANSARAY OTELİ ARKASI) ,  0224 224 42 77",
      "phone": "02242244277",
      "district": "OSMANGAZİ",
      "city": "Bursa",
      "latitude": 40.189254,
      "longitude": 29.060067,
      "dutyStart": "2026-03-07T17:00:00.000Z",
      "dutyEnd": "2026-03-08T08:30:00.000Z"
    },
    {
      "id": "bursa-11",
      "name": "YÜKSEL ECZANESİ",
      "address": "KÜKÜRTLÜ MAH. KÜKÜRTLÜ CAD. NO:14/B ,  0224-2365254 ,  Eczaneyi haritada görüntülemek için tıklayınız...",
      "phone": "02242365254",
      "district": "OSMANGAZİ",
      "city": "Bursa",
      "latitude": 40.20638367,
      "longitude": 29.02203798,
      "dutyStart": "2026-03-07T17:00:00.000Z",
      "dutyEnd": "2026-03-08T08:30:00.000Z"
    },
    {
      "id": "bursa-12",
      "name": "EKREM ECZANESİ",
      "address": "SELİMZADE MAH. (YENİ) BEYAZIT CAD. NO:37/1-B ,  0224 362 22 62 / 5532291610 ,  Eczaneyi haritada görüntülemek için tıklayınız...",
      "phone": "02243622262",
      "district": "YILDIRIM",
      "city": "Bursa",
      "latitude": 40.18569304,
      "longitude": 29.08170068,
      "dutyStart": "2026-03-07T17:00:00.000Z",
      "dutyEnd": "2026-03-08T08:30:00.000Z"
    },
    {
      "id": "bursa-13",
      "name": "İKSİR ECZANESİ",
      "address": "ESENEVLER MAH. EDEBALİ SOK. NO:58,  (ESENEVLER ASM VE MUHTARLIK KARŞISI) ,  0224 342 00 00",
      "phone": "02243420000",
      "district": "YILDIRIM",
      "city": "Bursa",
      "latitude": 40.19024187,
      "longitude": 29.14662123,
      "dutyStart": "2026-03-07T17:00:00.000Z",
      "dutyEnd": "2026-03-08T08:30:00.000Z"
    },
    {
      "id": "bursa-14",
      "name": "MİLLET IŞIK ECZANESİ",
      "address": "MİLLET MAH. DERYA CAD. NO:142/A,  (ÇEVRE YOLU ALTI VİLLA) ,  0224-3512526",
      "phone": "02243512526",
      "district": "YILDIRIM",
      "city": "Bursa",
      "latitude": 40.22107706693134,
      "longitude": 29.10165366268916,
      "dutyStart": "2026-03-07T17:00:00.000Z",
      "dutyEnd": "2026-03-08T08:30:00.000Z"
    },
    {
      "id": "bursa-15",
      "name": "ŞİFANUR ECZANESİ",
      "address": "152 EVLER MAH. 1.NUR SOK. NO:11 ,  (BURSA TEKNİK ÜNİVERSİTESİ YANI) ,  0224 361 28 27",
      "phone": "02243612827",
      "district": "YILDIRIM",
      "city": "Bursa",
      "latitude": 40.18681183,
      "longitude": 29.10456419,
      "dutyStart": "2026-03-07T17:00:00.000Z",
      "dutyEnd": "2026-03-08T08:30:00.000Z"
    },
    {
      "id": "bursa-16",
      "name": "YENİ ORHAN ECZANESİ",
      "address": "ORHAN MAH. DR.İBRAHİM ÖKTEM CAD. NO:35 ,  0506 226 03 44 ,  Eczaneyi haritada görüntülemek için tıklayınız...",
      "phone": "05062260344",
      "district": "BÜYÜKORHAN",
      "city": "Bursa",
      "latitude": 39.775043,
      "longitude": 28.881995,
      "dutyStart": "2026-03-07T17:00:00.000Z",
      "dutyEnd": "2026-03-08T08:30:00.000Z"
    },
    {
      "id": "bursa-17",
      "name": "YASEMİN ECZANESİ",
      "address": "HAMİDİYE MAH. İSTİKLAL CAD. NO:40 ,  0224-5130116 ,  Eczaneyi haritada görüntülemek için tıklayınız...",
      "phone": "02245130116",
      "district": "GEMLİK",
      "city": "Bursa",
      "latitude": 40.429378,
      "longitude": 29.155907999999954,
      "dutyStart": "2026-03-07T15:00:00.000Z",
      "dutyEnd": "2026-03-08T00:00:00.000Z"
    },
    {
      "id": "bursa-18",
      "name": "GEMLİK ECZANESİ",
      "address": "DEMİRSUBAŞI MAH. İSKELE CAD. NO:5/B ,  0224 513 02 47 ,  Eczaneyi haritada görüntülemek için tıklayınız...",
      "phone": "02245130247",
      "district": "GEMLİK",
      "city": "Bursa",
      "latitude": 40.431547,
      "longitude": 29.154610000000048,
      "dutyStart": "2026-03-07T15:00:00.000Z",
      "dutyEnd": "2026-03-08T08:30:00.000Z"
    },
    {
      "id": "bursa-19",
      "name": "KAFKAS ECZANESİ",
      "address": "ZAFER MAH. ZAFER CAD. NO:54/A ,  0224 371 00 18 ,  Eczaneyi haritada görüntülemek için tıklayınız...",
      "phone": "02243710018",
      "district": "GÜRSU",
      "city": "Bursa",
      "latitude": 40.21996160209907,
      "longitude": 29.189997911453247,
      "dutyStart": "2026-03-07T15:30:00.000Z",
      "dutyEnd": "2026-03-08T09:00:00.000Z"
    },
    {
      "id": "bursa-20",
      "name": "ULAŞ ECZANESİ",
      "address": "MERKEZ MAH. FEVZİ PAŞA CAD. NO:9/A ,  0224-8812272 ,  Eczaneyi haritada görüntülemek için tıklayınız...",
      "phone": "02248812272",
      "district": "HARMANCIK",
      "city": "Bursa",
      "latitude": 39.679027,
      "longitude": 29.154901999999993,
      "dutyStart": "2026-03-07T08:30:00.000Z",
      "dutyEnd": "2026-03-08T08:30:00.000Z"
    },
    {
      "id": "bursa-21",
      "name": "YAŞAM ECZANESİ",
      "address": "YENİ MAH. KENT CAD. NO:9/B ALANYURT,  (SGK KAVŞAĞI) ,  0224 719 27 26",
      "phone": "02247192726",
      "district": "İNEGÖL",
      "city": "Bursa",
      "latitude": 40.10731,
      "longitude": 29.51666,
      "dutyStart": "2026-03-07T17:00:00.000Z",
      "dutyEnd": "2026-03-08T01:00:00.000Z"
    },
    {
      "id": "bursa-22",
      "name": "BULVAR ŞİMŞEK ECZANESİ",
      "address": "SÜLEYMANİYE MAH. PARK YOLU CAD. NO:76/A ,  0224 711 45 05 / 0224 715 18 04 ,  Eczaneyi haritada görüntülemek için tıklayınız...",
      "phone": "02247114505",
      "district": "İNEGÖL",
      "city": "Bursa",
      "latitude": 40.08236,
      "longitude": 29.49717,
      "dutyStart": "2026-03-07T17:00:00.000Z",
      "dutyEnd": "2026-03-08T08:30:00.000Z"
    },
    {
      "id": "bursa-23",
      "name": "ZERRİN ECZANESİ",
      "address": "HAMİDİYE MAH. ATATÜRK BULVARI HASTANE MEYDANI NO:1/A ,  0224-7111215 ,  Eczaneyi haritada görüntülemek için tıklayınız...",
      "phone": "02247111215",
      "district": "İNEGÖL",
      "city": "Bursa",
      "latitude": 40.073532,
      "longitude": 29.51048800000001,
      "dutyStart": "2026-03-07T17:00:00.000Z",
      "dutyEnd": "2026-03-08T01:00:00.000Z"
    },
    {
      "id": "bursa-24",
      "name": "YALÇIN ECZANESİ",
      "address": "BEYLER MAH. ATATÜRK CAD. ALAADDİN MİSRİ SOK. NO:104/1 ,  0224 757 67 82 ,  Eczaneyi haritada görüntülemek için tıklayınız...",
      "phone": "02247576782",
      "district": "İZNİK",
      "city": "Bursa",
      "latitude": 40.431363,
      "longitude": 29.720088000000032,
      "dutyStart": "2026-03-07T08:30:00.000Z",
      "dutyEnd": "2026-03-08T08:30:00.000Z"
    },
    {
      "id": "bursa-25",
      "name": "HAYAT ECZANESİ",
      "address": "SIRABADEMLER MAH. ORTAOKUL CAD. NO:76 ,  0224 660 00 06 ,  Eczaneyi haritada görüntülemek için tıklayınız...",
      "phone": "02246600006",
      "district": "KARACABEY",
      "city": "Bursa",
      "latitude": 40.211018,
      "longitude": 28.361033,
      "dutyStart": "2026-03-07T15:00:00.000Z",
      "dutyEnd": "2026-03-08T08:30:00.000Z"
    },
    {
      "id": "bursa-26",
      "name": "KELES ECZANESİ",
      "address": "CUMA MAH. ATATÜRK CAD. NO:20/A ,  0224 861 23 63 ,  Eczaneyi haritada görüntülemek için tıklayınız...",
      "phone": "02248612363",
      "district": "KELES",
      "city": "Bursa",
      "latitude": 39.913008,
      "longitude": 29.233012,
      "dutyStart": "2026-03-07T00:00:00.000Z",
      "dutyEnd": "2026-03-08T00:00:00.000Z"
    },
    {
      "id": "bursa-27",
      "name": "ŞULE ECZANESİ",
      "address": "AHMET VEFİK PAŞA MAH. BURSA CAD. NO:45/2A ,  0224 504 11 60 ,  Eczaneyi haritada görüntülemek için tıklayınız...",
      "phone": "02245041160",
      "district": "KESTEL",
      "city": "Bursa",
      "latitude": 40.1985046,
      "longitude": 29.2081236,
      "dutyStart": "2026-03-07T14:00:00.000Z",
      "dutyEnd": "2026-03-08T08:30:00.000Z"
    },
    {
      "id": "bursa-28",
      "name": "ÇALI DERMAN ECZANESİ",
      "address": "ÇALI MAH. BURSA CAD. NO:3,  (İCAP NÖBETÇİDİR) ,  0224 482 32 18",
      "phone": "02244823218",
      "district": "NİLÜFER",
      "city": "Bursa",
      "latitude": 40.168661406877135,
      "longitude": 28.919362404144998,
      "dutyStart": "2026-03-07T10:00:00.000Z",
      "dutyEnd": "2026-03-07T20:00:00.000Z"
    },
    {
      "id": "bursa-29",
      "name": "GÜZELYALI ECZANESİ",
      "address": "GÜZELYALI EĞİTİM MAH. KAZIM KARABEKİR CAD. NO:8/B ,  0224 554 85 80 ,  Eczaneyi haritada görüntülemek için tıklayınız...",
      "phone": "02245548580",
      "district": "MUDANYA",
      "city": "Bursa",
      "latitude": 40.354676,
      "longitude": 28.928739,
      "dutyStart": "2026-03-07T08:30:00.000Z",
      "dutyEnd": "2026-03-08T08:30:00.000Z"
    },
    {
      "id": "bursa-30",
      "name": "DOĞU ECZANESİ",
      "address": "HALİTPAŞA MAH. MUSTAFAKEMALPAŞA CAD. NO:143/A ,  0224 544 14 57 ,  Eczaneyi haritada görüntülemek için tıklayınız...",
      "phone": "02245441457",
      "district": "MUDANYA",
      "city": "Bursa",
      "latitude": 40.3801,
      "longitude": 28.878,
      "dutyStart": "2026-03-07T08:30:00.000Z",
      "dutyEnd": "2026-03-08T08:30:00.000Z"
    },
    {
      "id": "bursa-31",
      "name": "KARAMAN SAĞLIK ECZANESİ",
      "address": "BARIŞ MAH. FATİH CAD. NO:2/B ,  0224 613 80 00 ,  Eczaneyi haritada görüntülemek için tıklayınız...",
      "phone": "02246138000",
      "district": "MUSTAFAKEMALPAŞA",
      "city": "Bursa",
      "latitude": 40.036982,
      "longitude": 28.383833,
      "dutyStart": "2026-03-07T17:00:00.000Z",
      "dutyEnd": "2026-03-08T08:30:00.000Z"
    },
    {
      "id": "bursa-32",
      "name": "YALÇIN ECZANESİ",
      "address": "İSMETPAŞA MAH. CAMİ KARŞISI SOK. NO:3 ,  0224-8171286 / 0224-8171286 ,  Eczaneyi haritada görüntülemek için tıklayınız...",
      "phone": "02248171286",
      "district": "ORHANELİ",
      "city": "Bursa",
      "latitude": 39.902445,
      "longitude": 28.988786000000005,
      "dutyStart": "2026-03-07T08:30:00.000Z",
      "dutyEnd": "2026-03-08T08:30:00.000Z"
    },
    {
      "id": "bursa-33",
      "name": "KESKİN ECZANESİ",
      "address": "ARAPZADE MAH. GÜNEŞ SOK. NO:1/A ,  0224-9092860 ,  Eczaneyi haritada görüntülemek için tıklayınız...",
      "phone": "02249092860",
      "district": "ORHANGAZİ",
      "city": "Bursa",
      "latitude": 40.50211891692491,
      "longitude": 29.310932010412216,
      "dutyStart": "2026-03-07T15:00:00.000Z",
      "dutyEnd": "2026-03-08T08:30:00.000Z"
    },
    {
      "id": "bursa-34",
      "name": "OSMANGAZİ ECZANESİ",
      "address": "DEMİRTAŞ CUMHURİYET MAH. 201.CAD. NO:23/A ,  0224-2625562 ,  Eczaneyi haritada görüntülemek için tıklayınız...",
      "phone": "02242625562",
      "district": "OSMANGAZİ",
      "city": "Bursa",
      "latitude": 40.26852819658334,
      "longitude": 29.093207716941833,
      "dutyStart": "2026-03-07T17:00:00.000Z",
      "dutyEnd": "2026-03-08T08:30:00.000Z"
    },
    {
      "id": "bursa-35",
      "name": "TÜRE ECZANESİ",
      "address": "YENİGÜN MAH. İZNİK CAD. NO:27 ,  0224-7732717 ,  Eczaneyi haritada görüntülemek için tıklayınız...",
      "phone": "02247732717",
      "district": "YENİŞEHİR",
      "city": "Bursa",
      "latitude": 40.267959,
      "longitude": 29.651850999999965,
      "dutyStart": "2026-03-07T08:00:00.000Z",
      "dutyEnd": "2026-03-08T08:00:00.000Z"
    }
  ]
}