{
  "city": "bursa",
  "cityName": "Bursa",
  "cityId": 16,
  "date": "2026-02-27",
  "updatedAt": "2026-02-27T00:30:55.702Z",
  "count": 31,
  "pharmacies": [
    {
      "id": "bursa-0",
      "name": "NİLÜFER HAYAT ECZANESİ",
      "address": "ÜÇEVLER MAH. KEVSER SOK. KEVSERKENT SİTESİ NO:5/D,  (ÜÇEVLER PAZAR YERİ KARŞISI - ONUR MARKET YANI) ,  0224 999 39 29 / 05372098520",
      "phone": "02249993929",
      "district": "NİLÜFER",
      "city": "Bursa",
      "latitude": 40.198745,
      "longitude": 28.949188,
      "dutyStart": "2026-02-26T18:30:00.000Z",
      "dutyEnd": "2026-02-27T08:30:00.000Z"
    },
    {
      "id": "bursa-1",
      "name": "DOLUNAY ECZANESİ",
      "address": "FETHİYE MAH. ATA SOK. NO:12/D,  (F.S.M. BULVARI - ORMAN-SU İŞLERİ MÜDÜRLÜĞÜ ARKASI) ,  0224 241 77 75",
      "phone": "02242417775",
      "district": "NİLÜFER",
      "city": "Bursa",
      "latitude": 40.22767824,
      "longitude": 28.97835016,
      "dutyStart": "2026-02-26T18:30:00.000Z",
      "dutyEnd": "2026-02-27T08:30:00.000Z"
    },
    {
      "id": "bursa-2",
      "name": "KURTULUŞ ECZANESİ",
      "address": "GÖRÜKLE DUMLUPINAR MAH. ATATÜRK CAD. NO:74,  (GÖRÜKLE BANKALAR CAD. - BİM MARKET KARŞISI) ,  2244701117",
      "phone": "2244701117",
      "district": "NİLÜFER",
      "city": "Bursa",
      "latitude": 40.22823883136404,
      "longitude": 28.84400736322857,
      "dutyStart": "2026-02-26T18:30:00.000Z",
      "dutyEnd": "2026-02-27T08:30:00.000Z"
    },
    {
      "id": "bursa-3",
      "name": "ÜNVER ECZANESİ",
      "address": "KONAK MAH. BURAK (120)SOK. NO:21/B,  (NİLÜFER METRO İSTASYONU ARKASI - MYKOLEJ BEŞEVLER YANI) ,  0224 453 41 80 / 0553 229 57 17",
      "phone": "02244534180",
      "district": "NİLÜFER",
      "city": "Bursa",
      "latitude": 40.20893,
      "longitude": 28.98719,
      "dutyStart": "2026-02-26T18:30:00.000Z",
      "dutyEnd": "2026-02-27T08:30:00.000Z"
    },
    {
      "id": "bursa-4",
      "name": "BENGİSU ECZANESİ",
      "address": "ALTINŞEHİR MAH. ABDİ İPEKÇİ CAD. NO:42,  (ŞAHİNKAYA OKULLARI ARKASI) ,  0224 249 38 38",
      "phone": "02242493838",
      "district": "NİLÜFER",
      "city": "Bursa",
      "latitude": 40.229073173875854,
      "longitude": 28.9183471190501,
      "dutyStart": "2026-02-26T18:30:00.000Z",
      "dutyEnd": "2026-02-27T08:30:00.000Z"
    },
    {
      "id": "bursa-5",
      "name": "ÇAĞLAYAN ECZANESİ",
      "address": "AKPINAR MAH. HANCI CAD. NO:22/9,  (1050 KONUTLAR - AKPINAR KÜLTÜR MERKEZİ KARŞISI) ,  0224 268 00 70",
      "phone": "02242680070",
      "district": "OSMANGAZİ",
      "city": "Bursa",
      "latitude": 40.244107989363236,
      "longitude": 28.971513882279396,
      "dutyStart": "2026-02-26T18:30:00.000Z",
      "dutyEnd": "2026-02-27T08:30:00.000Z"
    },
    {
      "id": "bursa-6",
      "name": "SAĞLIK ECZANESİ",
      "address": "ÇIRPAN MAH. 1.ALTIPARMAK SOK. NO:70-74C,  (ÇIRPAN CAMİ YANI - ÇARŞAMBA) ,  0224 251 63 33",
      "phone": "02242516333",
      "district": "OSMANGAZİ",
      "city": "Bursa",
      "latitude": 40.19352,
      "longitude": 29.05287,
      "dutyStart": "2026-02-26T18:30:00.000Z",
      "dutyEnd": "2026-02-27T08:30:00.000Z"
    },
    {
      "id": "bursa-7",
      "name": "LİNA ECZANESİ",
      "address": "DOĞANEVLER MAH. 2.DADAŞ SOK. NO:11,  (700.YIL AİLE SAĞLIĞI MERKEZİ KARŞISI) ,  0507 006 61 16",
      "phone": "05070066116",
      "district": "OSMANGAZİ",
      "city": "Bursa",
      "latitude": 40.241264,
      "longitude": 29.079783,
      "dutyStart": "2026-02-26T18:30:00.000Z",
      "dutyEnd": "2026-02-27T08:30:00.000Z"
    },
    {
      "id": "bursa-8",
      "name": "ÇARE ECZANESİ",
      "address": "ALEMDAR MAH. ORMANLAR YOLU CAD. NO:78/A,  (ALEMDAR MAH. MUHTARLIĞI KARŞISI) ,  0224 235 40 20",
      "phone": "02242354020",
      "district": "OSMANGAZİ",
      "city": "Bursa",
      "latitude": 40.208325329938766,
      "longitude": 29.036935640202955,
      "dutyStart": "2026-02-26T18:30:00.000Z",
      "dutyEnd": "2026-02-27T08:30:00.000Z"
    },
    {
      "id": "bursa-9",
      "name": "ECEMNAZ ECZANESİ",
      "address": "EMEK ZEKAİ GÜMÜŞDİŞ MAH. SANAYİ CAD. NO:610/D,  (BURSA/MUDANYA YOLU - EMEK METRO İSTASYONU YANI) ,  0224 367 50 10",
      "phone": "02243675010",
      "district": "OSMANGAZİ",
      "city": "Bursa",
      "latitude": 40.257072470919304,
      "longitude": 28.95293354988098,
      "dutyStart": "2026-02-26T18:30:00.000Z",
      "dutyEnd": "2026-02-27T08:30:00.000Z"
    },
    {
      "id": "bursa-10",
      "name": "BAHAR ECZANESİ",
      "address": "BAHAR MAH. NASİP SOK. NO:7,  (BAHAR ASM KARŞISI - ÇINAR LİSESİ ALTI) ,  0224 271 69 37",
      "phone": "02242716937",
      "district": "OSMANGAZİ",
      "city": "Bursa",
      "latitude": 40.20379641,
      "longitude": 29.0663588,
      "dutyStart": "2026-02-26T18:30:00.000Z",
      "dutyEnd": "2026-02-27T08:30:00.000Z"
    },
    {
      "id": "bursa-11",
      "name": "EBRUNUR ECZANESİ",
      "address": "DEĞİRMENLİKIZIK MAH. 1.GİRNE SOK. NO:6/A,  (YILDIRIM BELEDİYESİ TIP MERKEZİ KARŞISI) ,  0224 362 20 62",
      "phone": "02243622062",
      "district": "YILDIRIM",
      "city": "Bursa",
      "latitude": 40.17869195115908,
      "longitude": 29.109638929367065,
      "dutyStart": "2026-02-26T18:30:00.000Z",
      "dutyEnd": "2026-02-27T08:30:00.000Z"
    },
    {
      "id": "bursa-12",
      "name": "BURSA VATAN ECZANESİ",
      "address": "VATAN MAH. GÜVENLİ SOK. NO:29/A ,  0224 361 37 64 / 0538 968 06 98 ,  Eczaneyi haritada görüntülemek için tıklayınız...",
      "phone": "02243613764",
      "district": "YILDIRIM",
      "city": "Bursa",
      "latitude": 40.2051157,
      "longitude": 29.0902671,
      "dutyStart": "2026-02-26T18:30:00.000Z",
      "dutyEnd": "2026-02-27T08:30:00.000Z"
    },
    {
      "id": "bursa-13",
      "name": "ASAF ECZANESİ",
      "address": "YILDIRIM MAH. YILDIRIM CAD. NO:24/C,  (YILDIRIM KÜLLİYESİ MOLLA YEGAN KARŞISI) ,  0224 364 26 26",
      "phone": "02243642626",
      "district": "YILDIRIM",
      "city": "Bursa",
      "latitude": 40.187205,
      "longitude": 29.080092,
      "dutyStart": "2026-02-26T18:30:00.000Z",
      "dutyEnd": "2026-02-27T08:30:00.000Z"
    },
    {
      "id": "bursa-14",
      "name": "ASYA ECZANESİ",
      "address": "YAVUZ SELİM MAH. SU DEPOSU CAD. NO:71/B,  (HAŞİM İŞCAN OKULU KARŞISI) ,  0224-3690084",
      "phone": "02243690084",
      "district": "YILDIRIM",
      "city": "Bursa",
      "latitude": 40.19577178,
      "longitude": 29.11616743,
      "dutyStart": "2026-02-26T18:30:00.000Z",
      "dutyEnd": "2026-02-27T08:30:00.000Z"
    },
    {
      "id": "bursa-15",
      "name": "BÜYÜKORHAN ECZANESİ",
      "address": "ORHAN MAH. DR.İBRAHİM ÖKTEM CAD. NO:13/B ,  0224 841 23 70 ,  Eczaneyi haritada görüntülemek için tıklayınız...",
      "phone": "02248412370",
      "district": "BÜYÜKORHAN",
      "city": "Bursa",
      "latitude": 39.773187817429196,
      "longitude": 28.885376751422882,
      "dutyStart": "2026-02-26T19:00:00.000Z",
      "dutyEnd": "2026-02-27T08:30:00.000Z"
    },
    {
      "id": "bursa-16",
      "name": "BAYER ECZANESİ",
      "address": "DR.ZİYA KAYA MAH. İSTİKLAL CAD. NO:121/A ,  0224-5130143 ,  Eczaneyi haritada görüntülemek için tıklayınız...",
      "phone": "02245130143",
      "district": "GEMLİK",
      "city": "Bursa",
      "latitude": 40.430487,
      "longitude": 29.155665999999997,
      "dutyStart": "2026-02-26T18:30:00.000Z",
      "dutyEnd": "2026-02-27T08:30:00.000Z"
    },
    {
      "id": "bursa-17",
      "name": "ÇAĞRI ECZANESİ",
      "address": "ZAFER MAH. ZAFER MEYDANI CAD. NO:18/A ,  0224 371 19 05 ,  Eczaneyi haritada görüntülemek için tıklayınız...",
      "phone": "02243711905",
      "district": "GÜRSU",
      "city": "Bursa",
      "latitude": 40.218794,
      "longitude": 29.191814,
      "dutyStart": "2026-02-26T18:30:00.000Z",
      "dutyEnd": "2026-02-27T09:00:00.000Z"
    },
    {
      "id": "bursa-18",
      "name": "ULAŞ ECZANESİ",
      "address": "MERKEZ MAH. FEVZİ PAŞA CAD. NO:9/A ,  0224-8812272 ,  Eczaneyi haritada görüntülemek için tıklayınız...",
      "phone": "02248812272",
      "district": "HARMANCIK",
      "city": "Bursa",
      "latitude": 39.679027,
      "longitude": 29.154901999999993,
      "dutyStart": "2026-02-26T18:00:00.000Z",
      "dutyEnd": "2026-02-27T08:30:00.000Z"
    },
    {
      "id": "bursa-19",
      "name": "HAYAT ECZANESİ",
      "address": "SÜLEYMANİYE MAH. KOYUNCU SOK. NO:8/A ,  0224 713 56 63 ,  Eczaneyi haritada görüntülemek için tıklayınız...",
      "phone": "02247135663",
      "district": "İNEGÖL",
      "city": "Bursa",
      "latitude": 40.0857,
      "longitude": 29.50598,
      "dutyStart": "2026-02-26T18:00:00.000Z",
      "dutyEnd": "2026-02-27T08:30:00.000Z"
    },
    {
      "id": "bursa-20",
      "name": "YÜCEL ECZANESİ",
      "address": "BEYLER MAH. KILIÇASLAN CAD. NO:123 ,  0224 757 10 87 ,  Eczaneyi haritada görüntülemek için tıklayınız...",
      "phone": "02247571087",
      "district": "İZNİK",
      "city": "Bursa",
      "latitude": 40.42935391964568,
      "longitude": 29.721960330658554,
      "dutyStart": "2026-02-26T18:00:00.000Z",
      "dutyEnd": "2026-02-27T08:30:00.000Z"
    },
    {
      "id": "bursa-21",
      "name": "GÜNEŞ ECZANESİ",
      "address": "GAZİ MAH. 149.SOK. NO:134 ,  0224 676 20 88 ,  Eczaneyi haritada görüntülemek için tıklayınız...",
      "phone": "02246762088",
      "district": "KARACABEY",
      "city": "Bursa",
      "latitude": 40.209362,
      "longitude": 28.368310000000065,
      "dutyStart": "2026-02-26T18:00:00.000Z",
      "dutyEnd": "2026-02-27T08:30:00.000Z"
    },
    {
      "id": "bursa-22",
      "name": "ŞİFA ECZANESİ",
      "address": "CUMA MAH. ATATÜRK CAD. ÇARŞI İÇİ NO:3/B ,  0224 861 21 64 ,  Eczaneyi haritada görüntülemek için tıklayınız...",
      "phone": "02248612164",
      "district": "KELES",
      "city": "Bursa",
      "latitude": 39.91276107279525,
      "longitude": 29.233170631710127,
      "dutyStart": "2026-02-26T18:00:00.000Z",
      "dutyEnd": "2026-02-27T08:30:00.000Z"
    },
    {
      "id": "bursa-23",
      "name": "KESTEL METRO ECZANESİ",
      "address": "AHMET VEFİK PAŞA MAH. FEVZİ ÇAKMAK CAD. NO:51/A ,  0224 373 00 77 ,  Eczaneyi haritada görüntülemek için tıklayınız...",
      "phone": "02243730077",
      "district": "KESTEL",
      "city": "Bursa",
      "latitude": 40.202347673986495,
      "longitude": 29.207928620502315,
      "dutyStart": "2026-02-26T18:00:00.000Z",
      "dutyEnd": "2026-02-27T08:30:00.000Z"
    },
    {
      "id": "bursa-24",
      "name": "YALIM ECZANESİ",
      "address": "GÜZELYALI YALI MAH. 41.SOK. NO:13/C ,  0224 554 66 77 ,  Eczaneyi haritada görüntülemek için tıklayınız...",
      "phone": "02245546677",
      "district": "MUDANYA",
      "city": "Bursa",
      "latitude": 40.35618822323153,
      "longitude": 28.921120572989473,
      "dutyStart": "2026-02-26T18:00:00.000Z",
      "dutyEnd": "2026-02-27T08:30:00.000Z"
    },
    {
      "id": "bursa-25",
      "name": "BİLGİN ECZANESİ",
      "address": "ÖMERBEY MAH. DENİZ CAD. 2.BARIŞ SOK. AKARSU SİTESİ NO:4/B-C ,  0224 544 84 74 ,  Eczaneyi haritada görüntülemek için tıklayınız...",
      "phone": "02245448474",
      "district": "MUDANYA",
      "city": "Bursa",
      "latitude": 40.36967615175513,
      "longitude": 28.89139662218156,
      "dutyStart": "2026-02-26T18:00:00.000Z",
      "dutyEnd": "2026-02-27T08:30:00.000Z"
    },
    {
      "id": "bursa-26",
      "name": "KARACA SAĞLIK ECZANESİ",
      "address": "HAMZABEY MAH. ŞEHİT ZEKİ GÖKGÖZ SOK. NO:24 ,  0224 618 00 41 ,  Eczaneyi haritada görüntülemek için tıklayınız...",
      "phone": "02246180041",
      "district": "MUSTAFAKEMALPAŞA",
      "city": "Bursa",
      "latitude": 40.039137,
      "longitude": 28.408261,
      "dutyStart": "2026-02-26T18:00:00.000Z",
      "dutyEnd": "2026-02-27T08:30:00.000Z"
    },
    {
      "id": "bursa-27",
      "name": "CANNUR ECZANESİ",
      "address": "İSMET PAŞA MAH. HASTANE CAD. NO:7 ,  0224-8171262 ,  Eczaneyi haritada görüntülemek için tıklayınız...",
      "phone": "02248171262",
      "district": "ORHANELİ",
      "city": "Bursa",
      "latitude": 39.905429,
      "longitude": 28.984375999999997,
      "dutyStart": "2026-02-26T18:00:00.000Z",
      "dutyEnd": "2026-02-27T08:30:00.000Z"
    },
    {
      "id": "bursa-28",
      "name": "KESKİN ECZANESİ",
      "address": "ARAPZADE MAH. GÜNEŞ SOK. NO:1/A ,  0224-9092860 ,  Eczaneyi haritada görüntülemek için tıklayınız...",
      "phone": "02249092860",
      "district": "ORHANGAZİ",
      "city": "Bursa",
      "latitude": 40.50211891692491,
      "longitude": 29.310932010412216,
      "dutyStart": "2026-02-26T18:00:00.000Z",
      "dutyEnd": "2026-02-27T08:30:00.000Z"
    },
    {
      "id": "bursa-29",
      "name": "CADDE DEMİRTAŞ ECZANESİ",
      "address": "DEMİRTAŞ CUMHURİYET MAH. ÇEVREYOLU CAD. 1235.SOK. NO:3,  (PETROL OFİSİ İSTASYONU ÇAPRAZI) ,  0224 262 22 17",
      "phone": "02242622217",
      "district": "OSMANGAZİ",
      "city": "Bursa",
      "latitude": 40.2702844,
      "longitude": 29.088072399999987,
      "dutyStart": "2026-02-26T18:30:00.000Z",
      "dutyEnd": "2026-02-27T08:30:00.000Z"
    },
    {
      "id": "bursa-30",
      "name": "CEM ECZANESİ",
      "address": "KURTULUŞ MAH. ATATÜRK CAD. NO:64/A ,  0224 773 60 48 ,  Eczaneyi haritada görüntülemek için tıklayınız...",
      "phone": "02247736048",
      "district": "YENİŞEHİR",
      "city": "Bursa",
      "latitude": 40.26771160285151,
      "longitude": 29.651635587215424,
      "dutyStart": "2026-02-26T18:00:00.000Z",
      "dutyEnd": "2026-02-27T08:00:00.000Z"
    }
  ]
}