{
  "city": "bursa",
  "cityName": "Bursa",
  "cityId": 16,
  "date": "2026-02-22",
  "updatedAt": "2026-02-22T10:30:18.782Z",
  "count": 39,
  "pharmacies": [
    {
      "id": "bursa-0",
      "name": "HİLALİN ECZANESİ",
      "address": "AHMET YESEVİ MAH. GÜRVARDAR SOK. NO:4A/E,  (PANULA BALAT SİTESİ A-BLOK) ,  0224 503 73 13",
      "phone": "02245037313",
      "district": "NİLÜFER",
      "city": "Bursa",
      "latitude": 40.2737861,
      "longitude": 28.9352898,
      "dutyStart": "2026-02-22T08:30:00.000Z",
      "dutyEnd": "2026-02-23T08:30:00.000Z"
    },
    {
      "id": "bursa-1",
      "name": "İREM ECZANESİ",
      "address": "DEMİRCİ MAH. KAVAKLIDERE CAD. NO:22B/11,  (BİM MARKET YANI) ,  0224 236 47 36",
      "phone": "02242364736",
      "district": "NİLÜFER",
      "city": "Bursa",
      "latitude": 40.192752,
      "longitude": 28.940672,
      "dutyStart": "2026-02-22T08:30:00.000Z",
      "dutyEnd": "2026-02-23T08:30:00.000Z"
    },
    {
      "id": "bursa-2",
      "name": "ADAÇAYI PRESTİJ ECZANESİ",
      "address": "ODUNLUK MAH. KAZIM KARABEKİR CAD. NO:22/A,  (ODUNLUK KÖPRÜ GİRİŞİ - PRESTİJ PARK EVLERİ KARŞISI) ,  0224 363 27 11",
      "phone": "02243632711",
      "district": "NİLÜFER",
      "city": "Bursa",
      "latitude": 40.19389710956643,
      "longitude": 28.995615541934967,
      "dutyStart": "2026-02-22T08:30:00.000Z",
      "dutyEnd": "2026-02-23T08:30:00.000Z"
    },
    {
      "id": "bursa-3",
      "name": "FSM PLAZA ECZANESİ",
      "address": "İHSANİYE MAH. FATİH SULTAN MEHMET BULVARI NO:14 B/H-I ,  0224 503 20 30 ,  Eczaneyi haritada görüntülemek için tıklayınız...",
      "phone": "02245032030",
      "district": "NİLÜFER",
      "city": "Bursa",
      "latitude": 40.214445567132834,
      "longitude": 28.977445620286407,
      "dutyStart": "2026-02-22T08:30:00.000Z",
      "dutyEnd": "2026-02-23T08:30:00.000Z"
    },
    {
      "id": "bursa-4",
      "name": "SULTAN ECZANESİ",
      "address": "ERTUĞRUL MAH. 142.SOK. NO:7C/A,  (DÖRTÇELİK ÇOCUK HASTALIKLARI HASTANESİ ARKA ÇIKIŞ KAPISI KARŞISI) ,  0224 413 35 50",
      "phone": "02244133550",
      "district": "NİLÜFER",
      "city": "Bursa",
      "latitude": 40.21792497728329,
      "longitude": 28.921203420930333,
      "dutyStart": "2026-02-22T08:30:00.000Z",
      "dutyEnd": "2026-02-23T08:30:00.000Z"
    },
    {
      "id": "bursa-5",
      "name": "CANDER ECZANESİ",
      "address": "FETHİYE MAH. İNCELER SOK. NO:14-C/A ,  (YÜKSEK İHTİSAS EĞT. ARŞ. HAST. NİLÜFER EK BİNA KARŞISI) ,  0224 220 81 55",
      "phone": "02242208155",
      "district": "NİLÜFER",
      "city": "Bursa",
      "latitude": 40.231964,
      "longitude": 28.980487,
      "dutyStart": "2026-02-22T08:30:00.000Z",
      "dutyEnd": "2026-02-23T08:30:00.000Z"
    },
    {
      "id": "bursa-6",
      "name": "ADAM ECZANESİ",
      "address": "30 AĞUSTOS ZAFER MAH. 109.(520) SOK. NO:1B/E,  (KAYAPA KAZIM ÖZDİLEK ASM KARŞISI) ,  0506 856 08 99",
      "phone": "05068560899",
      "district": "NİLÜFER",
      "city": "Bursa",
      "latitude": 40.19828480462357,
      "longitude": 28.841515392600815,
      "dutyStart": "2026-02-22T08:30:00.000Z",
      "dutyEnd": "2026-02-23T08:30:00.000Z"
    },
    {
      "id": "bursa-7",
      "name": "GONCA ERYILMAZ ECZANESİ",
      "address": "23 NİSAN MAH. 75.YIL BULVARI NO:3AC,  (ATA BULVARI OSB GİRİŞİ - DURMAZLAR KARŞISI) ,  0224 441 81 68 / 0530 911 81 68",
      "phone": "02244418168",
      "district": "NİLÜFER",
      "city": "Bursa",
      "latitude": 40.2210484,
      "longitude": 28.9512778,
      "dutyStart": "2026-02-22T08:30:00.000Z",
      "dutyEnd": "2026-02-23T08:30:00.000Z"
    },
    {
      "id": "bursa-8",
      "name": "HÜRRİYET ECZANESİ",
      "address": "İSTİKLAL MAH. EDİRNE SOK. N0:21 HÜRRİYET,  (B.D.H. HÜRRİYET POLİKLİNİĞİ KARŞISI) ,  0224 247 87 99 / 0224 247 87 00",
      "phone": "02242478799",
      "district": "OSMANGAZİ",
      "city": "Bursa",
      "latitude": 40.22089244,
      "longitude": 29.00769487,
      "dutyStart": "2026-02-22T08:30:00.000Z",
      "dutyEnd": "2026-02-23T08:30:00.000Z"
    },
    {
      "id": "bursa-9",
      "name": "VEYSEL KARANİ ECZANESİ",
      "address": "VEYSEL KARANİ MAH. ESKİ GEMLİK YOLU NO:188,  (HİPODROM EKMEK FIRINI KARŞISI) ,  0224 215 97 13 / 0538 6449060",
      "phone": "02242159713",
      "district": "OSMANGAZİ",
      "city": "Bursa",
      "latitude": 40.20691832,
      "longitude": 29.08119678,
      "dutyStart": "2026-02-22T08:30:00.000Z",
      "dutyEnd": "2026-02-23T08:30:00.000Z"
    },
    {
      "id": "bursa-10",
      "name": "HUZUR ECZANESİ",
      "address": "HAMİTLER MAH. HARBİYE CAD. NO:88/B,  (DOĞA KOLEJ YAKINI - YENİBAĞLAR TAKSİ DURAĞI KARŞISI) ,  0224 251 10 80",
      "phone": "02242511080",
      "district": "OSMANGAZİ",
      "city": "Bursa",
      "latitude": 40.251342357218476,
      "longitude": 28.97836907318363,
      "dutyStart": "2026-02-22T08:30:00.000Z",
      "dutyEnd": "2026-02-23T08:30:00.000Z"
    },
    {
      "id": "bursa-11",
      "name": "OĞUZ ECZANESİ",
      "address": "ALACAHIRKA MAH. ORHANELİ CAD. NO:1/A,  (1 NOLU ALACAHIRKA AİLE SAĞLIĞI MERKEZİ KARŞISI) ,  0224 225 01 16",
      "phone": "02242250116",
      "district": "OSMANGAZİ",
      "city": "Bursa",
      "latitude": 40.18303736176448,
      "longitude": 29.0468430519104,
      "dutyStart": "2026-02-22T08:30:00.000Z",
      "dutyEnd": "2026-02-23T08:30:00.000Z"
    },
    {
      "id": "bursa-12",
      "name": "NEFES ECZANESİ",
      "address": "SOĞANLI MAH. 1.NİLÜFER CAD. NO:121,  (SOĞANLI MEYDANI VE TAKSİ DOLMUŞ DURAĞI KARŞISI)) ,  0530 887 16 65",
      "phone": "05308871665",
      "district": "OSMANGAZİ",
      "city": "Bursa",
      "latitude": 40.208101,
      "longitude": 29.042022,
      "dutyStart": "2026-02-22T08:30:00.000Z",
      "dutyEnd": "2026-02-23T08:30:00.000Z"
    },
    {
      "id": "bursa-13",
      "name": "HAŞİM ECZANESİ",
      "address": "DEMİRTAŞPAŞA MAH. GAZCILAR C.BAYAR CAD. NO:4/E,  (PETEK BOZKAYA İŞ MERKEZİ A-BLOK) ,  0224 272 50 40 / 0224 2725041",
      "phone": "02242725040",
      "district": "OSMANGAZİ",
      "city": "Bursa",
      "latitude": 40.18885267,
      "longitude": 29.07046258,
      "dutyStart": "2026-02-22T08:30:00.000Z",
      "dutyEnd": "2026-02-23T08:30:00.000Z"
    },
    {
      "id": "bursa-14",
      "name": "DİKKALDIRIM ECZANESİ",
      "address": "HÜDAVENDİGAR MAH. DİKKALDIRIM CAD. NO:55,  (OTOBÜS DURAĞI ARKASI) ,  0224 238 11 62",
      "phone": "02242381162",
      "district": "OSMANGAZİ",
      "city": "Bursa",
      "latitude": 40.20389,
      "longitude": 29.0126,
      "dutyStart": "2026-02-22T08:30:00.000Z",
      "dutyEnd": "2026-02-23T08:30:00.000Z"
    },
    {
      "id": "bursa-15",
      "name": "TURAN ECZANESİ",
      "address": "EMEK ZEKAİ GÜMÜŞDİŞ MAH. SANAYİ CAD. NO:612/A,  (ÖZEL CEYLAN HASTANESİ YANI) ,  0224 253 10 11",
      "phone": "02242531011",
      "district": "OSMANGAZİ",
      "city": "Bursa",
      "latitude": 40.256469,
      "longitude": 28.953291,
      "dutyStart": "2026-02-22T08:30:00.000Z",
      "dutyEnd": "2026-02-23T08:30:00.000Z"
    },
    {
      "id": "bursa-16",
      "name": "DAĞÜSTÜ ECZANESİ",
      "address": "ESENEVLER MAH. EDEBALİ SOK. NO:62/A,  (ESENEVLER SAĞLIK OCAĞI ARKASI) ,  0224-3414407",
      "phone": "02243414407",
      "district": "YILDIRIM",
      "city": "Bursa",
      "latitude": 40.1897018,
      "longitude": 29.1439319,
      "dutyStart": "2026-02-22T08:30:00.000Z",
      "dutyEnd": "2026-02-23T08:30:00.000Z"
    },
    {
      "id": "bursa-17",
      "name": "MÜJDE ECZANESİ",
      "address": "ORTABAĞLAR MAH. PROF.TEZOK CAD. NO:19/B,  (ESKİ TIP FAKÜLTESİ KARŞISI) ,  0224 367 20 12 / 5364910930",
      "phone": "02243672012",
      "district": "YILDIRIM",
      "city": "Bursa",
      "latitude": 40.19050874858435,
      "longitude": 29.11099244032323,
      "dutyStart": "2026-02-22T08:30:00.000Z",
      "dutyEnd": "2026-02-23T08:30:00.000Z"
    },
    {
      "id": "bursa-18",
      "name": "TELEFERİK MERKEZ ECZANESİ",
      "address": "PİREMİR MAH. TELEFERİK CAD. NO:72/A ,  (TELEFERİK MEYDANI) ,  0545 851 08 50",
      "phone": "05458510850",
      "district": "YILDIRIM",
      "city": "Bursa",
      "latitude": 40.172965,
      "longitude": 29.083152,
      "dutyStart": "2026-02-22T08:30:00.000Z",
      "dutyEnd": "2026-02-23T08:30:00.000Z"
    },
    {
      "id": "bursa-19",
      "name": "YENİ ORHAN ECZANESİ",
      "address": "ORHAN MAH. DR.İBRAHİM ÖKTEM CAD. NO:35 ,  0506 226 03 44 ,  Eczaneyi haritada görüntülemek için tıklayınız...",
      "phone": "05062260344",
      "district": "BÜYÜKORHAN",
      "city": "Bursa",
      "latitude": 39.775043,
      "longitude": 28.881995,
      "dutyStart": "2026-02-22T08:30:00.000Z",
      "dutyEnd": "2026-02-23T08:30:00.000Z"
    },
    {
      "id": "bursa-20",
      "name": "BEYZA AKGÜN ECZANESİ",
      "address": "DEMİRSUBAŞI MAH. ŞEHİT GÖKHAN AYDINLI SOK. NO:1 ,  0224 514 72 62 ,  Eczaneyi haritada görüntülemek için tıklayınız...",
      "phone": "02245147262",
      "district": "GEMLİK",
      "city": "Bursa",
      "latitude": 40.43194210978875,
      "longitude": 29.155044044248726,
      "dutyStart": "2026-02-22T08:30:00.000Z",
      "dutyEnd": "2026-02-23T08:30:00.000Z"
    },
    {
      "id": "bursa-21",
      "name": "ALTUNİZADE ECZANESİ",
      "address": "BALIKPAZARI MAH. YEDİEVLER SOK. NO:59/A ,  0555 768 16 16 ,  Eczaneyi haritada görüntülemek için tıklayınız...",
      "phone": "05557681616",
      "district": "GEMLİK",
      "city": "Bursa",
      "latitude": 40.435586,
      "longitude": 29.154011,
      "dutyStart": "2026-02-22T08:30:00.000Z",
      "dutyEnd": "2026-02-23T00:00:00.000Z"
    },
    {
      "id": "bursa-22",
      "name": "KAFKAS ECZANESİ",
      "address": "ZAFER MAH. ZAFER CAD. NO:54/A ,  0224 371 00 18 ,  Eczaneyi haritada görüntülemek için tıklayınız...",
      "phone": "02243710018",
      "district": "GÜRSU",
      "city": "Bursa",
      "latitude": 40.21996160209907,
      "longitude": 29.189997911453247,
      "dutyStart": "2026-02-22T09:00:00.000Z",
      "dutyEnd": "2026-02-23T09:00:00.000Z"
    },
    {
      "id": "bursa-23",
      "name": "ULAŞ ECZANESİ",
      "address": "MERKEZ MAH. FEVZİ PAŞA CAD. NO:9/A ,  0224-8812272 ,  Eczaneyi haritada görüntülemek için tıklayınız...",
      "phone": "02248812272",
      "district": "HARMANCIK",
      "city": "Bursa",
      "latitude": 39.679027,
      "longitude": 29.154901999999993,
      "dutyStart": "2026-02-22T08:30:00.000Z",
      "dutyEnd": "2026-02-23T08:30:00.000Z"
    },
    {
      "id": "bursa-24",
      "name": "HAYAT ECZANESİ",
      "address": "SÜLEYMANİYE MAH. KOYUNCU SOK. NO:8/A ,  0224 713 56 63 ,  Eczaneyi haritada görüntülemek için tıklayınız...",
      "phone": "02247135663",
      "district": "İNEGÖL",
      "city": "Bursa",
      "latitude": 40.0857,
      "longitude": 29.50598,
      "dutyStart": "2026-02-22T08:30:00.000Z",
      "dutyEnd": "2026-02-23T01:00:00.000Z"
    },
    {
      "id": "bursa-25",
      "name": "ESLEM ECZANESİ",
      "address": "OSMANİYE MAH. AHMET AKYOLLU CAD. NO:41/B,  (AYDIN MUTFAK YANI) ,  0539 730 70 12",
      "phone": "05397307012",
      "district": "İNEGÖL",
      "city": "Bursa",
      "latitude": 40.08341,
      "longitude": 29.51066,
      "dutyStart": "2026-02-22T08:30:00.000Z",
      "dutyEnd": "2026-02-23T08:30:00.000Z"
    },
    {
      "id": "bursa-26",
      "name": "BİZİM ECZANESİ",
      "address": "YENİ MAH. GÜLFİDAN SOK. NO:5/A ,  0552 462 49 46 ,  Eczaneyi haritada görüntülemek için tıklayınız...",
      "phone": "05524624946",
      "district": "İNEGÖL",
      "city": "Bursa",
      "latitude": 40.10176,
      "longitude": 29.52458,
      "dutyStart": "2026-02-22T08:30:00.000Z",
      "dutyEnd": "2026-02-23T01:00:00.000Z"
    },
    {
      "id": "bursa-27",
      "name": "YALÇIN ECZANESİ",
      "address": "BEYLER MAH. ATATÜRK CAD. ALAADDİN MİSRİ SOK. NO:104/1 ,  0224 757 67 82 ,  Eczaneyi haritada görüntülemek için tıklayınız...",
      "phone": "02247576782",
      "district": "İZNİK",
      "city": "Bursa",
      "latitude": 40.431363,
      "longitude": 29.720088000000032,
      "dutyStart": "2026-02-22T08:30:00.000Z",
      "dutyEnd": "2026-02-23T08:30:00.000Z"
    },
    {
      "id": "bursa-28",
      "name": "SEZER ECZANESİ",
      "address": "ESENTEPE MAH. 189.SOK. NO:8/1 ,  0224 662 10 00 ,  Eczaneyi haritada görüntülemek için tıklayınız...",
      "phone": "02246621000",
      "district": "KARACABEY",
      "city": "Bursa",
      "latitude": 40.21709504431086,
      "longitude": 28.368687521495758,
      "dutyStart": "2026-02-22T08:30:00.000Z",
      "dutyEnd": "2026-02-23T08:30:00.000Z"
    },
    {
      "id": "bursa-29",
      "name": "ÇINAR ECZANESİ",
      "address": "CUMA MAH. TAHİR HOCA CAD. NO:1 ,  0224 861 30 72 ,  Eczaneyi haritada görüntülemek için tıklayınız...",
      "phone": "02248613072",
      "district": "KELES",
      "city": "Bursa",
      "latitude": 39.9132,
      "longitude": 29.2329,
      "dutyStart": "2026-02-22T00:00:00.000Z",
      "dutyEnd": "2026-02-23T00:00:00.000Z"
    },
    {
      "id": "bursa-30",
      "name": "ZAFER ECZANESİ",
      "address": "ESENTEPE MAH. ESEN SOK. NO:3/20 ,  0224-3720280 ,  Eczaneyi haritada görüntülemek için tıklayınız...",
      "phone": "02243720280",
      "district": "KESTEL",
      "city": "Bursa",
      "latitude": 40.201114806312745,
      "longitude": 29.225065112113953,
      "dutyStart": "2026-02-22T08:30:00.000Z",
      "dutyEnd": "2026-02-23T08:30:00.000Z"
    },
    {
      "id": "bursa-31",
      "name": "DORUK ECZANESİ",
      "address": "ÇALI MAH. BURSA CAD. NO:38/B,  (İCAP NÖBETÇİDİR) ,  0535 209 54 15",
      "phone": "05352095415",
      "district": "NİLÜFER",
      "city": "Bursa",
      "latitude": 40.17164568691568,
      "longitude": 28.92117939814688,
      "dutyStart": "2026-02-22T10:00:00.000Z",
      "dutyEnd": "2026-02-22T17:00:00.000Z"
    },
    {
      "id": "bursa-32",
      "name": "ARZU ECZANESİ",
      "address": "GÜZELYALI EĞİTİM MAH. LİSE CAD. NO:25/D ,  0224 554 71 81 ,  Eczaneyi haritada görüntülemek için tıklayınız...",
      "phone": "02245547181",
      "district": "MUDANYA",
      "city": "Bursa",
      "latitude": 40.3515688,
      "longitude": 28.9283514,
      "dutyStart": "2026-02-22T08:30:00.000Z",
      "dutyEnd": "2026-02-23T08:30:00.000Z"
    },
    {
      "id": "bursa-33",
      "name": "GÜNAYDIN ECZANESİ",
      "address": "ÖMERBEY MAH. 2.PINAR SOK. NO:10/A ,  0501 004 24 34 ,  Eczaneyi haritada görüntülemek için tıklayınız...",
      "phone": "05010042434",
      "district": "MUDANYA",
      "city": "Bursa",
      "latitude": 40.370336,
      "longitude": 28.890255,
      "dutyStart": "2026-02-22T08:30:00.000Z",
      "dutyEnd": "2026-02-23T08:30:00.000Z"
    },
    {
      "id": "bursa-34",
      "name": "KARAMAN ECZANESİ",
      "address": "HAMİDİYE MAH. YALINTAŞ CAD. NO:22 ,  0224 613 20 30 ,  Eczaneyi haritada görüntülemek için tıklayınız...",
      "phone": "02246132030",
      "district": "MUSTAFAKEMALPAŞA",
      "city": "Bursa",
      "latitude": 40.032865,
      "longitude": 28.398695,
      "dutyStart": "2026-02-22T08:30:00.000Z",
      "dutyEnd": "2026-02-23T08:30:00.000Z"
    },
    {
      "id": "bursa-35",
      "name": "EZEL ECZANESİ",
      "address": "İSMET PAŞA MAH. HASTANE SOK. NO:11 ,  0224-8173637 ,  Eczaneyi haritada görüntülemek için tıklayınız...",
      "phone": "02248173637",
      "district": "ORHANELİ",
      "city": "Bursa",
      "latitude": 39.901235,
      "longitude": 28.98706100000004,
      "dutyStart": "2026-02-22T08:30:00.000Z",
      "dutyEnd": "2026-02-23T08:30:00.000Z"
    },
    {
      "id": "bursa-36",
      "name": "TUĞÇE ECZANESİ",
      "address": "CAMİKEBİR MAH. TOZKOPARAN CAD. NO:16 ,  0224-5722596 ,  Eczaneyi haritada görüntülemek için tıklayınız...",
      "phone": "02245722596",
      "district": "ORHANGAZİ",
      "city": "Bursa",
      "latitude": 40.489942,
      "longitude": 29.30894599999999,
      "dutyStart": "2026-02-22T08:30:00.000Z",
      "dutyEnd": "2026-02-23T08:30:00.000Z"
    },
    {
      "id": "bursa-37",
      "name": "ESİN SERHAT ECZANESİ",
      "address": "DEMİRTAŞ CUMHURİYET MAH. ÇEVREYOLU CAD. 1229.SOK. NO:17 ,  0552 394 94 06 ,  Eczaneyi haritada görüntülemek için tıklayınız...",
      "phone": "05523949406",
      "district": "OSMANGAZİ",
      "city": "Bursa",
      "latitude": 40.2687647,
      "longitude": 29.0906821,
      "dutyStart": "2026-02-22T08:30:00.000Z",
      "dutyEnd": "2026-02-23T08:30:00.000Z"
    },
    {
      "id": "bursa-38",
      "name": "ESRA ECZANESİ",
      "address": "YÜZÜNCÜYIL MAH. FİLİZ SOK. NO:12/A ,  0224 772 33 22 ,  Eczaneyi haritada görüntülemek için tıklayınız...",
      "phone": "02247723322",
      "district": "YENİŞEHİR",
      "city": "Bursa",
      "latitude": 40.267319,
      "longitude": 29.639821,
      "dutyStart": "2026-02-22T08:00:00.000Z",
      "dutyEnd": "2026-02-23T08:00:00.000Z"
    }
  ]
}