{
  "city": "bursa",
  "cityName": "Bursa",
  "cityId": 16,
  "date": "2026-02-18",
  "updatedAt": "2026-02-18T10:00:51.325Z",
  "count": 35,
  "pharmacies": [
    {
      "id": "bursa-0",
      "name": "PEKER ECZANESİ",
      "address": "KARAMAN MAH. BİÇEN SOK. NO:9/C,  (BİYOFİZ TIP MERKEZİ KARŞISI) ,  0224 249 88 20",
      "phone": "02242498820",
      "district": "NİLÜFER",
      "city": "Bursa",
      "latitude": 40.215207894059645,
      "longitude": 28.996020558474697,
      "dutyStart": "2026-02-18T18:30:00.000Z",
      "dutyEnd": "2026-02-19T08:30:00.000Z"
    },
    {
      "id": "bursa-1",
      "name": "BEYOĞLU ECZANESİ",
      "address": "DUMLUPINAR MAH. AKDENİZ CAD. NO:2 D/B GÖRÜKLE,  (NURHAYAT EVLERİ SİTESİ - ŞEYDA ÖĞRETMEN ANAOKULU YANI) ,  0224 242 42 04 / 0543 810 73 05",
      "phone": "02242424204",
      "district": "NİLÜFER",
      "city": "Bursa",
      "latitude": 40.2280199,
      "longitude": 28.8323921,
      "dutyStart": "2026-02-18T18:30:00.000Z",
      "dutyEnd": "2026-02-19T08:30:00.000Z"
    },
    {
      "id": "bursa-2",
      "name": "ASLI ECZANESİ",
      "address": "100.YIL MAH. PROF.DR.ERDAL İNÖNÜ CAD. NO: 25/9-I,  (ÖZLÜCE PARK İŞ MERKEZİ - SAYGINKENT YANI) ,  0224 413 75 33",
      "phone": "02244137533",
      "district": "NİLÜFER",
      "city": "Bursa",
      "latitude": 40.225865894028885,
      "longitude": 28.90637844800949,
      "dutyStart": "2026-02-18T18:30:00.000Z",
      "dutyEnd": "2026-02-19T08:30:00.000Z"
    },
    {
      "id": "bursa-3",
      "name": "AKİDE ECZANESİ",
      "address": "KONAK MAH. YILDIRIM CAD. NO:118 ,  0224-4511988 ,  Eczaneyi haritada görüntülemek için tıklayınız...",
      "phone": "02244511988",
      "district": "NİLÜFER",
      "city": "Bursa",
      "latitude": 40.20910296,
      "longitude": 28.98169622,
      "dutyStart": "2026-02-18T18:30:00.000Z",
      "dutyEnd": "2026-02-19T08:30:00.000Z"
    },
    {
      "id": "bursa-4",
      "name": "ALTIN ECZANESİ",
      "address": "FETHİYE MAH. DR.MEHMET OKTAY SOK. NO:9/B,  (YÜKSEK İHTİSAS EĞT. ARŞ. HST. NİLÜFER EK BİNA KARŞISI) ,  0224 243 20 29",
      "phone": "02242432029",
      "district": "NİLÜFER",
      "city": "Bursa",
      "latitude": 40.23143896469025,
      "longitude": 28.980356452352567,
      "dutyStart": "2026-02-18T18:30:00.000Z",
      "dutyEnd": "2026-02-19T08:30:00.000Z"
    },
    {
      "id": "bursa-5",
      "name": "DOĞA YAŞAM ECZANESİ",
      "address": "ATAEVLER MAH. ALİ RIZA BEY CAD. NO:33/1A,  (ÖZEN GROSS MARKET YANI - MAGAZİN AVM İLERİSİ) ,  0224 443 02 02",
      "phone": "02244430202",
      "district": "NİLÜFER",
      "city": "Bursa",
      "latitude": 40.2209957,
      "longitude": 28.9599014,
      "dutyStart": "2026-02-18T18:30:00.000Z",
      "dutyEnd": "2026-02-19T08:30:00.000Z"
    },
    {
      "id": "bursa-6",
      "name": "ERENCAN ECZANESİ",
      "address": "HÜDAVENDİGAR MAH. DİKKALDIRIM CAD. NO:75/B ,  0224-2382141 ,  Eczaneyi haritada görüntülemek için tıklayınız...",
      "phone": "02242382141",
      "district": "OSMANGAZİ",
      "city": "Bursa",
      "latitude": 40.20383533,
      "longitude": 29.01009679,
      "dutyStart": "2026-02-18T18:30:00.000Z",
      "dutyEnd": "2026-02-19T08:30:00.000Z"
    },
    {
      "id": "bursa-7",
      "name": "ÇİĞDEM ECZANESİ",
      "address": "EMEK ZEKAİ GÜMÜŞDİŞ MAH. GÜLER SOK. NO:23,  (ZEKAİ GÜMÜŞDİŞ HİZMET BİNASI ÇAPRAZI) ,  0224 243 84 42",
      "phone": "02242438442",
      "district": "OSMANGAZİ",
      "city": "Bursa",
      "latitude": 40.254225324808246,
      "longitude": 28.95682418053779,
      "dutyStart": "2026-02-18T18:30:00.000Z",
      "dutyEnd": "2026-02-19T08:30:00.000Z"
    },
    {
      "id": "bursa-8",
      "name": "MERİNOS ECZANESİ",
      "address": "ÇİFTEHAVUZLAR MAH. ÇİRİŞHANE CAD. NO:123 ,  (ÇELEBİ MEHMET BULVARI ÜZERİ) ,  0224 251 64 08",
      "phone": "02242516408",
      "district": "OSMANGAZİ",
      "city": "Bursa",
      "latitude": 40.21118408,
      "longitude": 29.05127406,
      "dutyStart": "2026-02-18T18:30:00.000Z",
      "dutyEnd": "2026-02-19T08:30:00.000Z"
    },
    {
      "id": "bursa-9",
      "name": "ALYA SAĞLIK ECZANESİ",
      "address": "HAMİTLER MAH. KUTLUKBEY CAD. NO:135/1,  (YUNUSELİ ŞEHİT GÜRCAN ULUCAN İLKOKULU ÇAPRAZI) ,  0224 573 50 50",
      "phone": "02245735050",
      "district": "OSMANGAZİ",
      "city": "Bursa",
      "latitude": 40.243019,
      "longitude": 29.001517,
      "dutyStart": "2026-02-18T18:30:00.000Z",
      "dutyEnd": "2026-02-19T08:30:00.000Z"
    },
    {
      "id": "bursa-10",
      "name": "NERGİS ECZANESİ",
      "address": "İBRAHİMPAŞA MAH. İBRAHİMPAŞA CAD. NO:1/A,  (HEYKEL KIZ LİSESİ YOKUŞU) ,  0224 224 59 21",
      "phone": "02242245921",
      "district": "OSMANGAZİ",
      "city": "Bursa",
      "latitude": 40.1811521,
      "longitude": 29.06510353,
      "dutyStart": "2026-02-18T18:30:00.000Z",
      "dutyEnd": "2026-02-19T08:30:00.000Z"
    },
    {
      "id": "bursa-11",
      "name": "İSTASYON BAHAR ECZANESİ",
      "address": "ÇIRPAN MAH. DARMSTAD CAD. 1.DURAK SOK. NO:3/A,  (OSMANGAZİ METRO İSTASYONU) ,  0224 222 92 77",
      "phone": "02242229277",
      "district": "OSMANGAZİ",
      "city": "Bursa",
      "latitude": 40.195647,
      "longitude": 29.057164,
      "dutyStart": "2026-02-18T18:30:00.000Z",
      "dutyEnd": "2026-02-19T08:30:00.000Z"
    },
    {
      "id": "bursa-12",
      "name": "GÜVEN ECZANESİ",
      "address": "MALTEPE MAH. TAYYARECİ MEHMET ALİ CAD. NO:180,  (YEŞİLYAYLA KAPALI PAZAR YERİ ÇAPRAZI) ,  0224 361 16 24",
      "phone": "02243611624",
      "district": "YILDIRIM",
      "city": "Bursa",
      "latitude": 40.18126397272644,
      "longitude": 29.10051344430378,
      "dutyStart": "2026-02-18T18:30:00.000Z",
      "dutyEnd": "2026-02-19T08:30:00.000Z"
    },
    {
      "id": "bursa-13",
      "name": "VATAN ŞİFA ECZANESİ",
      "address": "VATAN MAH. 10.ÖZEN SOK. NO:1/C,  (FAİK ÇELİK KIZ MESLEK LİSESİ YANI) ,  0224 361 63 67",
      "phone": "02243616367",
      "district": "YILDIRIM",
      "city": "Bursa",
      "latitude": 40.204727752894854,
      "longitude": 29.0897630417105,
      "dutyStart": "2026-02-18T18:30:00.000Z",
      "dutyEnd": "2026-02-19T08:30:00.000Z"
    },
    {
      "id": "bursa-14",
      "name": "İLK UMUT ECZANESİ",
      "address": "MİMAR SİNAN MAH. EMNİYET CAD. NO:18/1,  (ŞEVKET YILMAZ - DİŞ HASTANESİ - POLİS OKULU ALTI) ,  0224 368 44 00",
      "phone": "02243684400",
      "district": "YILDIRIM",
      "city": "Bursa",
      "latitude": 40.18892642947322,
      "longitude": 29.127309322357178,
      "dutyStart": "2026-02-18T18:30:00.000Z",
      "dutyEnd": "2026-02-19T08:30:00.000Z"
    },
    {
      "id": "bursa-15",
      "name": "BÜYÜKORHAN ECZANESİ",
      "address": "ORHAN MAH. DR.İBRAHİM ÖKTEM CAD. NO:13/B ,  0224 841 23 70 ,  Eczaneyi haritada görüntülemek için tıklayınız...",
      "phone": "02248412370",
      "district": "BÜYÜKORHAN",
      "city": "Bursa",
      "latitude": 39.773187817429196,
      "longitude": 28.885376751422882,
      "dutyStart": "2026-02-18T19:00:00.000Z",
      "dutyEnd": "2026-02-19T08:30:00.000Z"
    },
    {
      "id": "bursa-16",
      "name": "NEŞE ECZANESİ",
      "address": "EŞREF DİNÇER MAH. ERİKLİ SOK. NO:32/D ,  0224-5145367 ,  Eczaneyi haritada görüntülemek için tıklayınız...",
      "phone": "02245145367",
      "district": "GEMLİK",
      "city": "Bursa",
      "latitude": 40.432355,
      "longitude": 29.161696000000006,
      "dutyStart": "2026-02-18T18:30:00.000Z",
      "dutyEnd": "2026-02-19T00:00:00.000Z"
    },
    {
      "id": "bursa-17",
      "name": "İREM ECZANESİ",
      "address": "BALIKPAZARI MAH. MEKTEP SOK. NO:18/A,  (ATATÜRK İLKOKULU ARKASI) ,  0224-5142242",
      "phone": "02245142242",
      "district": "GEMLİK",
      "city": "Bursa",
      "latitude": 40.43517862781503,
      "longitude": 29.15444791316986,
      "dutyStart": "2026-02-18T18:30:00.000Z",
      "dutyEnd": "2026-02-19T08:30:00.000Z"
    },
    {
      "id": "bursa-18",
      "name": "ÇINARÖNÜ ECZANESİ",
      "address": "KURTULUŞ MAH. ATATÜRK CAD. NO:106/A ,  0224 371 93 94 ,  Eczaneyi haritada görüntülemek için tıklayınız...",
      "phone": "02243719394",
      "district": "GÜRSU",
      "city": "Bursa",
      "latitude": 40.213375,
      "longitude": 29.192701,
      "dutyStart": "2026-02-18T18:30:00.000Z",
      "dutyEnd": "2026-02-19T09:00:00.000Z"
    },
    {
      "id": "bursa-19",
      "name": "ULAŞ ECZANESİ",
      "address": "MERKEZ MAH. FEVZİ PAŞA CAD. NO:9/A ,  0224-8812272 ,  Eczaneyi haritada görüntülemek için tıklayınız...",
      "phone": "02248812272",
      "district": "HARMANCIK",
      "city": "Bursa",
      "latitude": 39.679027,
      "longitude": 29.154901999999993,
      "dutyStart": "2026-02-18T18:00:00.000Z",
      "dutyEnd": "2026-02-19T08:30:00.000Z"
    },
    {
      "id": "bursa-20",
      "name": "TUĞBA KUŞOĞLU ECZANESİ",
      "address": "MAHMUDİYE MAH. ÇAĞDAŞ SOK. NO:2/A ,  0224 711 08 86 ,  Eczaneyi haritada görüntülemek için tıklayınız...",
      "phone": "02247110886",
      "district": "İNEGÖL",
      "city": "Bursa",
      "latitude": 40.064868,
      "longitude": 29.518961,
      "dutyStart": "2026-02-18T18:00:00.000Z",
      "dutyEnd": "2026-02-19T08:30:00.000Z"
    },
    {
      "id": "bursa-21",
      "name": "KANSU ECZANESİ",
      "address": "TURGUTALP MAH. MAHMUT ESAT BEY CAD. NO:48/B ,  (SÖĞÜTLÜ KAHVE KARŞISI) ,  0224 715 09 80",
      "phone": "02247150980",
      "district": "İNEGÖL",
      "city": "Bursa",
      "latitude": 40.07871549575055,
      "longitude": 29.507113549257642,
      "dutyStart": "2026-02-18T18:00:00.000Z",
      "dutyEnd": "2026-02-19T01:00:00.000Z"
    },
    {
      "id": "bursa-22",
      "name": "BURCU ECZANESİ",
      "address": "FATİH MAH. MİMAR SAMYELİ CAD. NO:18/1A,  (ALANYURT KÖYİÇİ - AHISKA PARKI KARŞISI) ,  0224 713 89 93",
      "phone": "02247138993",
      "district": "İNEGÖL",
      "city": "Bursa",
      "latitude": 40.11090364943465,
      "longitude": 29.511980540828482,
      "dutyStart": "2026-02-18T18:00:00.000Z",
      "dutyEnd": "2026-02-19T01:00:00.000Z"
    },
    {
      "id": "bursa-23",
      "name": "HERSEKLİ ECZANESİ",
      "address": "YENİ MAH. CANBAZ SOK. NO:9 ,  0224-7572444 ,  Eczaneyi haritada görüntülemek için tıklayınız...",
      "phone": "02247572444",
      "district": "İZNİK",
      "city": "Bursa",
      "latitude": 40.431549,
      "longitude": 29.72004400000003,
      "dutyStart": "2026-02-18T18:30:00.000Z",
      "dutyEnd": "2026-02-19T08:30:00.000Z"
    },
    {
      "id": "bursa-24",
      "name": "TARÇIN ECZANESİ",
      "address": "MAMURİYET MAH. PANAYIR CAD. NO:253/A ,  0224 676 35 35 ,  Eczaneyi haritada görüntülemek için tıklayınız...",
      "phone": "02246763535",
      "district": "KARACABEY",
      "city": "Bursa",
      "latitude": 40.2280417,
      "longitude": 28.3676431,
      "dutyStart": "2026-02-18T18:30:00.000Z",
      "dutyEnd": "2026-02-19T08:30:00.000Z"
    },
    {
      "id": "bursa-25",
      "name": "KELES ECZANESİ",
      "address": "CUMA MAH. ATATÜRK CAD. NO:20/A ,  0224 861 23 63 ,  Eczaneyi haritada görüntülemek için tıklayınız...",
      "phone": "02248612363",
      "district": "KELES",
      "city": "Bursa",
      "latitude": 39.913008,
      "longitude": 29.233012,
      "dutyStart": "2026-02-18T18:00:00.000Z",
      "dutyEnd": "2026-02-19T08:30:00.000Z"
    },
    {
      "id": "bursa-26",
      "name": "BERA ECZANESİ",
      "address": "AHMET VEFİK PAŞA MAH. HAL CAD. NO:4/D,  (KESTEL DEVLET HASTANESİ ACİL ÇIKIŞI) ,  0224 341 66 11",
      "phone": "02243416611",
      "district": "KESTEL",
      "city": "Bursa",
      "latitude": 40.19891052807458,
      "longitude": 29.203509876205988,
      "dutyStart": "2026-02-18T18:00:00.000Z",
      "dutyEnd": "2026-02-19T08:30:00.000Z"
    },
    {
      "id": "bursa-27",
      "name": "DORUK ECZANESİ",
      "address": "ÇALI MAH. BURSA CAD. NO:38/B,  (İCAP NÖBETÇİDİR) ,  0535 209 54 15",
      "phone": "05352095415",
      "district": "NİLÜFER",
      "city": "Bursa",
      "latitude": 40.17164568691568,
      "longitude": 28.92117939814688,
      "dutyStart": "2026-02-18T18:00:00.000Z",
      "dutyEnd": "2026-02-18T20:00:00.000Z"
    },
    {
      "id": "bursa-28",
      "name": "AZİM ECZANESİ",
      "address": "YENİ MAH. ESKİ MUDANYA YOLU CAD. 518.SOK. NO:5/A,  (FALEZ EVLERİ / A-101 MARKET) ,  0224 554 44 23",
      "phone": "02245544423",
      "district": "MUDANYA",
      "city": "Bursa",
      "latitude": 40.355364,
      "longitude": 28.90928,
      "dutyStart": "2026-02-18T18:00:00.000Z",
      "dutyEnd": "2026-02-19T08:30:00.000Z"
    },
    {
      "id": "bursa-29",
      "name": "AKSOY ECZANESİ",
      "address": "HASANBEY MAH. HALİTPAŞA CAD. NO:26/D ,  0224 544 00 44 ,  Eczaneyi haritada görüntülemek için tıklayınız...",
      "phone": "02245440044",
      "district": "MUDANYA",
      "city": "Bursa",
      "latitude": 40.376665897298395,
      "longitude": 28.88507109948298,
      "dutyStart": "2026-02-18T18:00:00.000Z",
      "dutyEnd": "2026-02-19T08:30:00.000Z"
    },
    {
      "id": "bursa-30",
      "name": "SEL ECZANESİ",
      "address": "VIRACA MAH. BURSA CAD. NO:69/1-B ,  0224-6141319 ,  Eczaneyi haritada görüntülemek için tıklayınız...",
      "phone": "02246141319",
      "district": "MUSTAFAKEMALPAŞA",
      "city": "Bursa",
      "latitude": 40.038339,
      "longitude": 28.40655300000003,
      "dutyStart": "2026-02-18T18:30:00.000Z",
      "dutyEnd": "2026-02-19T08:30:00.000Z"
    },
    {
      "id": "bursa-31",
      "name": "CANNUR ECZANESİ",
      "address": "İSMET PAŞA MAH. HASTANE CAD. NO:7 ,  0224-8171262 ,  Eczaneyi haritada görüntülemek için tıklayınız...",
      "phone": "02248171262",
      "district": "ORHANELİ",
      "city": "Bursa",
      "latitude": 39.905429,
      "longitude": 28.984375999999997,
      "dutyStart": "2026-02-18T18:00:00.000Z",
      "dutyEnd": "2026-02-19T08:30:00.000Z"
    },
    {
      "id": "bursa-32",
      "name": "EYLÜL ECZANESİ",
      "address": "CAMİKEBİR MAH. ORHANBEY CAD. BEKTAŞ PSJ. NO:27 ,  0224 572 24 06 ,  Eczaneyi haritada görüntülemek için tıklayınız...",
      "phone": "02245722406",
      "district": "ORHANGAZİ",
      "city": "Bursa",
      "latitude": 40.49137,
      "longitude": 29.308254000000034,
      "dutyStart": "2026-02-18T18:30:00.000Z",
      "dutyEnd": "2026-02-19T08:30:00.000Z"
    },
    {
      "id": "bursa-33",
      "name": "BAYKAL ECZANESİ",
      "address": "DEMİRTAŞ DUMLUPINAR MAH. 47.CAD. NO:64 ,  0224-2611584 ,  Eczaneyi haritada görüntülemek için tıklayınız...",
      "phone": "02242611584",
      "district": "OSMANGAZİ",
      "city": "Bursa",
      "latitude": 40.270554288827945,
      "longitude": 29.080762267112732,
      "dutyStart": "2026-02-18T18:30:00.000Z",
      "dutyEnd": "2026-02-19T08:30:00.000Z"
    },
    {
      "id": "bursa-34",
      "name": "TÜRE ECZANESİ",
      "address": "YENİGÜN MAH. İZNİK CAD. NO:27 ,  0224-7732717 ,  Eczaneyi haritada görüntülemek için tıklayınız...",
      "phone": "02247732717",
      "district": "YENİŞEHİR",
      "city": "Bursa",
      "latitude": 40.267959,
      "longitude": 29.651850999999965,
      "dutyStart": "2026-02-18T18:00:00.000Z",
      "dutyEnd": "2026-02-19T08:00:00.000Z"
    }
  ]
}