{
  "city": "bursa",
  "cityName": "Bursa",
  "cityId": 16,
  "date": "2026-03-02",
  "updatedAt": "2026-03-02T07:00:02.391Z",
  "count": 37,
  "pharmacies": [
    {
      "id": "bursa-0",
      "name": "BALAT MERVE ECZANESİ",
      "address": "AHMET YESEVİ MAH. FARABİ CAD. NO:4G/C,  (BALAT - BAKGÖR CITY-1 SİTESİ ALTI VE ERGİN EVLER SİTESİ YANI) ,  0224 502 10 01",
      "phone": "02245021001",
      "district": "NİLÜFER",
      "city": "Bursa",
      "latitude": 40.267402,
      "longitude": 28.936876,
      "dutyStart": "2026-03-02T18:30:00.000Z",
      "dutyEnd": "2026-03-03T08:30:00.000Z"
    },
    {
      "id": "bursa-1",
      "name": "YALVAÇ ECZANESİ",
      "address": "BARIŞ MAH. SÜMER SOK. NO:2,  (ACIBADEM HASTANESİ GİRİŞ KAPISI KARŞISI) ,  0224 452 19 95 / 0224 452 19 96",
      "phone": "02244521995",
      "district": "NİLÜFER",
      "city": "Bursa",
      "latitude": 40.21318321739947,
      "longitude": 28.975608944892883,
      "dutyStart": "2026-03-02T18:30:00.000Z",
      "dutyEnd": "2026-03-03T08:30:00.000Z"
    },
    {
      "id": "bursa-2",
      "name": "ODUNLUK ECZANESİ",
      "address": "ODUNLUK MAH. MİHRAPLI CAD. MİSİA SİTESİ NO:4,  (ÖZEL JİMER HASTANESİ KARŞISI) ,  0224 999 55 32",
      "phone": "02249995532",
      "district": "NİLÜFER",
      "city": "Bursa",
      "latitude": 40.20679617242754,
      "longitude": 28.993944190998622,
      "dutyStart": "2026-03-02T18:30:00.000Z",
      "dutyEnd": "2026-03-03T08:30:00.000Z"
    },
    {
      "id": "bursa-3",
      "name": "HAKAN ECZANESİ",
      "address": "ÜÇEVLER MAH. İZMİR YOLU CAD. NO:241/A-I,  (KÜÇÜK SANAYİ METRO İSTASYONU KARŞISI) ,  0224 413 04 84",
      "phone": "02244130484",
      "district": "NİLÜFER",
      "city": "Bursa",
      "latitude": 40.21156710574103,
      "longitude": 28.94242996646435,
      "dutyStart": "2026-03-02T18:30:00.000Z",
      "dutyEnd": "2026-03-03T08:30:00.000Z"
    },
    {
      "id": "bursa-4",
      "name": "ADAM ECZANESİ",
      "address": "30 AĞUSTOS ZAFER MAH. 109.(520) SOK. NO:1B/E,  (KAYAPA KAZIM ÖZDİLEK ASM KARŞISI) ,  0506 856 08 99",
      "phone": "05068560899",
      "district": "NİLÜFER",
      "city": "Bursa",
      "latitude": 40.19828480462357,
      "longitude": 28.841515392600815,
      "dutyStart": "2026-03-02T18:30:00.000Z",
      "dutyEnd": "2026-03-03T08:30:00.000Z"
    },
    {
      "id": "bursa-5",
      "name": "ÇELİKAKSOY ECZANESİ",
      "address": "29 EKİM MAH. UĞUR MUMCU BULVARI NO:17/B,  (ÖZLÜCE METRO DURAĞI - ASM KARŞISI) ,  0224 452 04 20",
      "phone": "02244520420",
      "district": "NİLÜFER",
      "city": "Bursa",
      "latitude": 40.22152926301066,
      "longitude": 28.912768793155134,
      "dutyStart": "2026-03-02T18:30:00.000Z",
      "dutyEnd": "2026-03-03T08:30:00.000Z"
    },
    {
      "id": "bursa-6",
      "name": "AKYILDIZ ECZANESİ",
      "address": "YUNUSELİ MAH. 2.KARANFİL CAD. NO:47/C,  (AKYILDIZ SAĞLIK OCAĞI KARŞISI) ,  0224 248 93 33 / 0534 518 16 46",
      "phone": "02242489333",
      "district": "OSMANGAZİ",
      "city": "Bursa",
      "latitude": 40.2624777,
      "longitude": 29.013099,
      "dutyStart": "2026-03-02T18:30:00.000Z",
      "dutyEnd": "2026-03-03T08:30:00.000Z"
    },
    {
      "id": "bursa-7",
      "name": "AŞAN ECZANESİ",
      "address": "BAĞLARBAŞI MAH. SANAYİ CAD. NO:242,  (BAĞLARBAŞI METRO İSTASYONU - DORUK TIP MERKEZİ ESENTEPE ŞB. YANI) ,  0224 247 24 79",
      "phone": "02242472479",
      "district": "OSMANGAZİ",
      "city": "Bursa",
      "latitude": 40.22866119,
      "longitude": 28.98807049,
      "dutyStart": "2026-03-02T18:30:00.000Z",
      "dutyEnd": "2026-03-03T08:30:00.000Z"
    },
    {
      "id": "bursa-8",
      "name": "ŞİFA ECZANESİ",
      "address": "KÜÇÜKBALIKLI MAH. 2.DÖKÜMHANE SOK. NO:26/A,  (KÜÇÜKBALIKLI ASM KARŞISI) ,  0224 215 62 39",
      "phone": "02242156239",
      "district": "OSMANGAZİ",
      "city": "Bursa",
      "latitude": 40.219873,
      "longitude": 29.073896,
      "dutyStart": "2026-03-02T18:30:00.000Z",
      "dutyEnd": "2026-03-03T08:30:00.000Z"
    },
    {
      "id": "bursa-9",
      "name": "ASLI NUR ECZANESİ",
      "address": "SELİMİYE MAH. 1.TAHİR SOK. NO:10/A,  (OSMANGAZİ KAYMAKAMLIĞI BİNASI KARŞISI) ,  0224 221 42 78",
      "phone": "02242214278",
      "district": "OSMANGAZİ",
      "city": "Bursa",
      "latitude": 40.190581720597336,
      "longitude": 29.052275970744255,
      "dutyStart": "2026-03-02T18:30:00.000Z",
      "dutyEnd": "2026-03-03T08:30:00.000Z"
    },
    {
      "id": "bursa-10",
      "name": "KAAN ECZANESİ",
      "address": "ELMASBAHÇELER MAH. ANKARA YOLU CAD. NO:42,  (ANKARA YOLU ÖZEL HAYAT HASTANESİ ÖNÜ) ,  0224-2732626",
      "phone": "02242732626",
      "district": "OSMANGAZİ",
      "city": "Bursa",
      "latitude": 40.19161978012659,
      "longitude": 29.076701402664185,
      "dutyStart": "2026-03-02T18:30:00.000Z",
      "dutyEnd": "2026-03-03T08:30:00.000Z"
    },
    {
      "id": "bursa-11",
      "name": "MERVE SAĞLIK ECZANESİ",
      "address": "EMEK FATİH SULTAN MEHMET MAH. SELİN SOK. NO:12/A,  (EMEK TAZİYE EVİ VE 24 NO'LU AİLE SAĞLIĞI MERKEZİ KARŞISI) ,  0224 242 22 18",
      "phone": "02242422218",
      "district": "OSMANGAZİ",
      "city": "Bursa",
      "latitude": 40.261704,
      "longitude": 28.960597,
      "dutyStart": "2026-03-02T18:30:00.000Z",
      "dutyEnd": "2026-03-03T08:30:00.000Z"
    },
    {
      "id": "bursa-12",
      "name": "ÇAÇAR ECZANESİ",
      "address": "HÜDAVENDİGAR MAH. 1.KANAL CAD. NO:40/A,  (ÇEKİRGE DEVLET HASTANESİ ARKASI - FORMBACK OTEL YANI) ,  0224 238 00 10 / 0501 253 00 10",
      "phone": "02242380010",
      "district": "OSMANGAZİ",
      "city": "Bursa",
      "latitude": 40.2010432,
      "longitude": 29.0106401,
      "dutyStart": "2026-03-02T18:30:00.000Z",
      "dutyEnd": "2026-03-03T08:30:00.000Z"
    },
    {
      "id": "bursa-13",
      "name": "BEYAZIT ECZANESİ",
      "address": "BEYAZIT MAH. KASIM ÖNADIM BULVARI NO:15,  (EĞİTİM CAD. TEKNİK ÜNİVERSİTESİ VE BEYAZIT ASM YANI) ,  0224 364 10 15 / 535 632288",
      "phone": "02243641015",
      "district": "YILDIRIM",
      "city": "Bursa",
      "latitude": 40.185913315174695,
      "longitude": 29.100584462285042,
      "dutyStart": "2026-03-02T18:30:00.000Z",
      "dutyEnd": "2026-03-03T08:30:00.000Z"
    },
    {
      "id": "bursa-14",
      "name": "AYŞE ECZANESİ",
      "address": "MİLLET MAH. CENGİZHAN CAD. NO:26/D,  (MİLLET MAH. MUHTARLIĞI VE SAĞLIK OCAĞI KARŞISI) ,  0224 360 60 86",
      "phone": "02243606086",
      "district": "YILDIRIM",
      "city": "Bursa",
      "latitude": 40.210273054649846,
      "longitude": 29.095187125091147,
      "dutyStart": "2026-03-02T18:30:00.000Z",
      "dutyEnd": "2026-03-03T08:30:00.000Z"
    },
    {
      "id": "bursa-15",
      "name": "İKSİR ECZANESİ",
      "address": "ESENEVLER MAH. EDEBALİ SOK. NO:58,  (ESENEVLER ASM VE MUHTARLIK KARŞISI) ,  0224 342 00 00",
      "phone": "02243420000",
      "district": "YILDIRIM",
      "city": "Bursa",
      "latitude": 40.19024187,
      "longitude": 29.14662123,
      "dutyStart": "2026-03-02T18:30:00.000Z",
      "dutyEnd": "2026-03-03T08:30:00.000Z"
    },
    {
      "id": "bursa-16",
      "name": "TELEFERİK MERKEZ ECZANESİ",
      "address": "PİREMİR MAH. TELEFERİK CAD. NO:72/A ,  (TELEFERİK MEYDANI) ,  0545 851 08 50",
      "phone": "05458510850",
      "district": "YILDIRIM",
      "city": "Bursa",
      "latitude": 40.172965,
      "longitude": 29.083152,
      "dutyStart": "2026-03-02T18:30:00.000Z",
      "dutyEnd": "2026-03-03T08:30:00.000Z"
    },
    {
      "id": "bursa-17",
      "name": "BÜYÜKORHAN ECZANESİ",
      "address": "ORHAN MAH. DR.İBRAHİM ÖKTEM CAD. NO:13/B ,  0224 841 23 70 ,  Eczaneyi haritada görüntülemek için tıklayınız...",
      "phone": "02248412370",
      "district": "BÜYÜKORHAN",
      "city": "Bursa",
      "latitude": 39.773187817429196,
      "longitude": 28.885376751422882,
      "dutyStart": "2026-03-02T19:00:00.000Z",
      "dutyEnd": "2026-03-03T08:30:00.000Z"
    },
    {
      "id": "bursa-18",
      "name": "GEMİÇ ECZANESİ",
      "address": "DR.ZİYA KAYA MAH. İSTİKLAL CAD. NO:48/18 ,  0224 513 40 52 / 5323694052 ,  Eczaneyi haritada görüntülemek için tıklayınız...",
      "phone": "02245134052",
      "district": "GEMLİK",
      "city": "Bursa",
      "latitude": 40.428978,
      "longitude": 29.155887000000007,
      "dutyStart": "2026-03-02T18:30:00.000Z",
      "dutyEnd": "2026-03-03T08:30:00.000Z"
    },
    {
      "id": "bursa-19",
      "name": "ERÇEK ECZANESİ",
      "address": "DEMİRSUBAŞI MAH. AHMET DURAL PAŞA MEYDANI ÇEŞME SOK. NO:7 ,  0224 513 20 05 ,  Eczaneyi haritada görüntülemek için tıklayınız...",
      "phone": "02245132005",
      "district": "GEMLİK",
      "city": "Bursa",
      "latitude": 40.432026,
      "longitude": 29.154946999999993,
      "dutyStart": "2026-03-02T18:30:00.000Z",
      "dutyEnd": "2026-03-03T00:00:00.000Z"
    },
    {
      "id": "bursa-20",
      "name": "ZENCEFİL ECZANESİ",
      "address": "ZAFER MAH. ZAFER CAD. NO:55/A ,  0224 377 00 17 ,  Eczaneyi haritada görüntülemek için tıklayınız...",
      "phone": "02243770017",
      "district": "GÜRSU",
      "city": "Bursa",
      "latitude": 40.22091211332101,
      "longitude": 29.18674830203376,
      "dutyStart": "2026-03-02T18:30:00.000Z",
      "dutyEnd": "2026-03-03T09:00:00.000Z"
    },
    {
      "id": "bursa-21",
      "name": "ULAŞ ECZANESİ",
      "address": "MERKEZ MAH. FEVZİ PAŞA CAD. NO:9/A ,  0224-8812272 ,  Eczaneyi haritada görüntülemek için tıklayınız...",
      "phone": "02248812272",
      "district": "HARMANCIK",
      "city": "Bursa",
      "latitude": 39.679027,
      "longitude": 29.154901999999993,
      "dutyStart": "2026-03-02T18:00:00.000Z",
      "dutyEnd": "2026-03-03T08:30:00.000Z"
    },
    {
      "id": "bursa-22",
      "name": "UĞUR ECZANESİ",
      "address": "SÜLEYMANİYE MAH. PARK YOLU CAD. NO:70,  (YENİ İNEGÖL DEVLET HASTANESİ KARŞISI) ,  0224 715 66 61",
      "phone": "02247156661",
      "district": "İNEGÖL",
      "city": "Bursa",
      "latitude": 40.08239,
      "longitude": 29.49772,
      "dutyStart": "2026-03-02T18:00:00.000Z",
      "dutyEnd": "2026-03-03T01:00:00.000Z"
    },
    {
      "id": "bursa-23",
      "name": "ŞAFAK ECZANESİ",
      "address": "SÜLEYMANİYE MAH. PARKYOLU CAD. NO:68/A,  (İNEGÖL DEVLET HASTANESİ POLİKLİNİKLER KAPISI KARŞISI) ,  0224 713 43 07 / 5537134307",
      "phone": "02247134307",
      "district": "İNEGÖL",
      "city": "Bursa",
      "latitude": 40.08238325758384,
      "longitude": 29.498262852430344,
      "dutyStart": "2026-03-02T18:00:00.000Z",
      "dutyEnd": "2026-03-03T08:30:00.000Z"
    },
    {
      "id": "bursa-24",
      "name": "İREM ECZANESİ",
      "address": "YENİ MAH. KENT CAD. NO:7/A,  (ALANYURT AĞIZ VE DİŞ SAĞLIĞI MERKEZİ ARKASI) ,  0224 719 10 19",
      "phone": "02247191019",
      "district": "İNEGÖL",
      "city": "Bursa",
      "latitude": 40.10734,
      "longitude": 29.516576,
      "dutyStart": "2026-03-02T18:00:00.000Z",
      "dutyEnd": "2026-03-03T01:00:00.000Z"
    },
    {
      "id": "bursa-25",
      "name": "İLGİ ECZANESİ",
      "address": "MAHMUT ÇELEBİ MAH. ATATÜRK CAD. LALE SOK. NO:2/B ,  0224 757 24 83 ,  Eczaneyi haritada görüntülemek için tıklayınız...",
      "phone": "02247572483",
      "district": "İZNİK",
      "city": "Bursa",
      "latitude": 40.428685,
      "longitude": 29.719999,
      "dutyStart": "2026-03-02T18:00:00.000Z",
      "dutyEnd": "2026-03-03T08:30:00.000Z"
    },
    {
      "id": "bursa-26",
      "name": "KARACABEY ECZANESİ",
      "address": "RUNGUÇPASA MAH. CUMHURİYET ALANI NO:2/A,  (ÜN OTEL ALTI) ,  0224 676 77 27 / 5423421091",
      "phone": "02246767727",
      "district": "KARACABEY",
      "city": "Bursa",
      "latitude": 40.21744,
      "longitude": 28.358746999999994,
      "dutyStart": "2026-03-02T18:00:00.000Z",
      "dutyEnd": "2026-03-03T08:30:00.000Z"
    },
    {
      "id": "bursa-27",
      "name": "KELES ECZANESİ",
      "address": "CUMA MAH. ATATÜRK CAD. NO:20/A ,  0224 861 23 63 ,  Eczaneyi haritada görüntülemek için tıklayınız...",
      "phone": "02248612363",
      "district": "KELES",
      "city": "Bursa",
      "latitude": 39.913008,
      "longitude": 29.233012,
      "dutyStart": "2026-03-02T18:00:00.000Z",
      "dutyEnd": "2026-03-03T08:30:00.000Z"
    },
    {
      "id": "bursa-28",
      "name": "AYRIK ECZANESİ",
      "address": "AHMET VEFİK PAŞA MAH. HAL CAD. NO:4/F ,  0224 503 45 05 ,  Eczaneyi haritada görüntülemek için tıklayınız...",
      "phone": "02245034505",
      "district": "KESTEL",
      "city": "Bursa",
      "latitude": 40.198328,
      "longitude": 29.203327,
      "dutyStart": "2026-03-02T18:00:00.000Z",
      "dutyEnd": "2026-03-03T08:30:00.000Z"
    },
    {
      "id": "bursa-29",
      "name": "DORUK ECZANESİ",
      "address": "ÇALI MAH. BURSA CAD. NO:38/B,  (İCAP NÖBETÇİDİR) ,  0535 209 54 15",
      "phone": "05352095415",
      "district": "NİLÜFER",
      "city": "Bursa",
      "latitude": 40.17164568691568,
      "longitude": 28.92117939814688,
      "dutyStart": "2026-03-02T18:00:00.000Z",
      "dutyEnd": "2026-03-02T20:00:00.000Z"
    },
    {
      "id": "bursa-30",
      "name": "ARZU ECZANESİ",
      "address": "GÜZELYALI EĞİTİM MAH. LİSE CAD. NO:25/D ,  0224 554 71 81 ,  Eczaneyi haritada görüntülemek için tıklayınız...",
      "phone": "02245547181",
      "district": "MUDANYA",
      "city": "Bursa",
      "latitude": 40.3515688,
      "longitude": 28.9283514,
      "dutyStart": "2026-03-02T18:00:00.000Z",
      "dutyEnd": "2026-03-03T08:30:00.000Z"
    },
    {
      "id": "bursa-31",
      "name": "MAVİ ADA ECZANESİ",
      "address": "HALİTPAŞA MAH. MUSTAFAKEMALPAŞA CAD. AY APT. A-BLOK NO:155,  (YENİ ADLİYE BİNASI KARŞISI) ,  0533 638 42 32",
      "phone": "05336384232",
      "district": "MUDANYA",
      "city": "Bursa",
      "latitude": 40.38071729913979,
      "longitude": 28.875892447643402,
      "dutyStart": "2026-03-02T18:00:00.000Z",
      "dutyEnd": "2026-03-03T08:30:00.000Z"
    },
    {
      "id": "bursa-32",
      "name": "ERDEM ECZANESİ",
      "address": "YUNUSEMRE MAH. SANAYİ SİTESİ 19.BLOK 43 NOLU SOK. NO:11 ,  0224 618 00 25 ,  Eczaneyi haritada görüntülemek için tıklayınız...",
      "phone": "02246180025",
      "district": "MUSTAFAKEMALPAŞA",
      "city": "Bursa",
      "latitude": 40.032584,
      "longitude": 28.383857000000035,
      "dutyStart": "2026-03-02T18:00:00.000Z",
      "dutyEnd": "2026-03-03T08:30:00.000Z"
    },
    {
      "id": "bursa-33",
      "name": "YALÇIN ECZANESİ",
      "address": "İSMETPAŞA MAH. CAMİ KARŞISI SOK. NO:3 ,  0224-8171286 / 0224-8171286 ,  Eczaneyi haritada görüntülemek için tıklayınız...",
      "phone": "02248171286",
      "district": "ORHANELİ",
      "city": "Bursa",
      "latitude": 39.902445,
      "longitude": 28.988786000000005,
      "dutyStart": "2026-03-02T18:00:00.000Z",
      "dutyEnd": "2026-03-03T08:30:00.000Z"
    },
    {
      "id": "bursa-34",
      "name": "PEKER ECZANESİ",
      "address": "ARAPZADE MAH. ARKALTI CAD. NO:34/AC ,  0224 573 43 33 ,  Eczaneyi haritada görüntülemek için tıklayınız...",
      "phone": "02245734333",
      "district": "ORHANGAZİ",
      "city": "Bursa",
      "latitude": 40.499489,
      "longitude": 29.309605,
      "dutyStart": "2026-03-02T18:00:00.000Z",
      "dutyEnd": "2026-03-03T08:30:00.000Z"
    },
    {
      "id": "bursa-35",
      "name": "DEMİRTAŞ ECZANESİ",
      "address": "DEMİRTAŞ CUMHURİYET MAH. KÜÇÜK SANAYİ 3.CAD. NO:67/A ,  0555 007 74 01 ,  Eczaneyi haritada görüntülemek için tıklayınız...",
      "phone": "05550077401",
      "district": "OSMANGAZİ",
      "city": "Bursa",
      "latitude": 40.264345325900365,
      "longitude": 29.096680717158733,
      "dutyStart": "2026-03-02T18:30:00.000Z",
      "dutyEnd": "2026-03-03T08:30:00.000Z"
    },
    {
      "id": "bursa-36",
      "name": "US ECZANESİ",
      "address": "ÇAYIR MAH. BURSA CAD. NO:55/A-B ,  0224 773 02 88 ,  Eczaneyi haritada görüntülemek için tıklayınız...",
      "phone": "02247730288",
      "district": "YENİŞEHİR",
      "city": "Bursa",
      "latitude": 40.266221,
      "longitude": 29.631266,
      "dutyStart": "2026-03-02T18:00:00.000Z",
      "dutyEnd": "2026-03-03T08:00:00.000Z"
    }
  ]
}