{
  "city": "bursa",
  "cityName": "Bursa",
  "cityId": 16,
  "date": "2026-02-28",
  "updatedAt": "2026-02-28T12:30:03.709Z",
  "count": 36,
  "pharmacies": [
    {
      "id": "bursa-0",
      "name": "EMRE ERYILMAZ ECZANESİ",
      "address": "İHSANİYE MAH. OKUL CAD. NO:68/A,  (CAVİT ÇAĞLAR ORTAOKULU ALTI - ŞOK MARKET YANI) ,  0224 408 48 98 / 0536 436 61 18",
      "phone": "02244084898",
      "district": "NİLÜFER",
      "city": "Bursa",
      "latitude": 40.221059,
      "longitude": 28.988036,
      "dutyStart": "2026-02-28T17:00:00.000Z",
      "dutyEnd": "2026-03-01T08:30:00.000Z"
    },
    {
      "id": "bursa-1",
      "name": "SİNEM ECZANESİ",
      "address": "KURTULUŞ MAH. 4(510).SOK. D-BLOK NO:16,  (GÖRÜKLE GÖÇMEN KONUTLARI ASM KARŞISI) ,  0224 470 08 28",
      "phone": "02244700828",
      "district": "NİLÜFER",
      "city": "Bursa",
      "latitude": 40.2173502,
      "longitude": 28.8246425,
      "dutyStart": "2026-02-28T17:00:00.000Z",
      "dutyEnd": "2026-03-01T08:30:00.000Z"
    },
    {
      "id": "bursa-2",
      "name": "SAYGIN ECZANESİ",
      "address": "DEMİRCİ MAH. KOŞUYOLU CAD. NO:1B/A,  (ÖZEL AYDIN OKULLARI KARŞI ÇAPRAZI) ,  0224-4941222",
      "phone": "02244941222",
      "district": "NİLÜFER",
      "city": "Bursa",
      "latitude": 40.1855118,
      "longitude": 28.9375367,
      "dutyStart": "2026-02-28T17:00:00.000Z",
      "dutyEnd": "2026-03-01T08:30:00.000Z"
    },
    {
      "id": "bursa-3",
      "name": "TANER ECZANESİ",
      "address": "100.YIL MAH. UĞUR MUMCU BULVARI NO:53B/G,  (ARENA AVM - 100.YIL METRO İSTASYONU) ,  0224 413 30 33",
      "phone": "02244133033",
      "district": "NİLÜFER",
      "city": "Bursa",
      "latitude": 40.21963587636907,
      "longitude": 28.90003261978518,
      "dutyStart": "2026-02-28T17:00:00.000Z",
      "dutyEnd": "2026-03-01T08:30:00.000Z"
    },
    {
      "id": "bursa-4",
      "name": "TUTKU KARÇAL ECZANESİ",
      "address": "BALAT MAH. FARUK BAYKAL CAD. NO:13/D,  (BALAT CEZAEVİ YOLU - İNALLAR HAYAT KARŞISI) ,  0224 502 33 25",
      "phone": "02245023325",
      "district": "NİLÜFER",
      "city": "Bursa",
      "latitude": 40.25894129683183,
      "longitude": 28.940233290195465,
      "dutyStart": "2026-02-28T17:00:00.000Z",
      "dutyEnd": "2026-03-01T08:30:00.000Z"
    },
    {
      "id": "bursa-5",
      "name": "HAN ECZANESİ",
      "address": "ATAEVLER MAH. FUZULİ CAD. NO:1F/C,  (BULVAR LOTUS SİTESİ ALTI - BİM VE A101 MARKETLERİ ARASI) ,  0224 504 05 45",
      "phone": "02245040545",
      "district": "NİLÜFER",
      "city": "Bursa",
      "latitude": 40.2172372,
      "longitude": 28.9536002,
      "dutyStart": "2026-02-28T17:00:00.000Z",
      "dutyEnd": "2026-03-01T08:30:00.000Z"
    },
    {
      "id": "bursa-6",
      "name": "HÜMA ECZANESİ",
      "address": "PANAYIR MAH. 2.DERMAN CAD. NO:56/A,  (44 NOLU PANAYIR AİLE SAĞLIĞI MERKEZİ YANI) ,  0224 211 15 15",
      "phone": "02242111515",
      "district": "OSMANGAZİ",
      "city": "Bursa",
      "latitude": 40.2448331,
      "longitude": 29.0662719,
      "dutyStart": "2026-02-28T17:00:00.000Z",
      "dutyEnd": "2026-03-01T08:30:00.000Z"
    },
    {
      "id": "bursa-7",
      "name": "KAPLICA ECZANESİ",
      "address": "MURADİYE MAH. PROF.DR.HALİL İNALCIK SOK. NO:14/B,  (KAPLICA CAD. MURADİYE SAĞLIK OCAĞI YANI) ,  0224 221 53 53",
      "phone": "02242215353",
      "district": "OSMANGAZİ",
      "city": "Bursa",
      "latitude": 40.19110345,
      "longitude": 29.04532626,
      "dutyStart": "2026-02-28T17:00:00.000Z",
      "dutyEnd": "2026-03-01T08:30:00.000Z"
    },
    {
      "id": "bursa-8",
      "name": "MİHRAPLI ECZANESİ",
      "address": "HÜDAVENDİGAR MAH. 2.HOŞDERE SOK. NO:8/B,  (BİSAŞ İLKOKULU SIRASI - MİHRAPLI CAMİ ÜSTÜ) ,  0224 376 00 72 / 5533829779",
      "phone": "02243760072",
      "district": "OSMANGAZİ",
      "city": "Bursa",
      "latitude": 40.201126065151946,
      "longitude": 29.006159348788636,
      "dutyStart": "2026-02-28T17:00:00.000Z",
      "dutyEnd": "2026-03-01T08:30:00.000Z"
    },
    {
      "id": "bursa-9",
      "name": "YALIN ECZANESİ",
      "address": "TUNA MAH. GÜRDAL CAD. NO:28/2A,  (CUMA PAZARI CAD. - FATİH İLKOKULU ALTI) ,  0224 273 32 32",
      "phone": "02242733232",
      "district": "OSMANGAZİ",
      "city": "Bursa",
      "latitude": 40.20769672311057,
      "longitude": 29.05802384459639,
      "dutyStart": "2026-02-28T17:00:00.000Z",
      "dutyEnd": "2026-03-01T08:30:00.000Z"
    },
    {
      "id": "bursa-10",
      "name": "HAMİTLER MACİT ECZANESİ",
      "address": "HAMİTLER MAH. NAR SOK. NO:9,  (PAZARTESİ PAZARI VE ASM YANI) ,  0224-2491133",
      "phone": "02242491133",
      "district": "OSMANGAZİ",
      "city": "Bursa",
      "latitude": 40.24221623,
      "longitude": 28.99708807,
      "dutyStart": "2026-02-28T17:00:00.000Z",
      "dutyEnd": "2026-03-01T08:30:00.000Z"
    },
    {
      "id": "bursa-11",
      "name": "HAŞİM ECZANESİ",
      "address": "DEMİRTAŞPAŞA MAH. GAZCILAR C.BAYAR CAD. NO:4/E,  (PETEK BOZKAYA İŞ MERKEZİ A-BLOK) ,  0224 272 50 40 / 0224 2725041",
      "phone": "02242725040",
      "district": "OSMANGAZİ",
      "city": "Bursa",
      "latitude": 40.18885267,
      "longitude": 29.07046258,
      "dutyStart": "2026-02-28T17:00:00.000Z",
      "dutyEnd": "2026-03-01T08:30:00.000Z"
    },
    {
      "id": "bursa-12",
      "name": "CANSIN ECZANESİ",
      "address": "ARABAYATAĞI MAH. BEYDERE SOK. NO:8,  (DEVLET MALZEME OFİSİ ALTI) ,  0224 366 50 37",
      "phone": "02243665037",
      "district": "YILDIRIM",
      "city": "Bursa",
      "latitude": 40.195009,
      "longitude": 29.1283258,
      "dutyStart": "2026-02-28T17:00:00.000Z",
      "dutyEnd": "2026-03-01T08:30:00.000Z"
    },
    {
      "id": "bursa-13",
      "name": "NAZENDE ECZANESİ",
      "address": "VATAN MAH. 14.ŞAHİN SOK. NO:1/A,  (YENİ VATAN SAĞLIK OCAĞI KARŞISI) ,  0224 362 98 96",
      "phone": "02243629896",
      "district": "YILDIRIM",
      "city": "Bursa",
      "latitude": 40.204916,
      "longitude": 29.090587,
      "dutyStart": "2026-02-28T17:00:00.000Z",
      "dutyEnd": "2026-03-01T08:30:00.000Z"
    },
    {
      "id": "bursa-14",
      "name": "İLİM ECZANESİ",
      "address": "NAMAZGAH MAH. IŞIKLAR CAD. NO:3/B,  (NAMAZGAH MEYDANI - GIYASETTİN BİNGÖL İLKOKULU YANI) ,  0224 364 38 37",
      "phone": "02243643837",
      "district": "YILDIRIM",
      "city": "Bursa",
      "latitude": 40.17838,
      "longitude": 29.07441700000004,
      "dutyStart": "2026-02-28T17:00:00.000Z",
      "dutyEnd": "2026-03-01T08:30:00.000Z"
    },
    {
      "id": "bursa-15",
      "name": "BAĞLAR ECZANESİ",
      "address": "ORTABAĞLAR MAH. AYDOĞDU CAD. NO:5,  (SALI PAZARI - ORTABAĞLAR ASM YANI) ,  0224-3681606",
      "phone": "02243681606",
      "district": "YILDIRIM",
      "city": "Bursa",
      "latitude": 40.18677495,
      "longitude": 29.11666632,
      "dutyStart": "2026-02-28T17:00:00.000Z",
      "dutyEnd": "2026-03-01T08:30:00.000Z"
    },
    {
      "id": "bursa-16",
      "name": "BÜYÜKORHAN ECZANESİ",
      "address": "ORHAN MAH. DR.İBRAHİM ÖKTEM CAD. NO:13/B ,  0224 841 23 70 ,  Eczaneyi haritada görüntülemek için tıklayınız...",
      "phone": "02248412370",
      "district": "BÜYÜKORHAN",
      "city": "Bursa",
      "latitude": 39.773187817429196,
      "longitude": 28.885376751422882,
      "dutyStart": "2026-02-28T17:00:00.000Z",
      "dutyEnd": "2026-03-01T08:30:00.000Z"
    },
    {
      "id": "bursa-17",
      "name": "NEŞE ECZANESİ",
      "address": "EŞREF DİNÇER MAH. ERİKLİ SOK. NO:32/D ,  0224-5145367 ,  Eczaneyi haritada görüntülemek için tıklayınız...",
      "phone": "02245145367",
      "district": "GEMLİK",
      "city": "Bursa",
      "latitude": 40.432355,
      "longitude": 29.161696000000006,
      "dutyStart": "2026-02-28T15:00:00.000Z",
      "dutyEnd": "2026-03-01T00:00:00.000Z"
    },
    {
      "id": "bursa-18",
      "name": "İREM ECZANESİ",
      "address": "BALIKPAZARI MAH. MEKTEP SOK. NO:18/A,  (ATATÜRK İLKOKULU ARKASI) ,  0224-5142242",
      "phone": "02245142242",
      "district": "GEMLİK",
      "city": "Bursa",
      "latitude": 40.43517862781503,
      "longitude": 29.15444791316986,
      "dutyStart": "2026-02-28T15:00:00.000Z",
      "dutyEnd": "2026-03-01T08:30:00.000Z"
    },
    {
      "id": "bursa-19",
      "name": "GÜLŞAH ECZANESİ",
      "address": "KURTULUŞ MAH. ATATÜRK CAD. NO:130 ,  0224-3719020 ,  Eczaneyi haritada görüntülemek için tıklayınız...",
      "phone": "02243719020",
      "district": "GÜRSU",
      "city": "Bursa",
      "latitude": 40.211832,
      "longitude": 29.192106999999965,
      "dutyStart": "2026-02-28T15:30:00.000Z",
      "dutyEnd": "2026-03-01T09:00:00.000Z"
    },
    {
      "id": "bursa-20",
      "name": "DERMAN ECZANESİ",
      "address": "MERKEZ MAH. FEVZİ PAŞA CAD. NO:11/1 ,  0224-8812295 ,  Eczaneyi haritada görüntülemek için tıklayınız...",
      "phone": "02248812295",
      "district": "HARMANCIK",
      "city": "Bursa",
      "latitude": 39.679107,
      "longitude": 29.155259,
      "dutyStart": "2026-02-28T08:30:00.000Z",
      "dutyEnd": "2026-03-01T08:30:00.000Z"
    },
    {
      "id": "bursa-21",
      "name": "AKAN ECZANESİ",
      "address": "SÜLEYMANİYE MAH. PARK YOLU CAD. NO:76/B ,  0224-7136664 ,  Eczaneyi haritada görüntülemek için tıklayınız...",
      "phone": "02247136664",
      "district": "İNEGÖL",
      "city": "Bursa",
      "latitude": 40.08251152059984,
      "longitude": 29.497097432613373,
      "dutyStart": "2026-02-28T17:00:00.000Z",
      "dutyEnd": "2026-03-01T08:30:00.000Z"
    },
    {
      "id": "bursa-22",
      "name": "BİZİM ECZANESİ",
      "address": "YENİ MAH. GÜLFİDAN SOK. NO:5/A ,  0552 462 49 46 ,  Eczaneyi haritada görüntülemek için tıklayınız...",
      "phone": "05524624946",
      "district": "İNEGÖL",
      "city": "Bursa",
      "latitude": 40.10176,
      "longitude": 29.52458,
      "dutyStart": "2026-02-28T17:00:00.000Z",
      "dutyEnd": "2026-03-01T01:00:00.000Z"
    },
    {
      "id": "bursa-23",
      "name": "AYŞENUR AKAN ECZANESİ",
      "address": "MAHMUDİYE MAH. KASIM EFENDİ CAD. NO:185/A,  (MAHMUDİYE MAH. MUHTARLIĞI YANI) ,  0224 713 23 31",
      "phone": "02247132331",
      "district": "İNEGÖL",
      "city": "Bursa",
      "latitude": 40.06864,
      "longitude": 29.51746,
      "dutyStart": "2026-02-28T17:00:00.000Z",
      "dutyEnd": "2026-03-01T01:00:00.000Z"
    },
    {
      "id": "bursa-24",
      "name": "İZNİK ECZANESİ",
      "address": "MUSTAFAKEMALPAŞA MAH. ORHANGAZİ CAD. NO:74/4,  (İZNİK DEVLET HASTANESİ YANI) ,  0224-7571017",
      "phone": "02247571017",
      "district": "İZNİK",
      "city": "Bursa",
      "latitude": 40.442758428094535,
      "longitude": 29.717105627059937,
      "dutyStart": "2026-02-28T08:30:00.000Z",
      "dutyEnd": "2026-03-01T08:30:00.000Z"
    },
    {
      "id": "bursa-25",
      "name": "ASLI ECZANESİ",
      "address": "SIRABADEMLER MAH. 241.SOK. NO: 104 ,  0224 676 16 15 ,  Eczaneyi haritada görüntülemek için tıklayınız...",
      "phone": "02246761615",
      "district": "KARACABEY",
      "city": "Bursa",
      "latitude": 40.204592,
      "longitude": 28.359032,
      "dutyStart": "2026-02-28T15:00:00.000Z",
      "dutyEnd": "2026-03-01T08:30:00.000Z"
    },
    {
      "id": "bursa-26",
      "name": "ŞİFA ECZANESİ",
      "address": "CUMA MAH. ATATÜRK CAD. ÇARŞI İÇİ NO:3/B ,  0224 861 21 64 ,  Eczaneyi haritada görüntülemek için tıklayınız...",
      "phone": "02248612164",
      "district": "KELES",
      "city": "Bursa",
      "latitude": 39.91276107279525,
      "longitude": 29.233170631710127,
      "dutyStart": "2026-02-28T00:00:00.000Z",
      "dutyEnd": "2026-03-01T00:00:00.000Z"
    },
    {
      "id": "bursa-27",
      "name": "BAYRAKTAR ECZANESİ",
      "address": "VANİ MEHMET MAH. ŞEHİT MUSTAFA KURT CAD. NO:20/A ,  0224 373 07 77 ,  Eczaneyi haritada görüntülemek için tıklayınız...",
      "phone": "02243730777",
      "district": "KESTEL",
      "city": "Bursa",
      "latitude": 40.196854651443445,
      "longitude": 29.2155674269445,
      "dutyStart": "2026-02-28T14:00:00.000Z",
      "dutyEnd": "2026-03-01T08:30:00.000Z"
    },
    {
      "id": "bursa-28",
      "name": "ÇALI CEREN ECZANESİ",
      "address": "ÇALI MAH. 149. SOKAK NO:4/A,  (İCAP NÖBETÇİDİR) ,  0224 482 28 28",
      "phone": "02244822828",
      "district": "NİLÜFER",
      "city": "Bursa",
      "latitude": 40.17215205635093,
      "longitude": 28.92035437203072,
      "dutyStart": "2026-02-28T10:00:00.000Z",
      "dutyEnd": "2026-02-28T20:00:00.000Z"
    },
    {
      "id": "bursa-29",
      "name": "AZİM ECZANESİ",
      "address": "YENİ MAH. ESKİ MUDANYA YOLU CAD. 518.SOK. NO:5/A,  (FALEZ EVLERİ / A-101 MARKET) ,  0224 554 44 23",
      "phone": "02245544423",
      "district": "MUDANYA",
      "city": "Bursa",
      "latitude": 40.355364,
      "longitude": 28.90928,
      "dutyStart": "2026-02-28T08:30:00.000Z",
      "dutyEnd": "2026-03-01T08:30:00.000Z"
    },
    {
      "id": "bursa-30",
      "name": "TUNA ECZANESİ",
      "address": "YENİ MAH. ÜNLÜ CAD. NO:18/14 ,  0224 544 95 90 / 5532295925 ,  Eczaneyi haritada görüntülemek için tıklayınız...",
      "phone": "02245449590",
      "district": "MUDANYA",
      "city": "Bursa",
      "latitude": 40.361872029220194,
      "longitude": 28.905321657657623,
      "dutyStart": "2026-02-28T08:30:00.000Z",
      "dutyEnd": "2026-03-01T08:30:00.000Z"
    },
    {
      "id": "bursa-31",
      "name": "SAVAŞ ECZANESİ",
      "address": "HAMZABEY MAH. DEĞİRMEN SOK. NO:16/B ,  0224-6139594 ,  Eczaneyi haritada görüntülemek için tıklayınız...",
      "phone": "02246139594",
      "district": "MUSTAFAKEMALPAŞA",
      "city": "Bursa",
      "latitude": 40.040522753730215,
      "longitude": 28.406660109758377,
      "dutyStart": "2026-02-28T17:00:00.000Z",
      "dutyEnd": "2026-03-01T08:30:00.000Z"
    },
    {
      "id": "bursa-32",
      "name": "ORAL ECZANESİ",
      "address": "İSMETPAŞA MAH. HASTANE SOK. NO:1 ,  0224 817 11 07 ,  Eczaneyi haritada görüntülemek için tıklayınız...",
      "phone": "02248171107",
      "district": "ORHANELİ",
      "city": "Bursa",
      "latitude": 39.906719,
      "longitude": 28.988620999999966,
      "dutyStart": "2026-02-28T08:30:00.000Z",
      "dutyEnd": "2026-03-01T08:30:00.000Z"
    },
    {
      "id": "bursa-33",
      "name": "EMİR ECZANESİ",
      "address": "MURADİYE MAH. TURİST YOLU ALTI SOK. NO:102 ,  0224-5750005 ,  Eczaneyi haritada görüntülemek için tıklayınız...",
      "phone": "02245750005",
      "district": "ORHANGAZİ",
      "city": "Bursa",
      "latitude": 40.492218,
      "longitude": 29.311735,
      "dutyStart": "2026-02-28T15:00:00.000Z",
      "dutyEnd": "2026-03-01T08:30:00.000Z"
    },
    {
      "id": "bursa-34",
      "name": "YEŞİM ÖNAL ECZANESİ",
      "address": "DEMİRTAŞ CUMHURİYET MAH. 4.CAD. OPTİMUM SİTESİ A-BLOK NO:116/117,  (BAKYAPI PRESTİJ OPTİMUM AVM - BURSA MODERN ANA GİRİŞ KAPISI KARŞISI) ,  0224 277 00 16",
      "phone": "02242770016",
      "district": "OSMANGAZİ",
      "city": "Bursa",
      "latitude": 40.2459,
      "longitude": 29.0879409,
      "dutyStart": "2026-02-28T17:00:00.000Z",
      "dutyEnd": "2026-03-01T08:30:00.000Z"
    },
    {
      "id": "bursa-35",
      "name": "ENGİN ECZANESİ",
      "address": "YENİ MAH. YARIMAĞA SOK. NO:33-1/A ,  0224-7731160 ,  Eczaneyi haritada görüntülemek için tıklayınız...",
      "phone": "02247731160",
      "district": "YENİŞEHİR",
      "city": "Bursa",
      "latitude": 40.267959,
      "longitude": 29.651850999999965,
      "dutyStart": "2026-02-28T08:00:00.000Z",
      "dutyEnd": "2026-03-01T08:00:00.000Z"
    }
  ]
}