{
  "city": "bursa",
  "cityName": "Bursa",
  "cityId": 16,
  "date": "2026-02-28",
  "updatedAt": "2026-02-28T05:30:04.105Z",
  "count": 24,
  "pharmacies": [
    {
      "id": "bursa-0",
      "name": "MERT ECZANESİ",
      "address": "KURTULUŞ MAH. 1.(510) SOK. NO:1-A/B,  (GÖRÜKLE GÖÇMEN KONUTLARI ASM KARŞISI VE PSİKİYATRİ HASTANESİ YUKARISI) ,  0224 999 52 82",
      "phone": "02249995282",
      "district": "NİLÜFER",
      "city": "Bursa",
      "latitude": 40.21784527319595,
      "longitude": 28.825136011901627,
      "dutyStart": "2026-02-27T18:30:00.000Z",
      "dutyEnd": "2026-02-28T10:00:00.000Z"
    },
    {
      "id": "bursa-1",
      "name": "YÜZÜNCÜYIL ECZANESİ",
      "address": "100.YIL MAH. PROF.DR.ERDAL İNÖNÜ CAD. NO:25/G7,  (100.YIL ASM KARŞISI - ÖZLÜCE GARANTİ BANKASI YANI) ,  0224 413 12 22",
      "phone": "02244131222",
      "district": "NİLÜFER",
      "city": "Bursa",
      "latitude": 40.2258003,
      "longitude": 28.906237,
      "dutyStart": "2026-02-27T18:30:00.000Z",
      "dutyEnd": "2026-02-28T10:00:00.000Z"
    },
    {
      "id": "bursa-2",
      "name": "ÇAKIL ECZANESİ",
      "address": "ODUNLUK MAH. AKPINAR CAD. NO:12/A-B,  (ÖZEL MEDICANA HASTANESİ ACİL KARŞISI - PARK ORA YANI) ,  0224 453 05 16",
      "phone": "02244530516",
      "district": "NİLÜFER",
      "city": "Bursa",
      "latitude": 40.21147072761624,
      "longitude": 28.9989050176659,
      "dutyStart": "2026-02-27T18:30:00.000Z",
      "dutyEnd": "2026-02-28T10:00:00.000Z"
    },
    {
      "id": "bursa-3",
      "name": "SANAT ECZANESİ",
      "address": "İHSANİYE MAH. FATİH CAD. NO:8/A,  (VERGİ DAİRELERİ ALTI - MUHTARLIK KARŞISI) ,  0224 249 80 00",
      "phone": "02242498000",
      "district": "NİLÜFER",
      "city": "Bursa",
      "latitude": 40.22070913889266,
      "longitude": 28.986900374293327,
      "dutyStart": "2026-02-27T18:30:00.000Z",
      "dutyEnd": "2026-02-28T10:00:00.000Z"
    },
    {
      "id": "bursa-4",
      "name": "MEDİNE ECZANESİ",
      "address": "KÜLTÜR MAH. BİLGİNLER CAD. NO:101/A,  (İBRAHİM YAZICI STADYUMU KARŞI CAD. - SANABEL KONAKLARI SIRASI) ,  0224 443 50 09",
      "phone": "02244435009",
      "district": "NİLÜFER",
      "city": "Bursa",
      "latitude": 40.20543078192513,
      "longitude": 28.963464123488663,
      "dutyStart": "2026-02-27T18:30:00.000Z",
      "dutyEnd": "2026-02-28T10:00:00.000Z"
    },
    {
      "id": "bursa-5",
      "name": "GALEN ECZANESİ",
      "address": "ÇAMLICA MAH. LEFKOŞE CAD. NO:126A/A,  (ODUNLUK KAVŞAĞI MİGROS VE ÖZHAN MARKET ARASI) ,  0224 327 80 94 / 5053055416",
      "phone": "02243278094",
      "district": "NİLÜFER",
      "city": "Bursa",
      "latitude": 40.194834672406174,
      "longitude": 28.98832112891964,
      "dutyStart": "2026-02-27T18:30:00.000Z",
      "dutyEnd": "2026-02-28T10:00:00.000Z"
    },
    {
      "id": "bursa-6",
      "name": "KÜKÜRTLÜ SAĞLIK ECZANESİ",
      "address": "KÜKÜRTLÜ MAH. KONCA SOK. NO:6/B,  (ÖZEL ÇEKİRGE KALP VE ARİTMİ HASTANESİ ARKASI) ,  0224 236 42 43",
      "phone": "02242364243",
      "district": "OSMANGAZİ",
      "city": "Bursa",
      "latitude": 40.20554735645119,
      "longitude": 29.02110069849618,
      "dutyStart": "2026-02-27T18:30:00.000Z",
      "dutyEnd": "2026-02-28T10:00:00.000Z"
    },
    {
      "id": "bursa-7",
      "name": "ÖZMEN ECZANESİ",
      "address": "ŞEHABETTİNPAŞA MAH. ÇEŞMECİ SOK. NO:1,  (ALTIPARMAK CAD. ÇATALFIRIN ŞEHABETTİNPAŞA CAMİ ALTI) ,  0224 222 97 10 / 0224 2248833",
      "phone": "02242229710",
      "district": "OSMANGAZİ",
      "city": "Bursa",
      "latitude": 40.18895563001342,
      "longitude": 29.05706763337298,
      "dutyStart": "2026-02-27T18:30:00.000Z",
      "dutyEnd": "2026-02-28T10:00:00.000Z"
    },
    {
      "id": "bursa-8",
      "name": "SOBACIOĞLU ECZANESİ",
      "address": "KÜPLÜPINAR MAH. 6.DİCLE SOK. NO:12/A,  (KÜPLÜPINAR SAĞLIK OCAĞI KARŞISI) ,  0224-2711666",
      "phone": "02242711666",
      "district": "OSMANGAZİ",
      "city": "Bursa",
      "latitude": 40.205468,
      "longitude": 29.05502361,
      "dutyStart": "2026-02-27T18:30:00.000Z",
      "dutyEnd": "2026-02-28T10:00:00.000Z"
    },
    {
      "id": "bursa-9",
      "name": "GEÇİT ALİ ECZANESİ",
      "address": "GEÇİT MAH. SANAYİ CAD. EVKE PLAZA NO:646/A,  (MUDANYA YOLU ÜZERİ - ENDÜLÜS PARK AVM KARŞISI) ,  0224 243 23 73 / 0224 243 73 93",
      "phone": "02242432373",
      "district": "OSMANGAZİ",
      "city": "Bursa",
      "latitude": 40.262327,
      "longitude": 28.950891,
      "dutyStart": "2026-02-27T18:30:00.000Z",
      "dutyEnd": "2026-02-28T10:00:00.000Z"
    },
    {
      "id": "bursa-10",
      "name": "ERSOY ECZANESİ",
      "address": "GÜLBAHÇE MAH. VARDAR CAD. NO:42,  (ŞEHİT ŞERAFETTİN YILMAZ KARAKOLU ÜSTÜ) ,  0224 271 97 83",
      "phone": "02242719783",
      "district": "OSMANGAZİ",
      "city": "Bursa",
      "latitude": 40.19751937,
      "longitude": 29.07278538,
      "dutyStart": "2026-02-27T18:30:00.000Z",
      "dutyEnd": "2026-02-28T10:00:00.000Z"
    },
    {
      "id": "bursa-11",
      "name": "YETKİN ECZANESİ",
      "address": "HAMİTLER MAH. NAR SOK. NO:3/A,  (PAZARTESİ PAZARI İÇİ - ASM YANI) ,  0224 245 75 11 / 0546 123 79 54",
      "phone": "02242457511",
      "district": "OSMANGAZİ",
      "city": "Bursa",
      "latitude": 40.24240459,
      "longitude": 28.99608493,
      "dutyStart": "2026-02-27T18:30:00.000Z",
      "dutyEnd": "2026-02-28T10:00:00.000Z"
    },
    {
      "id": "bursa-12",
      "name": "BOZATLI ECZANESİ",
      "address": "SELÇUKBEY MAH. 2.GÜNGÖR SOK. NO:16/A,  (MESKEN KANAL CAD. - DR.SADIK AHMET SPOR TESİSLERİ ALTI) ,  0224 369 22 22 / 5524432220",
      "phone": "02243692222",
      "district": "YILDIRIM",
      "city": "Bursa",
      "latitude": 40.18142889540931,
      "longitude": 29.114480137210222,
      "dutyStart": "2026-02-27T18:30:00.000Z",
      "dutyEnd": "2026-02-28T10:00:00.000Z"
    },
    {
      "id": "bursa-13",
      "name": "SAFA SAĞLIK ECZANESİ",
      "address": "HACİVAT MAH. C-304. SOK. NO:9,  (SOMUNCU BABA CAMİ KARŞISI) ,  0224 341 01 01",
      "phone": "02243410101",
      "district": "YILDIRIM",
      "city": "Bursa",
      "latitude": 40.194441,
      "longitude": 29.148228,
      "dutyStart": "2026-02-27T18:30:00.000Z",
      "dutyEnd": "2026-02-28T10:00:00.000Z"
    },
    {
      "id": "bursa-14",
      "name": "IŞITAN ECZANESİ",
      "address": "MİLLET MAH. VATAN CAD. NO:283/A,  (MİLLET MAH. ANA CADDESİ) ,  0224-3515007",
      "phone": "02243515007",
      "district": "YILDIRIM",
      "city": "Bursa",
      "latitude": 40.2110918,
      "longitude": 29.101991,
      "dutyStart": "2026-02-27T18:30:00.000Z",
      "dutyEnd": "2026-02-28T10:00:00.000Z"
    },
    {
      "id": "bursa-15",
      "name": "TUNA SAĞLIK ECZANESİ",
      "address": "MEHMET AKİF ERSOY MAH. T.M.ALİ CAD. NO:55/B ,  (ESKİ DAVUTKADI POLİS MERKEZİ ÇAPRAZI) ,  0224 362 50 77",
      "phone": "02243625077",
      "district": "YILDIRIM",
      "city": "Bursa",
      "latitude": 40.18272,
      "longitude": 29.0912186,
      "dutyStart": "2026-02-27T18:30:00.000Z",
      "dutyEnd": "2026-02-28T10:00:00.000Z"
    },
    {
      "id": "bursa-16",
      "name": "SEVİNÇ SARAL ECZANESİ",
      "address": "CUMHURİYET MAH. GÜL CAD. NO:184/B ,  0224-5132973 ,  Eczaneyi haritada görüntülemek için tıklayınız...",
      "phone": "02245132973",
      "district": "GEMLİK",
      "city": "Bursa",
      "latitude": 40.432557,
      "longitude": 29.154678999999987,
      "dutyStart": "2026-02-27T18:30:00.000Z",
      "dutyEnd": "2026-02-28T09:30:00.000Z"
    },
    {
      "id": "bursa-17",
      "name": "KAFKAS ECZANESİ",
      "address": "ZAFER MAH. ZAFER CAD. NO:54/A ,  0224 371 00 18 ,  Eczaneyi haritada görüntülemek için tıklayınız...",
      "phone": "02243710018",
      "district": "GÜRSU",
      "city": "Bursa",
      "latitude": 40.21996160209907,
      "longitude": 29.189997911453247,
      "dutyStart": "2026-02-27T18:30:00.000Z",
      "dutyEnd": "2026-02-28T10:00:00.000Z"
    },
    {
      "id": "bursa-18",
      "name": "BURAK ECZANESİ",
      "address": "SÜLEYMANİYE MAH. DESTAN SOK. NO:3,  (ÖZEL ARİTMİ HASTANESİ ACİL KAPISI ÇAPRAZI) ,  0224 713 50 08",
      "phone": "02247135008",
      "district": "İNEGÖL",
      "city": "Bursa",
      "latitude": 40.08906,
      "longitude": 29.49483,
      "dutyStart": "2026-02-27T18:00:00.000Z",
      "dutyEnd": "2026-02-28T10:30:00.000Z"
    },
    {
      "id": "bursa-19",
      "name": "SEZER ECZANESİ",
      "address": "ESENTEPE MAH. 189.SOK. NO:8/1 ,  0224 662 10 00 ,  Eczaneyi haritada görüntülemek için tıklayınız...",
      "phone": "02246621000",
      "district": "KARACABEY",
      "city": "Bursa",
      "latitude": 40.21709504431086,
      "longitude": 28.368687521495758,
      "dutyStart": "2026-02-27T18:00:00.000Z",
      "dutyEnd": "2026-02-28T09:30:00.000Z"
    },
    {
      "id": "bursa-20",
      "name": "ZAFER ECZANESİ",
      "address": "ESENTEPE MAH. ESEN SOK. NO:3/20 ,  0224-3720280 ,  Eczaneyi haritada görüntülemek için tıklayınız...",
      "phone": "02243720280",
      "district": "KESTEL",
      "city": "Bursa",
      "latitude": 40.201114806312745,
      "longitude": 29.225065112113953,
      "dutyStart": "2026-02-27T18:00:00.000Z",
      "dutyEnd": "2026-02-28T10:00:00.000Z"
    },
    {
      "id": "bursa-21",
      "name": "ERSİN ECZANESİ",
      "address": "YUNUSEMRE MAH. FEVZİPAŞA CAD. NO:233 ,  0224 614 24 24 ,  Eczaneyi haritada görüntülemek için tıklayınız...",
      "phone": "02246142424",
      "district": "MUSTAFAKEMALPAŞA",
      "city": "Bursa",
      "latitude": 40.033477956117245,
      "longitude": 28.388390243053436,
      "dutyStart": "2026-02-27T18:00:00.000Z",
      "dutyEnd": "2026-02-28T10:00:00.000Z"
    },
    {
      "id": "bursa-22",
      "name": "MERVE ECZANESİ",
      "address": "ARAPZADE MAH. MİMOZA SOK. NO:13/A ,  0224 573 22 23 ,  Eczaneyi haritada görüntülemek için tıklayınız...",
      "phone": "02245732223",
      "district": "ORHANGAZİ",
      "city": "Bursa",
      "latitude": 40.498833,
      "longitude": 29.303784,
      "dutyStart": "2026-02-27T18:00:00.000Z",
      "dutyEnd": "2026-02-28T09:30:00.000Z"
    },
    {
      "id": "bursa-23",
      "name": "OKYANUS ECZANESİ",
      "address": "DEMİRTAŞ DUMLUPINAR MAH. 47.CAD. NO:66/A,  (DOSAB SEMT POLİKLİNİĞİ YANI) ,  0224-2621474",
      "phone": "02242621474",
      "district": "OSMANGAZİ",
      "city": "Bursa",
      "latitude": 40.270426380758956,
      "longitude": 29.080321043729782,
      "dutyStart": "2026-02-27T18:30:00.000Z",
      "dutyEnd": "2026-02-28T10:00:00.000Z"
    }
  ]
}