{
  "city": "gaziantep",
  "cityName": "Gaziantep",
  "cityId": 27,
  "date": "2026-02-16",
  "updatedAt": "2026-02-16T15:00:07.329Z",
  "count": 21,
  "pharmacies": [
    {
      "id": "gaziantep-0",
      "name": "GÖKÇE AĞAR ECZANESİ",
      "address": "Ünaldı mahallesi hasip dürri caddesi no 48/a",
      "phone": "03422257781",
      "district": "Şahi̇nbey",
      "city": "Gaziantep",
      "latitude": 37.022447,
      "longitude": 37.338689,
      "dutyStart": "2026-02-16T08:30:00.000Z",
      "dutyEnd": "2026-02-17T08:30:00.000Z"
    },
    {
      "id": "gaziantep-1",
      "name": "BERFİN ECZANESİ",
      "address": "Gümüştekin mahallesi 14011 nolu sok no:38/A (19 Mayıs Lisesi Civarı-Cumhuriyet Sağlık Ocağı Yanı)",
      "phone": "05067959241",
      "district": "Şahi̇nbey",
      "city": "Gaziantep",
      "latitude": 37.052997,
      "longitude": 37.362407,
      "dutyStart": "2026-02-16T08:30:00.000Z",
      "dutyEnd": "2026-02-17T08:30:00.000Z"
    },
    {
      "id": "gaziantep-2",
      "name": "BOTAN ECZANESİ",
      "address": "Güzelvadi Mh CENGİZ TOPEL CAD..9 Nolu Sk. (Düztepe Cergibozanlar Market Yanı)",
      "phone": "03422720068",
      "district": "Şahi̇nbey",
      "city": "Gaziantep",
      "latitude": 37.043537,
      "longitude": 37.392345,
      "dutyStart": "2026-02-16T08:30:00.000Z",
      "dutyEnd": "2026-02-17T08:30:00.000Z"
    },
    {
      "id": "gaziantep-3",
      "name": "YETİŞKİN ECZANESİ",
      "address": "BINEVLER MAH. 14 NOLU CAD. NO:27 (Binevler Sağlık Ocağı Karşısı)",
      "phone": "03423360777",
      "district": "Şahi̇nbey",
      "city": "Gaziantep",
      "latitude": 37.057621,
      "longitude": 37.333851,
      "dutyStart": "2026-02-16T08:30:00.000Z",
      "dutyEnd": "2026-02-17T08:30:00.000Z"
    },
    {
      "id": "gaziantep-4",
      "name": "TEKBAŞ ECZANESİ",
      "address": "Akkent Mahallesi 134016 Nolu Cadde No:1BB(ŞAHİNBEY MİLLET CAMİİ GİRİŞ TARAFI/ ERCAN OYUNCAK, TAMBU BAKLAVA ARKA SOKAĞI)",
      "phone": "05457283827",
      "district": "Şahi̇nbey",
      "city": "Gaziantep",
      "latitude": 37.019394,
      "longitude": 37.367458,
      "dutyStart": "2026-02-16T08:30:00.000Z",
      "dutyEnd": "2026-02-17T08:30:00.000Z"
    },
    {
      "id": "gaziantep-5",
      "name": "CEVİZLİ ECZANESİ",
      "address": "Güneykent Mahallesi 102282 Nolu Sokak No:2 (Sembol Market ve Türk Petrol Karşısı Beşyüzevler Sağlık Ocağı Yanı)(defa life hastanesi civarı)",
      "phone": "03425020937",
      "district": "Şahi̇nbey",
      "city": "Gaziantep",
      "latitude": 37.025524,
      "longitude": 37.323017,
      "dutyStart": "2026-02-16T08:30:00.000Z",
      "dutyEnd": "2026-02-17T08:30:00.000Z"
    },
    {
      "id": "gaziantep-6",
      "name": "AYDINER ECZANESI",
      "address": "Deniz Mh.40 Nolu Cd.N:18(Üçler Halı Saha-M.Ali Özkara Asm Yanı)",
      "phone": "03423603099",
      "district": "Şahi̇nbey",
      "city": "Gaziantep",
      "latitude": 37.042287,
      "longitude": 37.33078,
      "dutyStart": "2026-02-16T08:30:00.000Z",
      "dutyEnd": "2026-02-17T08:30:00.000Z"
    },
    {
      "id": "gaziantep-7",
      "name": "EVREN ECZANESİ",
      "address": "ERTUĞRULGAZİ MAHALLESİ 189012 NOLU CADDE NO:10/B (DOĞUSER SERAMİK KARŞI SOKAĞI-ERTUĞRULGAZİ 32 NOLU SAĞLIK OCAĞI KARŞISI)",
      "phone": "05385969027",
      "district": "Şahi̇nbey",
      "city": "Gaziantep",
      "latitude": 37.031166,
      "longitude": 37.352466,
      "dutyStart": "2026-02-16T08:30:00.000Z",
      "dutyEnd": "2026-02-17T08:30:00.000Z"
    },
    {
      "id": "gaziantep-8",
      "name": "KASAPBAŞI ECZANESİ",
      "address": "MÜCAHİTLER MAH. 52063 NO:1/B (Medicalpark Hastanesi Acil Karşısı)",
      "phone": "03423230052",
      "district": "Şehi̇tkami̇l",
      "city": "Gaziantep",
      "latitude": 37.075459,
      "longitude": 37.370716,
      "dutyStart": "2026-02-16T08:30:00.000Z",
      "dutyEnd": "2026-02-17T08:30:00.000Z"
    },
    {
      "id": "gaziantep-9",
      "name": "NİSA KOÇAK ECZANESİ",
      "address": "Mücahitler Mah. Ali Fuat Cebesoy Bulvarı No:70/ B Çetinkaya-Kalyon Kavşağı Arası ı)",
      "phone": "03423212626",
      "district": "Şehi̇tkami̇l",
      "city": "Gaziantep",
      "latitude": 37.073895,
      "longitude": 37.362255,
      "dutyStart": "2026-02-16T08:30:00.000Z",
      "dutyEnd": "2026-02-17T08:30:00.000Z"
    },
    {
      "id": "gaziantep-10",
      "name": "YEŞİM ECZANESİ",
      "address": "Batikent Mh..Sehriban Ozbiçer Sağ. Ocağı .(Batıkent Market Oli civarı)",
      "phone": "03423410619",
      "district": "Şehi̇tkami̇l",
      "city": "Gaziantep",
      "latitude": 37.07622,
      "longitude": 37.33388,
      "dutyStart": "2026-02-16T08:30:00.000Z",
      "dutyEnd": "2026-02-17T08:30:00.000Z"
    },
    {
      "id": "gaziantep-11",
      "name": "İNCİ ECZANESİ",
      "address": "Fevzi Çakmak Bul. N:42/C (25 Aralık Devlet Hastanesi Acil Karşısı-Tramvay Durağı Yanı)",
      "phone": "03423391000",
      "district": "Şehi̇tkami̇l",
      "city": "Gaziantep",
      "latitude": 37.066738,
      "longitude": 37.361652,
      "dutyStart": "2026-02-16T08:30:00.000Z",
      "dutyEnd": "2026-02-17T08:30:00.000Z"
    },
    {
      "id": "gaziantep-12",
      "name": "PERA ECZANESİ",
      "address": "Seyrantepe Mahallesi Hacı Mahmut Deniz Caddesi No:3/A (Liv Hospital Acil Yanı)",
      "phone": "05057971011",
      "district": "Şehi̇tkami̇l",
      "city": "Gaziantep",
      "latitude": 37.06675232813354,
      "longitude": 37.38321304321289,
      "dutyStart": "2026-02-16T08:30:00.000Z",
      "dutyEnd": "2026-02-17T08:30:00.000Z"
    },
    {
      "id": "gaziantep-13",
      "name": "KAYAÖNÜ HİLAL ECZANESİ",
      "address": "Pir Sultan Mh. Çetin Emeç Cd.N:83(Şehitkamil Dev.HastYanı)",
      "phone": "03423235463",
      "district": "Şehi̇tkami̇l",
      "city": "Gaziantep",
      "latitude": 37.068138,
      "longitude": 37.369305,
      "dutyStart": "2026-02-16T08:30:00.000Z",
      "dutyEnd": "2026-02-17T08:30:00.000Z"
    },
    {
      "id": "gaziantep-14",
      "name": "ŞULE ECZANESİ",
      "address": "Gaziler Mahallesi 154080 Nolu Cadde No:56/E (Çelik plaza altı, Basın yayın sitesi karşısı)",
      "phone": "05422125727",
      "district": "Şehi̇tkami̇l",
      "city": "Gaziantep",
      "latitude": 37.093624,
      "longitude": 37.390308,
      "dutyStart": "2026-02-16T08:30:00.000Z",
      "dutyEnd": "2026-02-17T08:30:00.000Z"
    },
    {
      "id": "gaziantep-15",
      "name": "ÖTKÜN ECZANESI",
      "address": "FATIH SULTAN MAH. BARAK SOK. NO:40/1 (Devlet Hastanesi Karşısı) NİZİP",
      "phone": "03425177122",
      "district": "Ni̇zi̇p",
      "city": "Gaziantep",
      "latitude": 37.009186,
      "longitude": 37.800485,
      "dutyStart": "2026-02-16T08:30:00.000Z",
      "dutyEnd": "2026-02-17T08:30:00.000Z"
    },
    {
      "id": "gaziantep-16",
      "name": "MURAT ECZANESİ",
      "address": "TURGUT ÖZAL MAHALLESİ CEZAEVİ CADDESİ NO:39/E",
      "phone": "03426112243",
      "district": "Araban",
      "city": "Gaziantep",
      "latitude": 37.418968,
      "longitude": 37.682264,
      "dutyStart": "2026-02-16T08:30:00.000Z",
      "dutyEnd": "2026-02-17T08:30:00.000Z"
    },
    {
      "id": "gaziantep-17",
      "name": "OĞUZELİ ECZANESİ",
      "address": "OĞUZLAR MAHALLESİ VİLAYET CADDESİ NO:13/A-B (Oğuzeli kaymakamlığı karşısı)",
      "phone": "03425713143",
      "district": "Oğuzeli̇",
      "city": "Gaziantep",
      "latitude": 37.06675232813354,
      "longitude": 37.38321304321289,
      "dutyStart": "2026-02-16T08:30:00.000Z",
      "dutyEnd": "2026-02-17T08:30:00.000Z"
    },
    {
      "id": "gaziantep-18",
      "name": "ESRANUR ECZANESİ",
      "address": "Beyler Mah. 179 Nolu Sokak No:4/A",
      "phone": "05333128638",
      "district": "İslahi̇ye",
      "city": "Gaziantep",
      "latitude": 37.06675232813354,
      "longitude": 37.38321304321289,
      "dutyStart": "2026-02-16T08:30:00.000Z",
      "dutyEnd": "2026-02-17T08:30:00.000Z"
    },
    {
      "id": "gaziantep-19",
      "name": "karanfil Eczanesi",
      "address": "Bahçelievler Mahallesi Hilmi Kutlubay Caddesi No:19/1",
      "phone": "",
      "district": "Nurdaği",
      "city": "Gaziantep",
      "latitude": 37.06675232813354,
      "longitude": 37.38321304321289,
      "dutyStart": "2026-02-16T08:30:00.000Z",
      "dutyEnd": "2026-02-17T08:30:00.000Z"
    },
    {
      "id": "gaziantep-20",
      "name": "KÜNDEŞ ECZANESİ",
      "address": "Sultan Selim Mah. Araban Caddesi No:56/2D",
      "phone": "05434606056",
      "district": "Yavuzeli̇",
      "city": "Gaziantep",
      "latitude": 37.06675232813354,
      "longitude": 37.38321304321289,
      "dutyStart": "2026-02-16T08:30:00.000Z",
      "dutyEnd": "2026-02-17T08:30:00.000Z"
    }
  ]
}