{
  "city": "istanbul",
  "cityName": "İstanbul",
  "cityId": 34,
  "date": "2026-02-26",
  "updatedAt": "2026-02-26T06:31:00.677Z",
  "count": 133,
  "pharmacies": [
    {
      "id": "istanbul-26282",
      "name": "3 GÜL ECZANESİ",
      "address": "Atatürk Mahallesi, Sütçü İmam Caddesi, N 69/B",
      "phone": "+902162510133",
      "district": "ÜMRANİYE",
      "city": "İstanbul",
      "latitude": 41.02404999972076,
      "longitude": 29.090511999898585,
      "dutyStart": "2026-02-25T21:00:00.000Z",
      "dutyEnd": "2026-02-26T20:59:59.000Z"
    },
    {
      "id": "istanbul-31700",
      "name": "AKSOY ECZANESİ",
      "address": "Mehmet Nesih Özmen Mahallesi, Fatih Caddesi, No:41/1",
      "phone": "+902126374239",
      "district": "GÜNGÖREN",
      "city": "İstanbul",
      "latitude": 41.01563614787265,
      "longitude": 28.88318329635403,
      "dutyStart": "2026-02-25T21:00:00.000Z",
      "dutyEnd": "2026-02-26T20:59:59.000Z"
    },
    {
      "id": "istanbul-21524",
      "name": "AKİF TOPRAK ECZANESİ",
      "address": "Acıbadem Mahallesi, Şehit Emin Çölen Sokak, 16/B",
      "phone": "+902168208888",
      "district": "KADIKÖY",
      "city": "İstanbul",
      "latitude": 41.00307300025815,
      "longitude": 29.045416999779746,
      "dutyStart": "2026-02-25T21:00:00.000Z",
      "dutyEnd": "2026-02-26T20:59:59.000Z"
    },
    {
      "id": "istanbul-30778",
      "name": "AKŞEMSETTİN ECZANESİ",
      "address": "Hırka-i Şerif Mahallesi, Akşemsettin Caddesi, 34/A",
      "phone": "+902125321856",
      "district": "FATİH",
      "city": "İstanbul",
      "latitude": 41.020484999580376,
      "longitude": 28.941606999826874,
      "dutyStart": "2026-02-25T21:00:00.000Z",
      "dutyEnd": "2026-02-26T20:59:59.000Z"
    },
    {
      "id": "istanbul-9092",
      "name": "ALEMDAR ECZANESİ",
      "address": "Etiler Mahallesi, Özden Sokak, 9/G",
      "phone": "+902122630901",
      "district": "BEŞİKTAŞ",
      "city": "İstanbul",
      "latitude": 41.08850694907966,
      "longitude": 29.042248445744963,
      "dutyStart": "2026-02-25T21:00:00.000Z",
      "dutyEnd": "2026-02-26T20:59:59.000Z"
    },
    {
      "id": "istanbul-21540",
      "name": "ANADOLU ECZANESİ",
      "address": "75. Yıl Mahallesi, Istıklal Caddesi, 19",
      "phone": "+902126507790",
      "district": "SULTANGAZİ",
      "city": "İstanbul",
      "latitude": 41.09649478759346,
      "longitude": 28.90767445726076,
      "dutyStart": "2026-02-25T21:00:00.000Z",
      "dutyEnd": "2026-02-26T20:59:59.000Z"
    },
    {
      "id": "istanbul-22002",
      "name": "ATAKENT ECZANESİ",
      "address": "Atakent Mahallesi, 5. Caddesi, 4/7",
      "phone": "+902124724011",
      "district": "KÜÇÜKÇEKMECE",
      "city": "İstanbul",
      "latitude": 41.05043201724048,
      "longitude": 28.784061906664814,
      "dutyStart": "2026-02-25T21:00:00.000Z",
      "dutyEnd": "2026-02-26T20:59:59.000Z"
    },
    {
      "id": "istanbul-21138",
      "name": "ATAŞEHİR ŞİFA ECZANESİ",
      "address": "Küçükbakkalköy Mahallesi, Şenlik Sokak, 16/A",
      "phone": "+902165774757",
      "district": "ATAŞEHİR",
      "city": "İstanbul",
      "latitude": 40.98484587419648,
      "longitude": 29.10948374749293,
      "dutyStart": "2026-02-25T21:00:00.000Z",
      "dutyEnd": "2026-02-26T20:59:59.000Z"
    },
    {
      "id": "istanbul-13732",
      "name": "ATEŞ ECZANESİ",
      "address": "Merkez Mahallesi, Çobançeşme Caddesi, 13/A",
      "phone": "+902122950785",
      "district": "KAĞITHANE",
      "city": "İstanbul",
      "latitude": 41.08178399972166,
      "longitude": 28.971287999506792,
      "dutyStart": "2026-02-25T21:00:00.000Z",
      "dutyEnd": "2026-02-26T20:59:59.000Z"
    },
    {
      "id": "istanbul-22512",
      "name": "AVİS ECZANESİ",
      "address": "Göztepe Mahallesi, Metin Sokak, 11/A",
      "phone": "+902125626043",
      "district": "BAĞCILAR",
      "city": "İstanbul",
      "latitude": 41.05887959205642,
      "longitude": 28.84182719803927,
      "dutyStart": "2026-02-25T21:00:00.000Z",
      "dutyEnd": "2026-02-26T20:59:59.000Z"
    },
    {
      "id": "istanbul-22508",
      "name": "AY ECZANESİ",
      "address": "Çamçeşme Mahallesi, Karadenizli Sokak, 11",
      "phone": "+902163976515",
      "district": "PENDİK",
      "city": "İstanbul",
      "latitude": 40.87320681533558,
      "longitude": 29.268802924697834,
      "dutyStart": "2026-02-25T21:00:00.000Z",
      "dutyEnd": "2026-02-26T20:59:59.000Z"
    },
    {
      "id": "istanbul-30894",
      "name": "AYDIN ECZANESİ",
      "address": "Halkalı Merkez Mahallesi, Tuna Caddesi, 12/A",
      "phone": "+902126964096",
      "district": "KÜÇÜKÇEKMECE",
      "city": "İstanbul",
      "latitude": 41.033775022144454,
      "longitude": 28.800413372674747,
      "dutyStart": "2026-02-25T21:00:00.000Z",
      "dutyEnd": "2026-02-26T20:59:59.000Z"
    },
    {
      "id": "istanbul-8728",
      "name": "BATUR ECZANESİ",
      "address": "Aksaray Mahallesi, Koca Mustafapaşa Caddesi, 17",
      "phone": "+902125884585",
      "district": "FATİH",
      "city": "İstanbul",
      "latitude": 41.007539890970556,
      "longitude": 28.943426993248135,
      "dutyStart": "2026-02-25T21:00:00.000Z",
      "dutyEnd": "2026-02-26T20:59:59.000Z"
    },
    {
      "id": "istanbul-21366",
      "name": "BAĞCILAR MERKEZ ECZANESİ",
      "address": "Bağcılar Merkez Mahallesi, Dr. Sadık Ahmet Caddesi, 68/1",
      "phone": "+902126345607",
      "district": "BAĞCILAR",
      "city": "İstanbul",
      "latitude": 41.030028035923266,
      "longitude": 28.869665825856636,
      "dutyStart": "2026-02-25T21:00:00.000Z",
      "dutyEnd": "2026-02-26T20:59:59.000Z"
    },
    {
      "id": "istanbul-25796",
      "name": "BETÜL YILMAZ ECZANESİ",
      "address": "Sümer Mahallesi, Prof. Turan Güneş Caddesi, 112/136F",
      "phone": "+902129249405",
      "district": "ZEYTİNBURNU",
      "city": "İstanbul",
      "latitude": 40.99095912383793,
      "longitude": 28.894207117602196,
      "dutyStart": "2026-02-25T21:00:00.000Z",
      "dutyEnd": "2026-02-26T20:59:59.000Z"
    },
    {
      "id": "istanbul-31878",
      "name": "BEYATLI ECZANESİ",
      "address": "Cumhuriyet Mahallesi, Dr. Sadık Ahmet Caddesi, 60/A",
      "phone": "+905057976725",
      "district": "KÜÇÜKÇEKMECE",
      "city": "İstanbul",
      "latitude": 41.002568970605175,
      "longitude": 28.77849701775945,
      "dutyStart": "2026-02-25T21:00:00.000Z",
      "dutyEnd": "2026-02-26T20:59:59.000Z"
    },
    {
      "id": "istanbul-25454",
      "name": "BOMONTİ ECZANESİ",
      "address": "Duatepe Mahallesi, Ergenekon Caddesi, 119A",
      "phone": "+902122918082",
      "district": "ŞİŞLİ",
      "city": "İstanbul",
      "latitude": 41.05439989775864,
      "longitude": 28.981711038360864,
      "dutyStart": "2026-02-25T21:00:00.000Z",
      "dutyEnd": "2026-02-26T20:59:59.000Z"
    },
    {
      "id": "istanbul-23612",
      "name": "BUHARA ECZANESİ",
      "address": "İncirköy Mahallesi, Fabrika Yanı Sokak, 38",
      "phone": "+902163225852",
      "district": "BEYKOZ",
      "city": "İstanbul",
      "latitude": 41.11859600205816,
      "longitude": 29.105562000090256,
      "dutyStart": "2026-02-25T21:00:00.000Z",
      "dutyEnd": "2026-02-26T20:59:59.000Z"
    },
    {
      "id": "istanbul-33418",
      "name": "BULVAR ECZANESİ",
      "address": "Tahtakale Mahallesi, Ispartakule Bulvarı, 15/6J",
      "phone": "+902124235957",
      "district": "AVCILAR",
      "city": "İstanbul",
      "latitude": 41.07221899996054,
      "longitude": 28.709725000009886,
      "dutyStart": "2026-02-25T21:00:00.000Z",
      "dutyEnd": "2026-02-26T20:59:59.000Z"
    },
    {
      "id": "istanbul-2338",
      "name": "BURGAZADA ECZANESİ",
      "address": "Burgazadası Mahallesi, Çınarlık Sokak, 3",
      "phone": "+902163812112",
      "district": "ADALAR",
      "city": "İstanbul",
      "latitude": 40.87998754997831,
      "longitude": 29.06919493887321,
      "dutyStart": "2026-02-25T21:00:00.000Z",
      "dutyEnd": "2026-02-26T20:59:59.000Z"
    },
    {
      "id": "istanbul-32234",
      "name": "BÜŞRA ASLAN ECZANESİ",
      "address": "Havaalanı Mahallesi, Taşocağı Caddesi, 22/C",
      "phone": "+902124322220",
      "district": "ESENLER",
      "city": "İstanbul",
      "latitude": 41.05538499964837,
      "longitude": 28.869679000221304,
      "dutyStart": "2026-02-25T21:00:00.000Z",
      "dutyEnd": "2026-02-26T20:59:59.000Z"
    },
    {
      "id": "istanbul-30410",
      "name": "BİLİM ECZANESİ",
      "address": "Mehmet Akif Mahallesi, 3. İnönü Caddesi, 56/A",
      "phone": "+902124722826",
      "district": "KÜÇÜKÇEKMECE",
      "city": "İstanbul",
      "latitude": 41.057036999613466,
      "longitude": 28.807766999903713,
      "dutyStart": "2026-02-25T21:00:00.000Z",
      "dutyEnd": "2026-02-26T20:59:59.000Z"
    },
    {
      "id": "istanbul-32336",
      "name": "BİZİM ECZANESİ",
      "address": "Barbaros Mahallesi, 171. Sokak, 42/A",
      "phone": "+902125152627",
      "district": "BAĞCILAR",
      "city": "İstanbul",
      "latitude": 41.02962900038679,
      "longitude": 28.83824700050765,
      "dutyStart": "2026-02-25T21:00:00.000Z",
      "dutyEnd": "2026-02-26T20:59:59.000Z"
    },
    {
      "id": "istanbul-17210",
      "name": "BİZİM YONCA ECZANESİ",
      "address": "Mareşal Çakmak Mahallesi, Necip Fazıl Kısakürek Caddesi, 127A",
      "phone": "+902124345550",
      "district": "GÜNGÖREN",
      "city": "İstanbul",
      "latitude": 41.02171733811465,
      "longitude": 28.866188227857293,
      "dutyStart": "2026-02-25T21:00:00.000Z",
      "dutyEnd": "2026-02-26T20:59:59.000Z"
    },
    {
      "id": "istanbul-24460",
      "name": "CADDE PARK  ECZANESİ ",
      "address": "Yıldırım Mahallesi, Millet Caddesi, 163C",
      "phone": "+902123027055",
      "district": "BAYRAMPAŞA",
      "city": "İstanbul",
      "latitude": 41.068299811605016,
      "longitude": 28.887045563312167,
      "dutyStart": "2026-02-25T21:00:00.000Z",
      "dutyEnd": "2026-02-26T20:59:59.000Z"
    },
    {
      "id": "istanbul-20216",
      "name": "CANSU ECZANESİ",
      "address": "Kordonboyu Mahallesi, Kumlar Caddesi, 39",
      "phone": "+902163740622",
      "district": "KARTAL",
      "city": "İstanbul",
      "latitude": 40.89834587821076,
      "longitude": 29.166425711145436,
      "dutyStart": "2026-02-25T21:00:00.000Z",
      "dutyEnd": "2026-02-26T20:59:59.000Z"
    },
    {
      "id": "istanbul-31652",
      "name": "CEYLAN ECZANESİ",
      "address": "Soğanlık Yeni Mahallesi, Yahya Kemal Beyatlı Caddesi, 40/A",
      "phone": "+902163772149",
      "district": "KARTAL",
      "city": "İstanbul",
      "latitude": 40.918003469340825,
      "longitude": 29.191463996245226,
      "dutyStart": "2026-02-25T21:00:00.000Z",
      "dutyEnd": "2026-02-26T20:59:59.000Z"
    },
    {
      "id": "istanbul-30770",
      "name": "DEMİRTÜRK ECZANESİ",
      "address": "Muratreis Mahallesi, Koncagul Sokak, 15/1",
      "phone": "+902163106946",
      "district": "ÜSKÜDAR",
      "city": "İstanbul",
      "latitude": 41.02350600006774,
      "longitude": 29.030944999622598,
      "dutyStart": "2026-02-25T21:00:00.000Z",
      "dutyEnd": "2026-02-26T20:59:59.000Z"
    },
    {
      "id": "istanbul-20036",
      "name": "DURCAN ECZANESİ",
      "address": "Başıbüyük Mahallesi, Başıbüyük Caddesi, 30/A-B",
      "phone": "+902164212432",
      "district": "MALTEPE",
      "city": "İstanbul",
      "latitude": 40.955092629370085,
      "longitude": 29.144434263636636,
      "dutyStart": "2026-02-25T21:00:00.000Z",
      "dutyEnd": "2026-02-26T20:59:59.000Z"
    },
    {
      "id": "istanbul-36584",
      "name": "DİKİLİTAŞ ECZANESİ",
      "address": "Dikilitaş Mahallesi, Bestekar Aralığı Sokak, 1/A",
      "phone": "+902122368501",
      "district": "BEŞİKTAŞ",
      "city": "İstanbul",
      "latitude": 41.05709299994649,
      "longitude": 29.005789000398472,
      "dutyStart": "2026-02-25T21:00:00.000Z",
      "dutyEnd": "2026-02-26T20:59:59.000Z"
    },
    {
      "id": "istanbul-38708",
      "name": "ECE ECZANESİ",
      "address": "Akşemsettin Mahallesi, Eşref Bitlis Bulvarı, 40/A",
      "phone": "+905332605490",
      "district": "SULTANBEYLİ",
      "city": "İstanbul",
      "latitude": 40.94050800041663,
      "longitude": 29.298984000031563,
      "dutyStart": "2026-02-25T21:00:00.000Z",
      "dutyEnd": "2026-02-26T20:59:59.000Z"
    },
    {
      "id": "istanbul-28730",
      "name": "ECEM ECZANESİ",
      "address": "Gültepe Mahallesi, Talatpaşa Caddesi, 194A",
      "phone": "+902122823124",
      "district": "KAĞITHANE",
      "city": "İstanbul",
      "latitude": 41.079656000241556,
      "longitude": 28.99497599978783,
      "dutyStart": "2026-02-25T21:00:00.000Z",
      "dutyEnd": "2026-02-26T20:59:59.000Z"
    },
    {
      "id": "istanbul-26294",
      "name": "ECZANE MENTOL",
      "address": "Emek Mahallesi, Kayalar Caddesi, 75A",
      "phone": "+902162323333",
      "district": "SANCAKTEPE",
      "city": "İstanbul",
      "latitude": 41.004387934145946,
      "longitude": 29.19878705302764,
      "dutyStart": "2026-02-25T21:00:00.000Z",
      "dutyEnd": "2026-02-26T20:59:59.000Z"
    },
    {
      "id": "istanbul-22254",
      "name": "EDA ECZANESİ",
      "address": "İçerenköy Mahallesi, Yücel Sokak, 4A",
      "phone": "+902165742260",
      "district": "ATAŞEHİR",
      "city": "İstanbul",
      "latitude": 40.97335700213949,
      "longitude": 29.120110000394195,
      "dutyStart": "2026-02-25T21:00:00.000Z",
      "dutyEnd": "2026-02-26T20:59:59.000Z"
    },
    {
      "id": "istanbul-22546",
      "name": "EGE ECZANESİ",
      "address": "Çamlık Mahallesi, Cahit Zarifoğlu Caddesi, 3/78",
      "phone": "+902166461073",
      "district": "PENDİK",
      "city": "İstanbul",
      "latitude": 40.93065370101052,
      "longitude": 29.278916804660906,
      "dutyStart": "2026-02-25T21:00:00.000Z",
      "dutyEnd": "2026-02-26T20:59:59.000Z"
    },
    {
      "id": "istanbul-27362",
      "name": "EKİN ECZANESİ",
      "address": "Gümüşpala Mahallesi, Alsancak Sokak, 1B",
      "phone": "+902125930706",
      "district": "AVCILAR",
      "city": "İstanbul",
      "latitude": 40.97946000012439,
      "longitude": 28.747230000197117,
      "dutyStart": "2026-02-25T21:00:00.000Z",
      "dutyEnd": "2026-02-26T20:59:59.000Z"
    },
    {
      "id": "istanbul-21998",
      "name": "ERZURUM ECZANESİ",
      "address": "Evren Mahallesi, Fevzi Çakmak Caddesi, 81",
      "phone": "+902126510170",
      "district": "BAĞCILAR",
      "city": "İstanbul",
      "latitude": 41.04034960153691,
      "longitude": 28.82480924825297,
      "dutyStart": "2026-02-25T21:00:00.000Z",
      "dutyEnd": "2026-02-26T20:59:59.000Z"
    },
    {
      "id": "istanbul-37328",
      "name": "ESİN ECZANESİ",
      "address": "Şifa Mahallesi, İnönü Caddesi, Tuzla Kiptaş 1.Etap Konutları E03 Blok No:73/B",
      "phone": "+905388416297",
      "district": "TUZLA",
      "city": "İstanbul",
      "latitude": 40.82766799992952,
      "longitude": 29.35770699973603,
      "dutyStart": "2026-02-25T21:00:00.000Z",
      "dutyEnd": "2026-02-26T20:59:59.000Z"
    },
    {
      "id": "istanbul-18966",
      "name": "FATİH ECZANESİ",
      "address": "Kazım Karabekir Mahallesi, Adem Yavuz Caddesi, 20/A",
      "phone": "+902166316181",
      "district": "ÜMRANİYE",
      "city": "İstanbul",
      "latitude": 41.03294602228961,
      "longitude": 29.103147186337296,
      "dutyStart": "2026-02-25T21:00:00.000Z",
      "dutyEnd": "2026-02-26T20:59:59.000Z"
    },
    {
      "id": "istanbul-10468",
      "name": "FLATOFİS BEGÜM ECZANESİ",
      "address": "Nişanca Mahallesi, Otakçılar Caddesi, Kanal 7 Binası, 78/2 Zemin A Blok 4/7",
      "phone": "+902124378750",
      "district": "EYÜPSULTAN",
      "city": "İstanbul",
      "latitude": 41.03820436444379,
      "longitude": 28.9324033714517,
      "dutyStart": "2026-02-25T21:00:00.000Z",
      "dutyEnd": "2026-02-26T20:59:59.000Z"
    },
    {
      "id": "istanbul-28294",
      "name": "GAMZE ECZANESİ",
      "address": "Yeni Mahallesi, Şinasi Günaydın Sokak, 3/B",
      "phone": "+905303413727",
      "district": "SİLİVRİ",
      "city": "İstanbul",
      "latitude": 41.08123999989588,
      "longitude": 28.260505000133897,
      "dutyStart": "2026-02-25T21:00:00.000Z",
      "dutyEnd": "2026-02-26T20:59:59.000Z"
    },
    {
      "id": "istanbul-26794",
      "name": "GAZİOĞLU ECZANESİ",
      "address": "Parseller Mahallesi, Eski Üsküdar Yolu Caddesi, 14A",
      "phone": "+902166124298",
      "district": "ÜMRANİYE",
      "city": "İstanbul",
      "latitude": 41.02301054914957,
      "longitude": 29.1578046830085,
      "dutyStart": "2026-02-25T21:00:00.000Z",
      "dutyEnd": "2026-02-26T20:59:59.000Z"
    },
    {
      "id": "istanbul-19640",
      "name": "GÖKTÜRK ECZANESİ",
      "address": "Veliefendi Mahallesi, Semiha Şakir Caddesi, 31/33",
      "phone": "+902127031109",
      "district": "ZEYTİNBURNU",
      "city": "İstanbul",
      "latitude": 40.996148516864594,
      "longitude": 28.902713634582913,
      "dutyStart": "2026-02-25T21:00:00.000Z",
      "dutyEnd": "2026-02-26T20:59:59.000Z"
    },
    {
      "id": "istanbul-30546",
      "name": "GÖNÜL ECZANESİ",
      "address": "Aşık Veysel Mahallesi, 3001. Caddesi, 98/B",
      "phone": "+902163177838",
      "district": "ATAŞEHİR",
      "city": "İstanbul",
      "latitude": 41.00400500043993,
      "longitude": 29.093288000063033,
      "dutyStart": "2026-02-25T21:00:00.000Z",
      "dutyEnd": "2026-02-26T20:59:59.000Z"
    },
    {
      "id": "istanbul-17286",
      "name": "GÜLAY ECZANESİ",
      "address": "Ferhatpaşa Mahallesi, Atatürk Caddesi, 82C/1",
      "phone": "+902127318824",
      "district": "ÇATALCA",
      "city": "İstanbul",
      "latitude": 41.13660270124186,
      "longitude": 28.4650582577572,
      "dutyStart": "2026-02-25T21:00:00.000Z",
      "dutyEnd": "2026-02-26T20:59:59.000Z"
    },
    {
      "id": "istanbul-27924",
      "name": "GÜN ECZANESİ",
      "address": "Yeşilyurt Mahallesi, Ekin Sokak, 21B",
      "phone": "+902125737076",
      "district": "BAKIRKÖY",
      "city": "İstanbul",
      "latitude": 40.96380746683433,
      "longitude": 28.83747911696137,
      "dutyStart": "2026-02-25T21:00:00.000Z",
      "dutyEnd": "2026-02-26T20:59:59.000Z"
    },
    {
      "id": "istanbul-23324",
      "name": "GÜNAY ECZANESİ",
      "address": "Oruç Reis Mahallesi, 562. Sokak, 18/A",
      "phone": "+902124296979",
      "district": "ESENLER",
      "city": "İstanbul",
      "latitude": 41.06232699967996,
      "longitude": 28.856285000137003,
      "dutyStart": "2026-02-25T21:00:00.000Z",
      "dutyEnd": "2026-02-26T20:59:59.000Z"
    },
    {
      "id": "istanbul-22500",
      "name": "GÜREL ECZANESİ",
      "address": "Kartaltepe Mahallesi, Süvari Caddesi, 6G",
      "phone": "+902126960066",
      "district": "KÜÇÜKÇEKMECE",
      "city": "İstanbul",
      "latitude": 41.00010158618054,
      "longitude": 28.7971997591907,
      "dutyStart": "2026-02-25T21:00:00.000Z",
      "dutyEnd": "2026-02-26T20:59:59.000Z"
    },
    {
      "id": "istanbul-31956",
      "name": "HABİBLER ECZANESİ",
      "address": "Habipler Mahallesi, 2719. Sokak, 32/A",
      "phone": "+902125951516",
      "district": "SULTANGAZİ",
      "city": "İstanbul",
      "latitude": 41.13331620169549,
      "longitude": 28.83847211621196,
      "dutyStart": "2026-02-25T21:00:00.000Z",
      "dutyEnd": "2026-02-26T20:59:59.000Z"
    },
    {
      "id": "istanbul-31822",
      "name": "HALE AYDIN ECZANESİ",
      "address": "Ziya Gökalp Mahallesi, Dr.Mimar Kadir Topbaş Caddesi, Mavera Comfort Sitesi A3 Blok No:4BD",
      "phone": "+902128308830",
      "district": "BAŞAKŞEHİR",
      "city": "İstanbul",
      "latitude": 41.08409999985765,
      "longitude": 28.77126999996029,
      "dutyStart": "2026-02-25T21:00:00.000Z",
      "dutyEnd": "2026-02-26T20:59:59.000Z"
    },
    {
      "id": "istanbul-24302",
      "name": "HAYAT PARK ECZANESİ",
      "address": "Bahçeşehir 2.  Kısım Mahallesi, Şehit Asteğmen Furkan Işık Bulvarı, 25A",
      "phone": "+902129245010",
      "district": "BAŞAKŞEHİR",
      "city": "İstanbul",
      "latitude": 41.08870299982997,
      "longitude": 28.65474800007434,
      "dutyStart": "2026-02-25T21:00:00.000Z",
      "dutyEnd": "2026-02-26T20:59:59.000Z"
    },
    {
      "id": "istanbul-6296",
      "name": "HEYBELİADA ECZANESİ",
      "address": "Heybeliada Mahallesi, Ayyıldız Caddesi, No:25/D",
      "phone": "+902163518415",
      "district": "ADALAR",
      "city": "İstanbul",
      "latitude": 40.87751817989951,
      "longitude": 29.1001562048735,
      "dutyStart": "2026-02-25T21:00:00.000Z",
      "dutyEnd": "2026-02-26T20:59:59.000Z"
    },
    {
      "id": "istanbul-16220",
      "name": "HUZUR ECZANESİ",
      "address": "Halide Edip Adıvar Mahallesi, Darülaceze Caddesi, 11/B",
      "phone": "+902122206272",
      "district": "ŞİŞLİ",
      "city": "İstanbul",
      "latitude": 41.06442100012616,
      "longitude": 28.979794999541078,
      "dutyStart": "2026-02-25T21:00:00.000Z",
      "dutyEnd": "2026-02-26T20:59:59.000Z"
    },
    {
      "id": "istanbul-13750",
      "name": "HÜRRİYET ECZANESİ",
      "address": "Rasimpaşa Mahallesi, Rıhtım Caddesi, 64",
      "phone": "+902163306500",
      "district": "KADIKÖY",
      "city": "İstanbul",
      "latitude": 40.99540830867747,
      "longitude": 29.024804182377583,
      "dutyStart": "2026-02-25T21:00:00.000Z",
      "dutyEnd": "2026-02-26T20:59:59.000Z"
    },
    {
      "id": "istanbul-16158",
      "name": "IHLAMUR ECZANESİ",
      "address": "Kazım Karabekir Mahallesi, 859. Caddesi, 16",
      "phone": "+902126494857",
      "district": "GAZİOSMANPAŞA",
      "city": "İstanbul",
      "latitude": 41.080467699596475,
      "longitude": 28.91253964129303,
      "dutyStart": "2026-02-25T21:00:00.000Z",
      "dutyEnd": "2026-02-26T20:59:59.000Z"
    },
    {
      "id": "istanbul-33038",
      "name": "IRMAK ECZANESİ",
      "address": "Mimar Sinan Mahallesi, Atatürk Caddesi, 3/A",
      "phone": "+902126117444",
      "district": "ESENLER",
      "city": "İstanbul",
      "latitude": 41.0340839997275,
      "longitude": 28.885732000046445,
      "dutyStart": "2026-02-25T21:00:00.000Z",
      "dutyEnd": "2026-02-26T20:59:59.000Z"
    },
    {
      "id": "istanbul-22132",
      "name": "KARLIDAĞ ECZANESİ",
      "address": "Yeşilkent Mahallesi, 2011. Sokak, 16B/11",
      "phone": "+902128525852",
      "district": "ESENYURT",
      "city": "İstanbul",
      "latitude": 41.02610360926026,
      "longitude": 28.65885683979188,
      "dutyStart": "2026-02-25T21:00:00.000Z",
      "dutyEnd": "2026-02-26T20:59:59.000Z"
    },
    {
      "id": "istanbul-32286",
      "name": "KINALI ECZANESİ(V)",
      "address": "Kınalıada Mahallesi, Çarşı Caddesi, 20/A",
      "phone": "+902163814098",
      "district": "ADALAR",
      "city": "İstanbul",
      "latitude": 40.90800100012437,
      "longitude": 29.055135999790647,
      "dutyStart": "2026-02-25T21:00:00.000Z",
      "dutyEnd": "2026-02-26T20:59:59.000Z"
    },
    {
      "id": "istanbul-27188",
      "name": "KORU ECZANESİ",
      "address": "Merkez Mahallesi, Köroğlu Caddesi, 50A",
      "phone": "+902166402070",
      "district": "ÇEKMEKÖY",
      "city": "İstanbul",
      "latitude": 41.04064800007306,
      "longitude": 29.179814000362054,
      "dutyStart": "2026-02-25T21:00:00.000Z",
      "dutyEnd": "2026-02-26T20:59:59.000Z"
    },
    {
      "id": "istanbul-24434",
      "name": "KUZUYOLU ECZANESİ",
      "address": "Çınar Mahallesi, Erzurum Kongre Caddesi, 115A",
      "phone": "+902126206998",
      "district": "ESENYURT",
      "city": "İstanbul",
      "latitude": 41.04301388542486,
      "longitude": 28.66249229726117,
      "dutyStart": "2026-02-25T21:00:00.000Z",
      "dutyEnd": "2026-02-26T20:59:59.000Z"
    },
    {
      "id": "istanbul-28852",
      "name": "LAVANTA ECZANESİ",
      "address": "Yeni Mahallesi, Hatipoğlu Sokak, Dış Kapı No:5E A Blok ",
      "phone": "+902128302822",
      "district": "SİLİVRİ",
      "city": "İstanbul",
      "latitude": 41.08724799983091,
      "longitude": 28.25199800031546,
      "dutyStart": "2026-02-25T21:00:00.000Z",
      "dutyEnd": "2026-02-26T20:59:59.000Z"
    },
    {
      "id": "istanbul-17474",
      "name": "LİLA ECZANESİ",
      "address": "Orhangazi Mahallesi, Vatan Caddesi, 72D",
      "phone": "+902164945494",
      "district": "PENDİK",
      "city": "İstanbul",
      "latitude": 40.86605459035374,
      "longitude": 29.29012363479576,
      "dutyStart": "2026-02-25T21:00:00.000Z",
      "dutyEnd": "2026-02-26T20:59:59.000Z"
    },
    {
      "id": "istanbul-23602",
      "name": "LİMON ECZANESİ",
      "address": "Marmara Mahallesi 5. Sokak 6/3",
      "phone": "+902128755639",
      "district": "BEYLİKDÜZÜ",
      "city": "İstanbul",
      "latitude": 40.98344072694246,
      "longitude": 28.67215674685949,
      "dutyStart": "2026-02-25T21:00:00.000Z",
      "dutyEnd": "2026-02-26T20:59:59.000Z"
    },
    {
      "id": "istanbul-31528",
      "name": "MAHMUTOĞLU ECZANESİ",
      "address": "Şirinevler Mahallesi, Mareşal Fevzi Çakmak 2. Sokak, 29B",
      "phone": "+902124324712",
      "district": "BAHÇELİEVLER",
      "city": "İstanbul",
      "latitude": 40.993462961017755,
      "longitude": 28.848823955185786,
      "dutyStart": "2026-02-25T21:00:00.000Z",
      "dutyEnd": "2026-02-26T20:59:59.000Z"
    },
    {
      "id": "istanbul-35180",
      "name": "MALTEPE ECZANESİ",
      "address": "Ortamahalle Mahallesi, Maltepe Caddesi, Mühendisler İşhanı No:1-3/B",
      "phone": "+902125678363",
      "district": "BAYRAMPAŞA",
      "city": "İstanbul",
      "latitude": 41.0308599996348,
      "longitude": 28.91553800032699,
      "dutyStart": "2026-02-25T21:00:00.000Z",
      "dutyEnd": "2026-02-26T20:59:59.000Z"
    },
    {
      "id": "istanbul-26350",
      "name": "MANDARİN ECZANESİ",
      "address": "Fikirtepe Mahallesi, Mandıra Caddesi, 11H",
      "phone": "+902165108480",
      "district": "KADIKÖY",
      "city": "İstanbul",
      "latitude": 40.99596099959298,
      "longitude": 29.049108999867265,
      "dutyStart": "2026-02-25T21:00:00.000Z",
      "dutyEnd": "2026-02-26T20:59:59.000Z"
    },
    {
      "id": "istanbul-10770",
      "name": "MELİKE ECZANESİ",
      "address": "Dizdariye Mahallesi, Kemal Atatürk Caddesi, B Blok No:7/A Bağımsız Bölüm:1",
      "phone": "+902128835719",
      "district": "BÜYÜKÇEKMECE",
      "city": "İstanbul",
      "latitude": 41.0208576897536,
      "longitude": 28.57869190776732,
      "dutyStart": "2026-02-25T21:00:00.000Z",
      "dutyEnd": "2026-02-26T20:59:59.000Z"
    },
    {
      "id": "istanbul-26168",
      "name": "MELİS ECZANESİ",
      "address": "Ekinoba Mahallesi, Mustafa Kemal Bulvarı, 11/C",
      "phone": "+902129993339",
      "district": "BÜYÜKÇEKMECE",
      "city": "İstanbul",
      "latitude": 41.00658581142767,
      "longitude": 28.540334231942783,
      "dutyStart": "2026-02-25T21:00:00.000Z",
      "dutyEnd": "2026-02-26T20:59:59.000Z"
    },
    {
      "id": "istanbul-8680",
      "name": "MERKEZ ECZANESİ",
      "address": "Nizam Mahallesi, 23 Nisan Caddesi, 12",
      "phone": "+902163826392",
      "district": "ADALAR",
      "city": "İstanbul",
      "latitude": 40.87385668832126,
      "longitude": 29.127998108028326,
      "dutyStart": "2026-02-25T21:00:00.000Z",
      "dutyEnd": "2026-02-26T20:59:59.000Z"
    },
    {
      "id": "istanbul-14090",
      "name": "MERİH ECZANESİ",
      "address": "Salacak Mahallesi, Tunusbağı Caddesi, 34/A",
      "phone": "+902163105029",
      "district": "ÜSKÜDAR",
      "city": "İstanbul",
      "latitude": 41.01628553899107,
      "longitude": 29.01500461727934,
      "dutyStart": "2026-02-25T21:00:00.000Z",
      "dutyEnd": "2026-02-26T20:59:59.000Z"
    },
    {
      "id": "istanbul-9776",
      "name": "MURADHAN ECZANESİ",
      "address": "Emniyetevleri Mahallesi, Taşkent Sokak, 2-D",
      "phone": "+902122823498",
      "district": "KAĞITHANE",
      "city": "İstanbul",
      "latitude": 41.0855510200446,
      "longitude": 29.004708878265124,
      "dutyStart": "2026-02-25T21:00:00.000Z",
      "dutyEnd": "2026-02-26T20:59:59.000Z"
    },
    {
      "id": "istanbul-13010",
      "name": "NAR ECZANESİ",
      "address": "Büyükşehir Mahallesi, Atatürk Bulvarı, 38/A",
      "phone": "+902128710425",
      "district": "BEYLİKDÜZÜ",
      "city": "İstanbul",
      "latitude": 41.000304534163185,
      "longitude": 28.644746549960608,
      "dutyStart": "2026-02-25T21:00:00.000Z",
      "dutyEnd": "2026-02-26T20:59:59.000Z"
    },
    {
      "id": "istanbul-29368",
      "name": "NEFES ECZANESİ",
      "address": "Adil Mahallesi, Said-İ Nusri Caddesi, 74/A",
      "phone": "+902165044144",
      "district": "SULTANBEYLİ",
      "city": "İstanbul",
      "latitude": 40.98082199985713,
      "longitude": 29.256098999627334,
      "dutyStart": "2026-02-25T21:00:00.000Z",
      "dutyEnd": "2026-02-26T20:59:59.000Z"
    },
    {
      "id": "istanbul-3974",
      "name": "NEŞE ECZANESİ",
      "address": "İstinye Mahallesi, İstinye Caddesi, 56",
      "phone": "+902122776202",
      "district": "SARIYER",
      "city": "İstanbul",
      "latitude": 41.11474097499522,
      "longitude": 29.05523041403917,
      "dutyStart": "2026-02-25T21:00:00.000Z",
      "dutyEnd": "2026-02-26T20:59:59.000Z"
    },
    {
      "id": "istanbul-31012",
      "name": "NİDA CADDE ECZANESİ",
      "address": "Çınar Mahallesi, Bağdat Caddesi, 136/C",
      "phone": "+902164177417",
      "district": "MALTEPE",
      "city": "İstanbul",
      "latitude": 40.944295000154156,
      "longitude": 29.112286999473916,
      "dutyStart": "2026-02-25T21:00:00.000Z",
      "dutyEnd": "2026-02-26T20:59:59.000Z"
    },
    {
      "id": "istanbul-28110",
      "name": "OLGAÇ ECZANESİ",
      "address": "İslambey Mahallesi, Behramşah Sokak, 11/A",
      "phone": "+902125976596",
      "district": "ARNAVUTKÖY",
      "city": "İstanbul",
      "latitude": 41.19346800028894,
      "longitude": 28.74683499973455,
      "dutyStart": "2026-02-25T21:00:00.000Z",
      "dutyEnd": "2026-02-26T20:59:59.000Z"
    },
    {
      "id": "istanbul-18858",
      "name": "PARS ECZANESİ",
      "address": "19 Mayıs Mahallesi, Şakacı Sokak, 98/A",
      "phone": "+902163841228",
      "district": "KADIKÖY",
      "city": "İstanbul",
      "latitude": 40.968973585836935,
      "longitude": 29.08622488132012,
      "dutyStart": "2026-02-25T21:00:00.000Z",
      "dutyEnd": "2026-02-26T20:59:59.000Z"
    },
    {
      "id": "istanbul-27372",
      "name": "PEHLİVANOĞLU ECZANESİ",
      "address": "İstiklal Mahallesi, 2665. Sokak, 22/2/B",
      "phone": "+902126917722",
      "district": "ESENYURT",
      "city": "İstanbul",
      "latitude": 41.03891989086538,
      "longitude": 28.646656546238702,
      "dutyStart": "2026-02-25T21:00:00.000Z",
      "dutyEnd": "2026-02-26T20:59:59.000Z"
    },
    {
      "id": "istanbul-28554",
      "name": "PEKER ECZANESİ",
      "address": "Merkez Mahallesi, Fatih Sokak, No:24A",
      "phone": "+902125900676",
      "district": "AVCILAR",
      "city": "İstanbul",
      "latitude": 40.98047499961239,
      "longitude": 28.723145999611543,
      "dutyStart": "2026-02-25T21:00:00.000Z",
      "dutyEnd": "2026-02-26T20:59:59.000Z"
    },
    {
      "id": "istanbul-15074",
      "name": "PHARMATAKÖY ECZANESİ",
      "address": "Ataköy 2-5-6.  Kısım Mahallesi, Adnan Kahveci Bulvarı, 28",
      "phone": "+902126615527",
      "district": "BAKIRKÖY",
      "city": "İstanbul",
      "latitude": 40.978518195805826,
      "longitude": 28.85059107583083,
      "dutyStart": "2026-02-25T21:00:00.000Z",
      "dutyEnd": "2026-02-26T20:59:59.000Z"
    },
    {
      "id": "istanbul-25060",
      "name": "POLEN ECZANESİ",
      "address": "Akevler Mahallesi, 1048. Sokak, 5M",
      "phone": "+902129796389",
      "district": "ESENYURT",
      "city": "İstanbul",
      "latitude": 41.01693400036516,
      "longitude": 28.672643000016365,
      "dutyStart": "2026-02-25T21:00:00.000Z",
      "dutyEnd": "2026-02-26T20:59:59.000Z"
    },
    {
      "id": "istanbul-24236",
      "name": "PİYALEPAŞA ECZANESİ",
      "address": "İstiklal Mahallesi, Baruthane Deresi Sokak, 2/1C",
      "phone": "+905456499096",
      "district": "BEYOĞLU",
      "city": "İstanbul",
      "latitude": 41.040049615879646,
      "longitude": 28.96767305277953,
      "dutyStart": "2026-02-25T21:00:00.000Z",
      "dutyEnd": "2026-02-26T20:59:59.000Z"
    },
    {
      "id": "istanbul-22920",
      "name": "RENGİN ECZANESİ",
      "address": "Çakmak Mahallesi, Varan Caddesi, 13",
      "phone": "+902165946335",
      "district": "ÜMRANİYE",
      "city": "İstanbul",
      "latitude": 41.01683448681061,
      "longitude": 29.126927837974865,
      "dutyStart": "2026-02-25T21:00:00.000Z",
      "dutyEnd": "2026-02-26T20:59:59.000Z"
    },
    {
      "id": "istanbul-36032",
      "name": "RÜYA ECZANESİ",
      "address": "Yalı Mahallesi, Topel Sokak, No:3/A",
      "phone": "+902164881521",
      "district": "KARTAL",
      "city": "İstanbul",
      "latitude": 40.89183299994887,
      "longitude": 29.221055000560153,
      "dutyStart": "2026-02-25T21:00:00.000Z",
      "dutyEnd": "2026-02-26T20:59:59.000Z"
    },
    {
      "id": "istanbul-23658",
      "name": "SADE ECZANESİ",
      "address": "Caddebostan Mahallesi, Erenköy Cami Sokak, 5/A",
      "phone": "+902167595691",
      "district": "KADIKÖY",
      "city": "İstanbul",
      "latitude": 40.96531900026277,
      "longitude": 29.06951899967915,
      "dutyStart": "2026-02-25T21:00:00.000Z",
      "dutyEnd": "2026-02-26T20:59:59.000Z"
    },
    {
      "id": "istanbul-35632",
      "name": "SAFRAN ECZANESİ",
      "address": "Osmangazi Mahallesi, Alsancak Caddesi, No:122A",
      "phone": "+905400723726",
      "district": "SANCAKTEPE",
      "city": "İstanbul",
      "latitude": 40.9868739996631,
      "longitude": 29.2488489999354,
      "dutyStart": "2026-02-25T21:00:00.000Z",
      "dutyEnd": "2026-02-26T20:59:59.000Z"
    },
    {
      "id": "istanbul-10278",
      "name": "SELİN ECZANESİ",
      "address": "Ulus Mahallesi, Atatürk Caddesi, 26/B",
      "phone": "+902128611303",
      "district": "BÜYÜKÇEKMECE",
      "city": "İstanbul",
      "latitude": 41.03028421018501,
      "longitude": 28.55184628405768,
      "dutyStart": "2026-02-25T21:00:00.000Z",
      "dutyEnd": "2026-02-26T20:59:59.000Z"
    },
    {
      "id": "istanbul-22314",
      "name": "SERAP ECZANESİ",
      "address": "Acarlar Mahallesi, Kamer Çıkmazı Sokak, 22A",
      "phone": "+902163314738",
      "district": "BEYKOZ",
      "city": "İstanbul",
      "latitude": 41.109145242328765,
      "longitude": 29.113743338695276,
      "dutyStart": "2026-02-25T21:00:00.000Z",
      "dutyEnd": "2026-02-26T20:59:59.000Z"
    },
    {
      "id": "istanbul-28796",
      "name": "SEVİL ECZANESİ",
      "address": "İnönü Mahallesi, İnönü Caddesi, 14-16A",
      "phone": "+905387793642",
      "district": "SANCAKTEPE",
      "city": "İstanbul",
      "latitude": 41.01201400029714,
      "longitude": 29.20982600024862,
      "dutyStart": "2026-02-25T21:00:00.000Z",
      "dutyEnd": "2026-02-26T20:59:59.000Z"
    },
    {
      "id": "istanbul-20192",
      "name": "SU ECZANESİ",
      "address": "Cevizli Mahallesi, Seyit Gazi Sokak, 16/A",
      "phone": "+905318987199",
      "district": "KARTAL",
      "city": "İstanbul",
      "latitude": 40.91077400035391,
      "longitude": 29.181106999869343,
      "dutyStart": "2026-02-25T21:00:00.000Z",
      "dutyEnd": "2026-02-26T20:59:59.000Z"
    },
    {
      "id": "istanbul-28546",
      "name": "SÜEDA ECZANESİ",
      "address": "Başak Mahallesi, Çamlıca Sokak, 6E Dükkan:21",
      "phone": "+902127415620",
      "district": "BAŞAKŞEHİR",
      "city": "İstanbul",
      "latitude": 41.1094662876976,
      "longitude": 28.801551425986627,
      "dutyStart": "2026-02-25T21:00:00.000Z",
      "dutyEnd": "2026-02-26T20:59:59.000Z"
    },
    {
      "id": "istanbul-27198",
      "name": "SİNAN AY ECZANESİ",
      "address": "Yenidoğan Mahallesi, Bahcelıevler Caddesi, 40/B",
      "phone": "+902162085374",
      "district": "SANCAKTEPE",
      "city": "İstanbul",
      "latitude": 41.01011354240299,
      "longitude": 29.24253426548479,
      "dutyStart": "2026-02-25T21:00:00.000Z",
      "dutyEnd": "2026-02-26T20:59:59.000Z"
    },
    {
      "id": "istanbul-29380",
      "name": "SİNEM ECZANESİ",
      "address": "Ahmet Yesevi Mahallesi, Mücahit Caddesi, 47-B",
      "phone": "+902167664095",
      "district": "SULTANBEYLİ",
      "city": "İstanbul",
      "latitude": 40.97319322064936,
      "longitude": 29.273421377829067,
      "dutyStart": "2026-02-25T21:00:00.000Z",
      "dutyEnd": "2026-02-26T20:59:59.000Z"
    },
    {
      "id": "istanbul-27672",
      "name": "TAKSİM LAMARTİN ECZANESİ",
      "address": "Kocatepe Mahallesi, Lamartin Caddesi, 19-A",
      "phone": "+902122541000",
      "district": "BEYOĞLU",
      "city": "İstanbul",
      "latitude": 41.03943700038266,
      "longitude": 28.984906000338558,
      "dutyStart": "2026-02-25T21:00:00.000Z",
      "dutyEnd": "2026-02-26T20:59:59.000Z"
    },
    {
      "id": "istanbul-32254",
      "name": "TANZİMAT ECZANESİ",
      "address": "Göztepe Mahallesi, Tanzimat Sokak, No:30-32B",
      "phone": "+902164110938",
      "district": "KADIKÖY",
      "city": "İstanbul",
      "latitude": 40.97261935987492,
      "longitude": 29.064659443156522,
      "dutyStart": "2026-02-25T21:00:00.000Z",
      "dutyEnd": "2026-02-26T20:59:59.000Z"
    },
    {
      "id": "istanbul-21968",
      "name": "TUBA ECZANESİ",
      "address": "Hürriyet Mahallesi, Söğüt Sokak, 13/1",
      "phone": "+902126448481",
      "district": "BAHÇELİEVLER",
      "city": "İstanbul",
      "latitude": 41.00363144426256,
      "longitude": 28.840197991900844,
      "dutyStart": "2026-02-25T21:00:00.000Z",
      "dutyEnd": "2026-02-26T20:59:59.000Z"
    },
    {
      "id": "istanbul-22160",
      "name": "TUBA ECZANESİ",
      "address": "Adnan Kahveci Mahallesi, Osmanlı Caddesi, C1-3",
      "phone": "+902128557755",
      "district": "BEYLİKDÜZÜ",
      "city": "İstanbul",
      "latitude": 41.00342343111307,
      "longitude": 28.6284974276598,
      "dutyStart": "2026-02-25T21:00:00.000Z",
      "dutyEnd": "2026-02-26T20:59:59.000Z"
    },
    {
      "id": "istanbul-19280",
      "name": "TUNA ECZANESİ",
      "address": "Şemsipaşa Mahallesi, Cengiz Topel Caddesi, 100/B",
      "phone": "+902124179925",
      "district": "GAZİOSMANPAŞA",
      "city": "İstanbul",
      "latitude": 41.067127172872326,
      "longitude": 28.905340592498952,
      "dutyStart": "2026-02-25T21:00:00.000Z",
      "dutyEnd": "2026-02-26T20:59:59.000Z"
    },
    {
      "id": "istanbul-25524",
      "name": "TUZLA ECZANESİ",
      "address": "Postane Mahallesi, İstasyon Caddesi, 1A",
      "phone": "+902163951552",
      "district": "TUZLA",
      "city": "İstanbul",
      "latitude": 40.81591497767431,
      "longitude": 29.30320415077612,
      "dutyStart": "2026-02-25T21:00:00.000Z",
      "dutyEnd": "2026-02-26T20:59:59.000Z"
    },
    {
      "id": "istanbul-33118",
      "name": "UĞUR ECZANESİ",
      "address": "Büyükdere Mahallesi, Çayırbaşı Caddesi, 119/C",
      "phone": "+902122712068",
      "district": "SARIYER",
      "city": "İstanbul",
      "latitude": 41.15970100011685,
      "longitude": 29.040287000238887,
      "dutyStart": "2026-02-25T21:00:00.000Z",
      "dutyEnd": "2026-02-26T20:59:59.000Z"
    },
    {
      "id": "istanbul-11970",
      "name": "VADİ ECZANESİ",
      "address": "Ayazağa Mahallesi, Kemerburgaz Caddesi, No:3",
      "phone": "+902123027592",
      "district": "SARIYER",
      "city": "İstanbul",
      "latitude": 41.11148100039888,
      "longitude": 28.987413000196366,
      "dutyStart": "2026-02-25T21:00:00.000Z",
      "dutyEnd": "2026-02-26T20:59:59.000Z"
    },
    {
      "id": "istanbul-13074",
      "name": "YASEMİN ECZANESİ",
      "address": "Ortaköy Mahallesi, Dereboyu Caddesi, 69/A",
      "phone": "+902122581589",
      "district": "BEŞİKTAŞ",
      "city": "İstanbul",
      "latitude": 41.05053889503365,
      "longitude": 29.02498970077238,
      "dutyStart": "2026-02-25T21:00:00.000Z",
      "dutyEnd": "2026-02-26T20:59:59.000Z"
    },
    {
      "id": "istanbul-29204",
      "name": "YAYLA ECZANESİ",
      "address": "Haraççı Merkez Mahallesi, Haraççı Hadımköy Yolu Caddesi, 67/1",
      "phone": "+902126844457",
      "district": "ARNAVUTKÖY",
      "city": "İstanbul",
      "latitude": 41.17611792729794,
      "longitude": 28.70263400275818,
      "dutyStart": "2026-02-25T21:00:00.000Z",
      "dutyEnd": "2026-02-26T20:59:59.000Z"
    },
    {
      "id": "istanbul-34242",
      "name": "YAŞAM ECZANESİ",
      "address": "Piyalepaşa Mahallesi, Yıldırım Beyazıt Sokak, No:4/A",
      "phone": "+902122569148",
      "district": "BEYOĞLU",
      "city": "İstanbul",
      "latitude": 41.052405667991515,
      "longitude": 28.960215340850915,
      "dutyStart": "2026-02-25T21:00:00.000Z",
      "dutyEnd": "2026-02-26T20:59:59.000Z"
    },
    {
      "id": "istanbul-11258",
      "name": "YAŞAM ECZANESİ",
      "address": "Selimpaşa Merkez Mahallesi, Halaskargazi Cad., 31/A",
      "phone": "+902127316038",
      "district": "SİLİVRİ",
      "city": "İstanbul",
      "latitude": 41.055566454111926,
      "longitude": 28.3677121953202,
      "dutyStart": "2026-02-25T21:00:00.000Z",
      "dutyEnd": "2026-02-26T20:59:59.000Z"
    },
    {
      "id": "istanbul-23588",
      "name": "YENİ EKİN ECZANESİ",
      "address": "Hürriyet Mahallesi, Peker Sokak, 3A",
      "phone": "+902163773110",
      "district": "KARTAL",
      "city": "İstanbul",
      "latitude": 40.903959000400846,
      "longitude": 29.23205100012508,
      "dutyStart": "2026-02-25T21:00:00.000Z",
      "dutyEnd": "2026-02-26T20:59:59.000Z"
    },
    {
      "id": "istanbul-27332",
      "name": "YENİ ÖZLEM ECZANESİ",
      "address": "Zafer Mahallesi, Ziya Gökalp Sokak, 16/1A",
      "phone": "+902125512839",
      "district": "BAHÇELİEVLER",
      "city": "İstanbul",
      "latitude": 41.0027442840772,
      "longitude": 28.83598410667495,
      "dutyStart": "2026-02-25T21:00:00.000Z",
      "dutyEnd": "2026-02-26T20:59:59.000Z"
    },
    {
      "id": "istanbul-33664",
      "name": "YENİ ŞİŞLİ ITIR ECZANESİ",
      "address": "Şişli Merkez Mahallesi, Abidei Hürriyet Caddesi, 141/B",
      "phone": "+902122968180",
      "district": "ŞİŞLİ",
      "city": "İstanbul",
      "latitude": 41.06100800004882,
      "longitude": 28.987215000020885,
      "dutyStart": "2026-02-25T21:00:00.000Z",
      "dutyEnd": "2026-02-26T20:59:59.000Z"
    },
    {
      "id": "istanbul-28106",
      "name": "YENİKENT ECZANESİ",
      "address": "Yenikent Mahallesi, Doğan Araslı Bulvarı, 212/A",
      "phone": "+902125968686",
      "district": "ESENYURT",
      "city": "İstanbul",
      "latitude": 41.039287999901966,
      "longitude": 28.678087000413544,
      "dutyStart": "2026-02-25T21:00:00.000Z",
      "dutyEnd": "2026-02-26T20:59:59.000Z"
    },
    {
      "id": "istanbul-33480",
      "name": "YEŞİLBAHAR ECZANESİ",
      "address": "Kozyatağı Mahallesi, Korkut Sokak, 6/A",
      "phone": "+902163606154",
      "district": "KADIKÖY",
      "city": "İstanbul",
      "latitude": 40.96621800005632,
      "longitude": 29.100672000385625,
      "dutyStart": "2026-02-25T21:00:00.000Z",
      "dutyEnd": "2026-02-26T20:59:59.000Z"
    },
    {
      "id": "istanbul-25230",
      "name": "YEŞİLOVA MERKEZ ECZANESİ",
      "address": "Yeşilova Mahallesi, 5. Çimen Sokak, 2B",
      "phone": "+902125807880",
      "district": "KÜÇÜKÇEKMECE",
      "city": "İstanbul",
      "latitude": 40.99120300043966,
      "longitude": 28.784365999650937,
      "dutyStart": "2026-02-25T21:00:00.000Z",
      "dutyEnd": "2026-02-26T20:59:59.000Z"
    },
    {
      "id": "istanbul-22780",
      "name": "YEŞİLÇAY ECZANESİ",
      "address": "Ağva Merkez Mahallesi, Yakuplu Caddesi, 9/C",
      "phone": "+902167218900",
      "district": "ŞİLE",
      "city": "İstanbul",
      "latitude": 41.138169014808206,
      "longitude": 29.85531572932006,
      "dutyStart": "2026-02-25T21:00:00.000Z",
      "dutyEnd": "2026-02-26T20:59:59.000Z"
    },
    {
      "id": "istanbul-29744",
      "name": "YILDIRIM ECZANESİ",
      "address": "Uğur Mumcu Mahallesi, 2114. Sokak, 28/A",
      "phone": "+902124764634",
      "district": "SULTANGAZİ",
      "city": "İstanbul",
      "latitude": 41.09594799961839,
      "longitude": 28.867028999758457,
      "dutyStart": "2026-02-25T21:00:00.000Z",
      "dutyEnd": "2026-02-26T20:59:59.000Z"
    },
    {
      "id": "istanbul-11482",
      "name": "YILDIZ ECZANESİ",
      "address": "Şenlikköy Mahallesi, Meydan Sokak, 3/A",
      "phone": "+902125741616",
      "district": "BAKIRKÖY",
      "city": "İstanbul",
      "latitude": 40.98114784635697,
      "longitude": 28.794567267770493,
      "dutyStart": "2026-02-25T21:00:00.000Z",
      "dutyEnd": "2026-02-26T20:59:59.000Z"
    },
    {
      "id": "istanbul-36342",
      "name": "YILDIZTABYA ECZANESİ",
      "address": "Yıldıztabya Mahallesi, Yıldıztabya Caddesi, No:165/A",
      "phone": "+902124382438",
      "district": "GAZİOSMANPAŞA",
      "city": "İstanbul",
      "latitude": 41.0655230607136,
      "longitude": 28.933039658551035,
      "dutyStart": "2026-02-25T21:00:00.000Z",
      "dutyEnd": "2026-02-26T20:59:59.000Z"
    },
    {
      "id": "istanbul-22222",
      "name": "YONCA ECZANESİ",
      "address": "Cebeci Mahallesi, Canakkale Sehıtlerı Caddesi, 63/C",
      "phone": "+902124760202",
      "district": "SULTANGAZİ",
      "city": "İstanbul",
      "latitude": 41.11009680392515,
      "longitude": 28.860750182595453,
      "dutyStart": "2026-02-25T21:00:00.000Z",
      "dutyEnd": "2026-02-26T20:59:59.000Z"
    },
    {
      "id": "istanbul-29524",
      "name": "ZAMBAK ECZANESİ",
      "address": "Bahçelievler Mahallesi, Zübeyde Hanım Caddesi, 24",
      "phone": "+902167552625",
      "district": "ÜSKÜDAR",
      "city": "İstanbul",
      "latitude": 41.052752378773704,
      "longitude": 29.07641172395766,
      "dutyStart": "2026-02-25T21:00:00.000Z",
      "dutyEnd": "2026-02-26T20:59:59.000Z"
    },
    {
      "id": "istanbul-29068",
      "name": "ZEREN ECZANESİ",
      "address": "Yavuztürk Mahallesi, Karadeniz Caddesi, 141/A",
      "phone": "+902163298311",
      "district": "ÜSKÜDAR",
      "city": "İstanbul",
      "latitude": 41.04070900024183,
      "longitude": 29.085437000238606,
      "dutyStart": "2026-02-25T21:00:00.000Z",
      "dutyEnd": "2026-02-26T20:59:59.000Z"
    },
    {
      "id": "istanbul-30166",
      "name": "ÇANAKKALE ECZANESİ",
      "address": "Mimar Sinan Mahallesi, Kemalpaşa Caddesi, 44/B",
      "phone": "+902166611121",
      "district": "ATAŞEHİR",
      "city": "İstanbul",
      "latitude": 40.985077655159785,
      "longitude": 29.161942920671514,
      "dutyStart": "2026-02-25T21:00:00.000Z",
      "dutyEnd": "2026-02-26T20:59:59.000Z"
    },
    {
      "id": "istanbul-14678",
      "name": "ÇAVUŞPAŞA ECZANESİ",
      "address": "Soğanlı Mahallesi, Çavuşpaşa Caddesi, 43/A",
      "phone": "+902125393010",
      "district": "BAHÇELİEVLER",
      "city": "İstanbul",
      "latitude": 41.010855664591,
      "longitude": 28.85019421528654,
      "dutyStart": "2026-02-25T21:00:00.000Z",
      "dutyEnd": "2026-02-26T20:59:59.000Z"
    },
    {
      "id": "istanbul-28958",
      "name": "ÇELİK ECZANESİ",
      "address": "Kuştepe Mahallesi, Şehit Er Cihan Namlı Caddesi, 131/C",
      "phone": "+902122172530",
      "district": "ŞİŞLİ",
      "city": "İstanbul",
      "latitude": 41.076475786685876,
      "longitude": 28.992501850526,
      "dutyStart": "2026-02-25T21:00:00.000Z",
      "dutyEnd": "2026-02-26T20:59:59.000Z"
    },
    {
      "id": "istanbul-30170",
      "name": "ÇİLEK ECZANESİ",
      "address": "Hadımköy Mahallesi, Göçmen Sokak, 22C",
      "phone": "+905352369780",
      "district": "ARNAVUTKÖY",
      "city": "İstanbul",
      "latitude": 41.15772500019295,
      "longitude": 28.622265000067202,
      "dutyStart": "2026-02-25T21:00:00.000Z",
      "dutyEnd": "2026-02-26T20:59:59.000Z"
    },
    {
      "id": "istanbul-16068",
      "name": "ÇİĞDEM ECZANESİ",
      "address": "Doğu Mahallesi, Aydınlı Caddesi, 73",
      "phone": "+902164913934",
      "district": "PENDİK",
      "city": "İstanbul",
      "latitude": 40.87899137410129,
      "longitude": 29.242905826226224,
      "dutyStart": "2026-02-25T21:00:00.000Z",
      "dutyEnd": "2026-02-26T20:59:59.000Z"
    },
    {
      "id": "istanbul-27530",
      "name": "ÖNAL ECZANESİ",
      "address": "Taşdelen Mahallesi, Turgut Özal Bulvarı, 112-118H",
      "phone": "+902167842780",
      "district": "ÇEKMEKÖY",
      "city": "İstanbul",
      "latitude": 41.031138999728526,
      "longitude": 29.22974199994605,
      "dutyStart": "2026-02-25T21:00:00.000Z",
      "dutyEnd": "2026-02-26T20:59:59.000Z"
    },
    {
      "id": "istanbul-12640",
      "name": "ÖZTÜRK ECZANESİ",
      "address": "Kanarya Mahallesi, Birlik Caddesi, 6",
      "phone": "+902126246041",
      "district": "KÜÇÜKÇEKMECE",
      "city": "İstanbul",
      "latitude": 41.01000626463362,
      "longitude": 28.775135802503318,
      "dutyStart": "2026-02-25T21:00:00.000Z",
      "dutyEnd": "2026-02-26T20:59:59.000Z"
    },
    {
      "id": "istanbul-22658",
      "name": "İDİL ECZANESİ",
      "address": "Göztepe Mahallesi, Çimenzar Sokak, 34/A",
      "phone": "+902165664669",
      "district": "KADIKÖY",
      "city": "İstanbul",
      "latitude": 40.98238628915181,
      "longitude": 29.065143808174657,
      "dutyStart": "2026-02-25T21:00:00.000Z",
      "dutyEnd": "2026-02-26T20:59:59.000Z"
    },
    {
      "id": "istanbul-26338",
      "name": "İHLAS ECZANESİ",
      "address": "Şehremini Mahallesi, Necip Asım Sokak, 18A",
      "phone": "+902125862388",
      "district": "FATİH",
      "city": "İstanbul",
      "latitude": 41.01371712289874,
      "longitude": 28.934161253040564,
      "dutyStart": "2026-02-25T21:00:00.000Z",
      "dutyEnd": "2026-02-26T20:59:59.000Z"
    },
    {
      "id": "istanbul-31622",
      "name": "İNCİ ECZANESİ",
      "address": "Göktürk Merkez Mahallesi, İstanbul Caddesi, Beyaz Konaklar Çarşısı No:48/D",
      "phone": "+902122723196",
      "district": "EYÜPSULTAN",
      "city": "İstanbul",
      "latitude": 41.184816403410366,
      "longitude": 28.881268411218016,
      "dutyStart": "2026-02-25T21:00:00.000Z",
      "dutyEnd": "2026-02-26T20:59:59.000Z"
    },
    {
      "id": "istanbul-20268",
      "name": "İPEK ECZANESİ",
      "address": "Kumbaba Mahallesi, Yazgülü Sokak, 38/2",
      "phone": "+902167103040",
      "district": "ŞİLE",
      "city": "İstanbul",
      "latitude": 41.16287560839821,
      "longitude": 29.572125926200027,
      "dutyStart": "2026-02-25T21:00:00.000Z",
      "dutyEnd": "2026-02-26T20:59:59.000Z"
    },
    {
      "id": "istanbul-34916",
      "name": "İSTANBUL ECZANESİ",
      "address": "Altayçeşme Mahallesi, Bağdat Caddesi, No:377A",
      "phone": "+902163525420",
      "district": "MALTEPE",
      "city": "İstanbul",
      "latitude": 40.928067999632,
      "longitude": 29.129579999622514,
      "dutyStart": "2026-02-25T21:00:00.000Z",
      "dutyEnd": "2026-02-26T20:59:59.000Z"
    },
    {
      "id": "istanbul-12374",
      "name": "İSTİKLAL ECZANESİ",
      "address": "İstiklal Mahallesi Şehzade Caddesi 3/B",
      "phone": "+902163164553",
      "district": "ÜMRANİYE",
      "city": "İstanbul",
      "latitude": 41.02310112814211,
      "longitude": 29.101845882058093,
      "dutyStart": "2026-02-25T21:00:00.000Z",
      "dutyEnd": "2026-02-26T20:59:59.000Z"
    },
    {
      "id": "istanbul-32180",
      "name": "ŞANAL ECZANESİ",
      "address": "Çırçır Mahallesi, Uludağ Caddesi, 1-9E",
      "phone": "+902127413807",
      "district": "EYÜPSULTAN",
      "city": "İstanbul",
      "latitude": 41.0842849998417,
      "longitude": 28.93890299997766,
      "dutyStart": "2026-02-25T21:00:00.000Z",
      "dutyEnd": "2026-02-26T20:59:59.000Z"
    },
    {
      "id": "istanbul-33652",
      "name": "ŞULE ECZANESİ",
      "address": "Cevizlik Mahallesi, Kırmızı Şebboy Sokak, 9/A",
      "phone": "+902125719065",
      "district": "BAKIRKÖY",
      "city": "İstanbul",
      "latitude": 40.97763599971962,
      "longitude": 28.877098999644232,
      "dutyStart": "2026-02-25T21:00:00.000Z",
      "dutyEnd": "2026-02-26T20:59:59.000Z"
    }
  ]
}