{
  "city": "izmir",
  "cityName": "İzmir",
  "cityId": 35,
  "date": "2026-02-21",
  "updatedAt": "2026-02-21T16:30:59.100Z",
  "count": 74,
  "pharmacies": [
    {
      "id": "izmir-0-4",
      "name": "YILDIZ ECZANESİ",
      "address": "ZAFER MAH. YENER CAD. NO:25/B",
      "phone": "02324676727",
      "district": "ALTINDAĞ",
      "city": "İzmir",
      "latitude": 38.422392,
      "longitude": 27.205131,
      "dutyStart": "2026-02-21T08:00:00.000Z",
      "dutyEnd": "2026-02-22T08:00:00.000Z"
    },
    {
      "id": "izmir-1-6",
      "name": "CANDAN ECZANESİ",
      "address": "ONUR MAH. ATA CAD. NO:108/A",
      "phone": "02329990681",
      "district": "BALÇOVA",
      "city": "İzmir",
      "latitude": 38.388976,
      "longitude": 27.058437,
      "dutyStart": "2026-02-21T08:00:00.000Z",
      "dutyEnd": "2026-02-22T08:00:00.000Z"
    },
    {
      "id": "izmir-2-7",
      "name": "DENİZ ECZANESİ",
      "address": "ADNAN SÜVARI MAH. POLAT CD. NO:212/A",
      "phone": "02322475996",
      "district": "BASIN SİTESİ",
      "city": "İzmir",
      "latitude": 38.391724,
      "longitude": 27.097026,
      "dutyStart": "2026-02-21T08:00:00.000Z",
      "dutyEnd": "2026-02-22T08:00:00.000Z"
    },
    {
      "id": "izmir-3-9",
      "name": "ÖZYIGIT ECZANESİ",
      "address": "ALPARSLAN MAH. 1620/15 SOKAK NO:1/A BAYRAKLI",
      "phone": "02323457436",
      "district": "BAYRAKLI",
      "city": "İzmir",
      "latitude": 38.469893,
      "longitude": 27.166664,
      "dutyStart": "2026-02-21T08:00:00.000Z",
      "dutyEnd": "2026-02-22T08:00:00.000Z"
    },
    {
      "id": "izmir-4-10",
      "name": "ADALI ECZANESİ",
      "address": "ERZENE MAH. KAZIM KARABEKİR CAD. NO:35/C",
      "phone": "02323733235",
      "district": "BORNOVA 1",
      "city": "İzmir",
      "latitude": 38.464881,
      "longitude": 27.22226,
      "dutyStart": "2026-02-21T08:00:00.000Z",
      "dutyEnd": "2026-02-22T08:00:00.000Z"
    },
    {
      "id": "izmir-5-11",
      "name": "BAŞARAN ECZANESİ",
      "address": "KAZIM DİRİK MAH. 186 SOK. NO:32/A",
      "phone": "02323884222",
      "district": "BORNOVA 2",
      "city": "İzmir",
      "latitude": 38.459291,
      "longitude": 27.207283,
      "dutyStart": "2026-02-21T08:00:00.000Z",
      "dutyEnd": "2026-02-22T08:00:00.000Z"
    },
    {
      "id": "izmir-6-12",
      "name": "LİLA ECZANESİ",
      "address": "MANSUROĞLU MAH. 273/6 SOK. NO:6/C",
      "phone": "02322253777",
      "district": "BORNOVA 3",
      "city": "İzmir",
      "latitude": 38.457011,
      "longitude": 27.189742,
      "dutyStart": "2026-02-21T08:00:00.000Z",
      "dutyEnd": "2026-02-22T08:00:00.000Z"
    },
    {
      "id": "izmir-7-12",
      "name": "KALABAK HUZUR ECZANESİ",
      "address": "KALABAK MAH. NEYZEN TEVFİK CAD. NO:121/A",
      "phone": "02320000000",
      "district": "BORNOVA 3",
      "city": "İzmir",
      "latitude": 38.354765,
      "longitude": 26.805476,
      "dutyStart": "2026-02-21T08:00:00.000Z",
      "dutyEnd": "2026-02-22T08:00:00.000Z"
    },
    {
      "id": "izmir-8-14",
      "name": "ULU ECZANESİ",
      "address": "BOZYAKA-3013 SOK. NO:28/A",
      "phone": "02322616151",
      "district": "BOZYAKA",
      "city": "İzmir",
      "latitude": 38.391432,
      "longitude": 27.121153,
      "dutyStart": "2026-02-21T08:00:00.000Z",
      "dutyEnd": "2026-02-22T08:00:00.000Z"
    },
    {
      "id": "izmir-9-15",
      "name": "ASLI ECZANESİ",
      "address": "VALİ RAHMİ BEY MAH. 133 SOK. NO:25/B",
      "phone": "02324523932",
      "district": "BUCA 1",
      "city": "İzmir",
      "latitude": 38.385516,
      "longitude": 27.166244,
      "dutyStart": "2026-02-21T08:00:00.000Z",
      "dutyEnd": "2026-02-22T08:00:00.000Z"
    },
    {
      "id": "izmir-10-16",
      "name": "NİLÜFER ECE ECZANESİ",
      "address": "BARBAROS MAH. BURAK REİS CAD. NO:106",
      "phone": "02324351122",
      "district": "ÇAMDİBİ",
      "city": "İzmir",
      "latitude": 38.437367,
      "longitude": 27.188979,
      "dutyStart": "2026-02-21T08:00:00.000Z",
      "dutyEnd": "2026-02-22T08:00:00.000Z"
    },
    {
      "id": "izmir-11-17",
      "name": "FLORA ECZANESİ",
      "address": "BALATÇIK MAH. 8788/7 SOK. NO:4/D",
      "phone": "02329484002",
      "district": "ÇİĞLİ",
      "city": "İzmir",
      "latitude": 38.513267,
      "longitude": 27.0392,
      "dutyStart": "2026-02-21T08:00:00.000Z",
      "dutyEnd": "2026-02-22T08:00:00.000Z"
    },
    {
      "id": "izmir-12-17",
      "name": "KIVANÇ ECZANESİ",
      "address": "YENİMAHALLE MAH. ESKİ HAVAALANI CAD. NO:108/MD",
      "phone": "02325048878",
      "district": "ÇİĞLİ",
      "city": "İzmir",
      "latitude": 38.493929,
      "longitude": 27.048136,
      "dutyStart": "2026-02-21T08:00:00.000Z",
      "dutyEnd": "2026-02-22T08:00:00.000Z"
    },
    {
      "id": "izmir-13-17",
      "name": "MAVİ ECZANESİ",
      "address": "ATAŞEHİR MAH. 8211/9 SOK. NO:11/1B",
      "phone": "02323622498",
      "district": "ÇİĞLİ",
      "city": "İzmir",
      "latitude": 38.486116,
      "longitude": 27.055723,
      "dutyStart": "2026-02-21T08:00:00.000Z",
      "dutyEnd": "2026-02-22T08:00:00.000Z"
    },
    {
      "id": "izmir-14-19",
      "name": "ÇEŞME ILICA  ECZANESİ",
      "address": "ILICA MH. 5065 SK. NO:2/A",
      "phone": "02327230011",
      "district": "ÇEŞME",
      "city": "İzmir",
      "latitude": 38.307945,
      "longitude": 26.361266,
      "dutyStart": "2026-02-21T08:00:00.000Z",
      "dutyEnd": "2026-02-22T08:00:00.000Z"
    },
    {
      "id": "izmir-15-19",
      "name": "UMUT ECZANESİ",
      "address": "FAHRETTİNPAŞA MAH. 2222/1 SOK. NO:4A",
      "phone": "02322029481",
      "district": "ÇEŞME",
      "city": "İzmir",
      "latitude": 38.317894,
      "longitude": 26.326073,
      "dutyStart": "2026-02-21T08:00:00.000Z",
      "dutyEnd": "2026-02-22T08:00:00.000Z"
    },
    {
      "id": "izmir-16-20",
      "name": "NAZILLI ECZANESİ",
      "address": "ESREFPASA CAD.NO.364/A",
      "phone": "02322503284",
      "district": "EŞREFPAŞA ",
      "city": "İzmir",
      "latitude": 38.405176,
      "longitude": 27.128534,
      "dutyStart": "2026-02-21T08:00:00.000Z",
      "dutyEnd": "2026-02-22T08:00:00.000Z"
    },
    {
      "id": "izmir-17-22",
      "name": "ANDAÇ ECZANESİ",
      "address": "ATIF BEY MAH. MERTLER CAD. NO:6/A GAZİEMİR",
      "phone": "02322518651",
      "district": "GAZİEMİR",
      "city": "İzmir",
      "latitude": 38.32292,
      "longitude": 27.136249,
      "dutyStart": "2026-02-21T08:00:00.000Z",
      "dutyEnd": "2026-02-22T08:00:00.000Z"
    },
    {
      "id": "izmir-18-23",
      "name": "MİRAC ECZANESİ",
      "address": "FIRAT MAH. 287/9 SOK. NO:17/A",
      "phone": "02322768636",
      "district": "GEDİZ",
      "city": "İzmir",
      "latitude": 38.376303,
      "longitude": 27.14752,
      "dutyStart": "2026-02-21T08:00:00.000Z",
      "dutyEnd": "2026-02-22T08:00:00.000Z"
    },
    {
      "id": "izmir-19-25",
      "name": "IRMAK ECZANESİ",
      "address": "ZEYBEK MAH. 2388 SOK. NO:4/A",
      "phone": "02324578080",
      "district": "GÜLTEPE",
      "city": "İzmir",
      "latitude": 38.415934,
      "longitude": 27.172843,
      "dutyStart": "2026-02-21T08:00:00.000Z",
      "dutyEnd": "2026-02-22T08:00:00.000Z"
    },
    {
      "id": "izmir-20-26",
      "name": "YENİ GİRNE ECZANESİ",
      "address": "SOĞUKKUYU MAH. 1847/26 SOK. NO:5/C",
      "phone": "02323631621",
      "district": "GÜMÜŞPALA",
      "city": "İzmir",
      "latitude": 38.47879,
      "longitude": 27.118849,
      "dutyStart": "2026-02-21T08:00:00.000Z",
      "dutyEnd": "2026-02-22T08:00:00.000Z"
    },
    {
      "id": "izmir-21-28",
      "name": "ÖZ ÖZKAN ECZANESİ",
      "address": "ATATÜRK MAH. NAMIK KEMAL CAD. NO:8/A GÜZELBAHÇE/IZMIR",
      "phone": "02322345262",
      "district": "GÜZELBAHÇE",
      "city": "İzmir",
      "latitude": 38.358973,
      "longitude": 26.887027,
      "dutyStart": "2026-02-21T08:00:00.000Z",
      "dutyEnd": "2026-02-22T08:00:00.000Z"
    },
    {
      "id": "izmir-22-31",
      "name": "AKARSU ECZANESİ",
      "address": "KORUTÜRK MAH. MİTHATPAŞA CAD. NO:289",
      "phone": "02322778881",
      "district": "İNCİRALTI",
      "city": "İzmir",
      "latitude": 38.392879,
      "longitude": 27.032787,
      "dutyStart": "2026-02-21T08:00:00.000Z",
      "dutyEnd": "2026-02-22T08:00:00.000Z"
    },
    {
      "id": "izmir-23-32",
      "name": "BÜŞRA  ECZANESİ",
      "address": "KARABAĞLAR İLÇESİ YUNUS EMRE MAH. 4229 SOK. NO:46/A",
      "phone": "02322375887",
      "district": "KARABAĞLAR",
      "city": "İzmir",
      "latitude": 38.368956,
      "longitude": 27.126423,
      "dutyStart": "2026-02-21T08:00:00.000Z",
      "dutyEnd": "2026-02-22T08:00:00.000Z"
    },
    {
      "id": "izmir-24-37",
      "name": "KÖPRÜBAŞI ECZANESİ",
      "address": "MITHATPASA CAD.244/A",
      "phone": "02322383607",
      "district": "NARLIDERE",
      "city": "İzmir",
      "latitude": 38.394631,
      "longitude": 27.005095,
      "dutyStart": "2026-02-21T08:00:00.000Z",
      "dutyEnd": "2026-02-22T08:00:00.000Z"
    },
    {
      "id": "izmir-25-39",
      "name": "PINARBAŞI ECZANESİ",
      "address": "KEMAL PAŞA MAH. 7055 SOK. NO:34/A PINARBAŞI",
      "phone": "02324791702",
      "district": "PINARBAŞI",
      "city": "İzmir",
      "latitude": 38.429891,
      "longitude": 27.269923,
      "dutyStart": "2026-02-21T08:00:00.000Z",
      "dutyEnd": "2026-02-22T08:00:00.000Z"
    },
    {
      "id": "izmir-26-42",
      "name": "ALTINTAŞ ECZANESİ",
      "address": "ALTINTAŞ MAH. İNÖNÜ CAD. NO:116/A ",
      "phone": "02322281751",
      "district": "ÜÇYOL",
      "city": "İzmir",
      "latitude": 38.407348,
      "longitude": 27.124062,
      "dutyStart": "2026-02-21T08:00:00.000Z",
      "dutyEnd": "2026-02-22T08:00:00.000Z"
    },
    {
      "id": "izmir-27-43",
      "name": "YENI KARTAL ECZANESİ",
      "address": "1140 SOK.NO:12/G ZEYTINLIK",
      "phone": "02324570040",
      "district": "YENİŞEHİR",
      "city": "İzmir",
      "latitude": 38.419099,
      "longitude": 27.159744,
      "dutyStart": "2026-02-21T08:00:00.000Z",
      "dutyEnd": "2026-02-22T08:00:00.000Z"
    },
    {
      "id": "izmir-28-44",
      "name": "TAŞ ECZANESİ",
      "address": "ESENLİK MAH. ANT CAD. NO:23/A YEŞİLYURT",
      "phone": "02322624757",
      "district": "YEŞİLYURT",
      "city": "İzmir",
      "latitude": 38.396404,
      "longitude": 27.113345,
      "dutyStart": "2026-02-21T08:00:00.000Z",
      "dutyEnd": "2026-02-22T08:00:00.000Z"
    },
    {
      "id": "izmir-29-45",
      "name": "SEÇIL ESER ECZANESİ",
      "address": "YAVUZ SULTAN SELIM CAD.ADATEPE MAH. NO: 218/A",
      "phone": "02324426835",
      "district": "EVKA 1",
      "city": "İzmir",
      "latitude": 38.389933,
      "longitude": 27.186452,
      "dutyStart": "2026-02-21T08:00:00.000Z",
      "dutyEnd": "2026-02-22T08:00:00.000Z"
    },
    {
      "id": "izmir-30-46",
      "name": "ASLIM ECZANESİ",
      "address": "KURUÇEŞME MAH. AHMET PRİŞTİNA CAD. 66/C",
      "phone": "02324535970",
      "district": "BUCA 2",
      "city": "İzmir",
      "latitude": 38.369795,
      "longitude": 27.193728,
      "dutyStart": "2026-02-21T08:00:00.000Z",
      "dutyEnd": "2026-02-22T08:00:00.000Z"
    },
    {
      "id": "izmir-31-48",
      "name": "SELMA ECZANESİ",
      "address": "HÜRRİYET MAH. BÜYÜK MENDERES CAD. NO:220/A SARNIÇ",
      "phone": "02322814700",
      "district": "SARNIÇ",
      "city": "İzmir",
      "latitude": 38.298772,
      "longitude": 27.179039,
      "dutyStart": "2026-02-21T08:00:00.000Z",
      "dutyEnd": "2026-02-22T08:00:00.000Z"
    },
    {
      "id": "izmir-32-50",
      "name": "İBRİM ECZANESİ",
      "address": "MENDERES CD. NO:410/A",
      "phone": "02324871016",
      "district": "ŞİRİNYER",
      "city": "İzmir",
      "latitude": 38.400251,
      "longitude": 27.14974,
      "dutyStart": "2026-02-21T08:00:00.000Z",
      "dutyEnd": "2026-02-22T08:00:00.000Z"
    },
    {
      "id": "izmir-33-51",
      "name": "MELEK ECZANESİ",
      "address": "KÜLTÜR MAH. ISTIKLAL CAD. NO:64/B ALIAGA/ IZMIR",
      "phone": "02326161058",
      "district": "ALİAĞA",
      "city": "İzmir",
      "latitude": 38.801387,
      "longitude": 26.972784,
      "dutyStart": "2026-02-21T08:00:00.000Z",
      "dutyEnd": "2026-02-22T08:00:00.000Z"
    },
    {
      "id": "izmir-34-52",
      "name": "YILDIRIM ECZANESİ",
      "address": "FEVZİ ÇAKMAK MAH. BARIŞ MANÇO CAD.NO:44/D",
      "phone": "02328547202",
      "district": "AYRANCILAR",
      "city": "İzmir",
      "latitude": 38.241138,
      "longitude": 27.281958,
      "dutyStart": "2026-02-21T08:00:00.000Z",
      "dutyEnd": "2026-02-22T08:00:00.000Z"
    },
    {
      "id": "izmir-35-53",
      "name": "BÜYÜK BAYINDIR ECZANESİ",
      "address": "SADIKPASA MAH. ATATÜRK CAD. 104/A",
      "phone": "02325817516",
      "district": "BAYINDIR",
      "city": "İzmir",
      "latitude": 38.21452,
      "longitude": 27.648052,
      "dutyStart": "2026-02-21T08:00:00.000Z",
      "dutyEnd": "2026-02-22T08:00:00.000Z"
    },
    {
      "id": "izmir-36-54",
      "name": "KERMES ECZANESİ",
      "address": "ERTUĞRUL MAH. CUMHURİYET CAD. ÖZEL İDARE İŞHANI NO. Z-04",
      "phone": "02326331520",
      "district": "BERGAMA",
      "city": "İzmir",
      "latitude": 39.117814,
      "longitude": 27.177087,
      "dutyStart": "2026-02-21T08:00:00.000Z",
      "dutyEnd": "2026-02-22T08:00:00.000Z"
    },
    {
      "id": "izmir-37-55",
      "name": "BEYDAG SIFA ECZANESİ",
      "address": "Atatürk Mah.ULUS MEYDANI NO:6/A",
      "phone": "02325926018",
      "district": "BEYDAĞ",
      "city": "İzmir",
      "latitude": 38.085103,
      "longitude": 28.208621,
      "dutyStart": "2026-02-21T08:00:00.000Z",
      "dutyEnd": "2026-02-22T08:00:00.000Z"
    },
    {
      "id": "izmir-38-58",
      "name": "ÖZGÜLER ECZANESİ",
      "address": "KASIMPAŞA MH. ATATÜRK CAD. NO:91-93B ",
      "phone": "02327824041",
      "district": "MENDERES",
      "city": "İzmir",
      "latitude": 38.256825,
      "longitude": 27.130668,
      "dutyStart": "2026-02-21T08:00:00.000Z",
      "dutyEnd": "2026-02-22T08:00:00.000Z"
    },
    {
      "id": "izmir-39-61",
      "name": "DAGLI ECZANESİ",
      "address": "İSMETPAŞA MH. ADNAN MENDERES CD. 9 SK. NO:31/B",
      "phone": "02326718188",
      "district": "DİKİLİ",
      "city": "İzmir",
      "latitude": 39.070748,
      "longitude": 26.889568,
      "dutyStart": "2026-02-21T08:00:00.000Z",
      "dutyEnd": "2026-02-22T08:00:00.000Z"
    },
    {
      "id": "izmir-40-62",
      "name": "LOTUS ECZANESİ",
      "address": "ATATÜRK MAH. 99 SOK. NO:26/A",
      "phone": "02328126303",
      "district": "ESKİ FOÇA",
      "city": "İzmir",
      "latitude": 38.659082,
      "longitude": 26.764558,
      "dutyStart": "2026-02-21T08:00:00.000Z",
      "dutyEnd": "2026-02-22T08:00:00.000Z"
    },
    {
      "id": "izmir-41-63",
      "name": "AKPINAR ECZANESİ",
      "address": "MUSTAFA KEMAL ATATÜRK MH.İZMİR CD. NO:77 FOÇA İZMİR",
      "phone": "02328148200",
      "district": "YENİ FOÇA",
      "city": "İzmir",
      "latitude": 38.738668,
      "longitude": 26.839345,
      "dutyStart": "2026-02-21T08:00:00.000Z",
      "dutyEnd": "2026-02-22T08:00:00.000Z"
    },
    {
      "id": "izmir-42-64",
      "name": "YENI KARABURUN ECZANESİ",
      "address": "MERKEZ MAH.NO:1  KARABURUN",
      "phone": "02327312403",
      "district": "KARABURUN",
      "city": "İzmir",
      "latitude": 38.636037,
      "longitude": 26.510373,
      "dutyStart": "2026-02-21T08:00:00.000Z",
      "dutyEnd": "2026-02-22T08:00:00.000Z"
    },
    {
      "id": "izmir-43-65",
      "name": "YARIMADA ILGIN ECZANESİ",
      "address": "MORDOĞAN MAH. 194 SOK. NO:29/1",
      "phone": "02327378383",
      "district": "MORDOĞAN",
      "city": "İzmir",
      "latitude": 38.511472,
      "longitude": 26.61709,
      "dutyStart": "2026-02-21T08:00:00.000Z",
      "dutyEnd": "2026-02-22T08:00:00.000Z"
    },
    {
      "id": "izmir-44-66",
      "name": "ONURTÜRK ECZANESİ",
      "address": "SEKİZ EYLÜL MAH. 19 MAYIS CAD. NO:42/B",
      "phone": "02328780019",
      "district": "KEMALPAŞA",
      "city": "İzmir",
      "latitude": 38.435823,
      "longitude": 27.409075,
      "dutyStart": "2026-02-21T08:00:00.000Z",
      "dutyEnd": "2026-02-22T08:00:00.000Z"
    },
    {
      "id": "izmir-45-67",
      "name": "ÇALIKUŞU ECZANESİ",
      "address": "POYRACIK MAH. BERGAMA CAD. NO:19/A",
      "phone": "02326880030",
      "district": "KINIK",
      "city": "İzmir",
      "latitude": 39.090668,
      "longitude": 27.348205,
      "dutyStart": "2026-02-21T08:00:00.000Z",
      "dutyEnd": "2026-02-22T08:00:00.000Z"
    },
    {
      "id": "izmir-46-68",
      "name": "ORHANLAR ECZANESİ",
      "address": "CUMHURu0130YET MH.SABIT ARLI CAD. 46B",
      "phone": "02325724366",
      "district": "KİRAZ",
      "city": "İzmir",
      "latitude": 38.231383,
      "longitude": 28.206862,
      "dutyStart": "2026-02-21T08:00:00.000Z",
      "dutyEnd": "2026-02-22T08:00:00.000Z"
    },
    {
      "id": "izmir-47-69",
      "name": "MERT ECZANESİ",
      "address": "KASIMPASA MAH. 1028/2 SOK",
      "phone": "02328315626",
      "district": "MENEMEN",
      "city": "İzmir",
      "latitude": 38.606436,
      "longitude": 27.079001,
      "dutyStart": "2026-02-21T08:00:00.000Z",
      "dutyEnd": "2026-02-22T08:00:00.000Z"
    },
    {
      "id": "izmir-48-70",
      "name": "ÖZKOÇ ECZANESİ",
      "address": "İNÖNÜ MAHALLESİ ŞEHİT SALİM İZLEYEN CADDESİ NO:41/A",
      "phone": "02325453136",
      "district": "ÖDEMİŞ",
      "city": "İzmir",
      "latitude": 38.235415,
      "longitude": 27.975032,
      "dutyStart": "2026-02-21T08:00:00.000Z",
      "dutyEnd": "2026-02-22T08:00:00.000Z"
    },
    {
      "id": "izmir-49-71",
      "name": "İLKCAN ECZANESİ",
      "address": "TURABİYE MAH. 52/4 SOK. NO:39/B",
      "phone": "02327432323",
      "district": "SEFERİHİSAR",
      "city": "İzmir",
      "latitude": 38.195983,
      "longitude": 26.842544,
      "dutyStart": "2026-02-21T08:00:00.000Z",
      "dutyEnd": "2026-02-22T08:00:00.000Z"
    },
    {
      "id": "izmir-50-71",
      "name": "UMUT ECZANESİ",
      "address": "ATATÜRK MH.ATATÜRK CD.91/B",
      "phone": "02325453304",
      "district": "SEFERİHİSAR",
      "city": "İzmir",
      "latitude": 38.227891,
      "longitude": 27.983038,
      "dutyStart": "2026-02-21T08:00:00.000Z",
      "dutyEnd": "2026-02-22T08:00:00.000Z"
    },
    {
      "id": "izmir-51-72",
      "name": "EFES ECZANESİ",
      "address": "ATATÜRK MAH. 1067 SOKAK NO:1/A",
      "phone": "02328926835",
      "district": "SELÇUK",
      "city": "İzmir",
      "latitude": 37.947196,
      "longitude": 27.367789,
      "dutyStart": "2026-02-21T08:00:00.000Z",
      "dutyEnd": "2026-02-22T08:00:00.000Z"
    },
    {
      "id": "izmir-52-73",
      "name": "GÜNEŞ ECZANESİ",
      "address": "YENİ MAHALLE MAH. ZAFER CAD. NO:38",
      "phone": "02327541648",
      "district": "URLA",
      "city": "İzmir",
      "latitude": 38.322219,
      "longitude": 26.765711,
      "dutyStart": "2026-02-21T08:00:00.000Z",
      "dutyEnd": "2026-02-22T08:00:00.000Z"
    },
    {
      "id": "izmir-53-74",
      "name": "ÇEŞMECİ ECZANESİ",
      "address": "ATATÜRK MH. İSTASYON CD. NO:86/1-B BLOK NO:4 TİRE",
      "phone": "02325004015",
      "district": "TİRE",
      "city": "İzmir",
      "latitude": 38.100082,
      "longitude": 27.720421,
      "dutyStart": "2026-02-21T08:00:00.000Z",
      "dutyEnd": "2026-02-22T08:00:00.000Z"
    },
    {
      "id": "izmir-54-75",
      "name": "CANSU ECZANESİ",
      "address": "TORBALI MH. METROPOLİS BULVARI NO:114-A",
      "phone": "02329993770",
      "district": "TORBALI",
      "city": "İzmir",
      "latitude": 38.179146,
      "longitude": 27.352332,
      "dutyStart": "2026-02-21T08:00:00.000Z",
      "dutyEnd": "2026-02-22T08:00:00.000Z"
    },
    {
      "id": "izmir-55-75",
      "name": "KRİSTAL ECZANESİ",
      "address": "TEPEKÖY MAH. KAZIM DİRİK CAD. NO:2/A",
      "phone": "02328562129",
      "district": "TORBALI",
      "city": "İzmir",
      "latitude": 38.149873,
      "longitude": 27.361997,
      "dutyStart": "2026-02-21T08:00:00.000Z",
      "dutyEnd": "2026-02-22T08:00:00.000Z"
    },
    {
      "id": "izmir-56-76",
      "name": "YAZAL ECZANESİ",
      "address": "SAYFIYE MAH. KAZIM DIRIK CAD.NO:58/AYENI SAKRAN-ALIAGA/IZMIR",
      "phone": "02326287143",
      "district": "YENİ ŞAKRAN",
      "city": "İzmir",
      "latitude": 38.889168,
      "longitude": 27.065746,
      "dutyStart": "2026-02-21T08:00:00.000Z",
      "dutyEnd": "2026-02-22T08:00:00.000Z"
    },
    {
      "id": "izmir-57-77",
      "name": "AKUT ECZANESİ",
      "address": "ORHAN ŞAİK GÖKYAY CD.1834 SK. NO:38/B",
      "phone": "02323822300",
      "district": "KARŞIYAKA 2",
      "city": "İzmir",
      "latitude": 38.464333,
      "longitude": 27.112269,
      "dutyStart": "2026-02-21T08:00:00.000Z",
      "dutyEnd": "2026-02-22T08:00:00.000Z"
    },
    {
      "id": "izmir-58-78",
      "name": "NAZIN ECZANESİ",
      "address": "YALI MH. 6479 SK. NO:17/C ",
      "phone": "02323247873",
      "district": "KARŞIYAKA 3",
      "city": "İzmir",
      "latitude": 38.471543,
      "longitude": 27.089247,
      "dutyStart": "2026-02-21T08:00:00.000Z",
      "dutyEnd": "2026-02-22T08:00:00.000Z"
    },
    {
      "id": "izmir-59-79",
      "name": "KALE ECZANESİ",
      "address": "FİKRİ ALTAY MH. ERDOĞAN AKKAYA SK. NO:7/A",
      "phone": "02323620606",
      "district": "KARŞIYAKA 4",
      "city": "İzmir",
      "latitude": 38.475346,
      "longitude": 27.10118,
      "dutyStart": "2026-02-21T08:00:00.000Z",
      "dutyEnd": "2026-02-22T08:00:00.000Z"
    },
    {
      "id": "izmir-60-80",
      "name": "ESEN ECZANESİ",
      "address": "DONANMACI MAH. 1728 SOK. (KLİSE SOKAK) NO:44/B",
      "phone": "02323647484",
      "district": "KARŞIYAKA 1",
      "city": "İzmir",
      "latitude": 38.455493,
      "longitude": 27.114863,
      "dutyStart": "2026-02-21T08:00:00.000Z",
      "dutyEnd": "2026-02-22T08:00:00.000Z"
    },
    {
      "id": "izmir-61-82",
      "name": "ÖZGE ECZANESİ",
      "address": "MİMAR SİNAN MAH. IŞILAY SAYGIN SOK. NO:15/A",
      "phone": "02324222711",
      "district": "ALSANCAK",
      "city": "İzmir",
      "latitude": 38.432653,
      "longitude": 27.148372,
      "dutyStart": "2026-02-21T08:00:00.000Z",
      "dutyEnd": "2026-02-22T08:00:00.000Z"
    },
    {
      "id": "izmir-62-83",
      "name": "DEFNE ECZANESİ",
      "address": "INÖNÜ CAD.NO.603/A HATAY KARABAGLAR-IZMIR",
      "phone": "02322850230",
      "district": "HATAY",
      "city": "İzmir",
      "latitude": 38.394691,
      "longitude": 27.091138,
      "dutyStart": "2026-02-21T08:00:00.000Z",
      "dutyEnd": "2026-02-22T08:00:00.000Z"
    },
    {
      "id": "izmir-63-84",
      "name": "KARANTINA ECZANESİ",
      "address": "MITHATPASA CAD.NO:525/A KÜÇÜKYALI",
      "phone": "02322443187",
      "district": "MİTHATPAŞA",
      "city": "İzmir",
      "latitude": 38.406981,
      "longitude": 27.105044,
      "dutyStart": "2026-02-21T08:00:00.000Z",
      "dutyEnd": "2026-02-22T08:00:00.000Z"
    },
    {
      "id": "izmir-64-89",
      "name": "ORAN ECZANESİ",
      "address": "ISLAM MAH. HÜRRIYET MEYDANI NO:22/2 ÇANDARLI-IZMIR",
      "phone": "02326731088",
      "district": "ÇANDARLI",
      "city": "İzmir",
      "latitude": 38.935683,
      "longitude": 26.934613,
      "dutyStart": "2026-02-21T08:00:00.000Z",
      "dutyEnd": "2026-02-22T08:00:00.000Z"
    },
    {
      "id": "izmir-65-101",
      "name": "YENİ GÜNDOĞDU ECZANESİ",
      "address": "INÖNÜ MAH. 784 SOKAK NO:14/A BORNOVA",
      "phone": "02323423570",
      "district": "ATATÜRK",
      "city": "İzmir",
      "latitude": 38.478479,
      "longitude": 27.211112,
      "dutyStart": "2026-02-21T08:00:00.000Z",
      "dutyEnd": "2026-02-22T08:00:00.000Z"
    },
    {
      "id": "izmir-66-101",
      "name": "SARDUNYA ECZANESİ",
      "address": "OSMANGAZİ MAH. 579 SOK. NO:54/C",
      "phone": "02329990224",
      "district": "ATATÜRK",
      "city": "İzmir",
      "latitude": 38.468451,
      "longitude": 27.190026,
      "dutyStart": "2026-02-21T08:00:00.000Z",
      "dutyEnd": "2026-02-22T08:00:00.000Z"
    },
    {
      "id": "izmir-67-102",
      "name": "DERYA ECZANESİ",
      "address": "ALİ FUAT CEBESOY MAH. ESKİİZMİR NO:528/1A",
      "phone": "02322710606",
      "district": "ESKİİZMİR-CENNETÇEŞME",
      "city": "İzmir",
      "latitude": 38.376924,
      "longitude": 27.10785,
      "dutyStart": "2026-02-21T08:00:00.000Z",
      "dutyEnd": "2026-02-22T08:00:00.000Z"
    },
    {
      "id": "izmir-68-103",
      "name": "YENİ SERTER ECZANESİ",
      "address": "FEVZIPASA BULVARI NO:133/B BASMANE KONAK",
      "phone": "02324898443",
      "district": "ALSANCAK-BASMANE",
      "city": "İzmir",
      "latitude": 38.42263,
      "longitude": 27.140521,
      "dutyStart": "2026-02-21T08:00:00.000Z",
      "dutyEnd": "2026-02-22T08:00:00.000Z"
    },
    {
      "id": "izmir-69-106",
      "name": "HAKAN YILMAZ ECZANESİ",
      "address": "7306 SOK. NO:28/A ÜMIT MAH.",
      "phone": "02324786463",
      "district": "BORNOVA 4",
      "city": "İzmir",
      "latitude": 38.441715,
      "longitude": 27.257843,
      "dutyStart": "2026-02-21T08:00:00.000Z",
      "dutyEnd": "2026-02-22T08:00:00.000Z"
    },
    {
      "id": "izmir-70-107",
      "name": "5.CADDE ECZANESİ",
      "address": "İSTİKLAL MAH. 5.CADDE NO:26/A",
      "phone": "02320899111",
      "district": "MENEMEN 2",
      "city": "İzmir",
      "latitude": 38.553558,
      "longitude": 27.055981,
      "dutyStart": "2026-02-21T08:00:00.000Z",
      "dutyEnd": "2026-02-22T08:00:00.000Z"
    },
    {
      "id": "izmir-71-109",
      "name": "ZEYTİNALANI ECZANESİ",
      "address": "ISMET INÖNÜ CAD.NO:4/2 ZEYTINALANI MAH.",
      "phone": "02327664043",
      "district": "ZEYTİNALANI",
      "city": "İzmir",
      "latitude": 38.368004,
      "longitude": 26.836762,
      "dutyStart": "2026-02-21T08:00:00.000Z",
      "dutyEnd": "2026-02-22T08:00:00.000Z"
    },
    {
      "id": "izmir-72-112",
      "name": "SIĞACIK ECZANESİ",
      "address": "SIĞACIK MAH. AKKUM CAD. NO:9/C",
      "phone": "02327432233",
      "district": "SEFERİHİSAR-SIĞACIK BÖLGESİ",
      "city": "İzmir",
      "latitude": 38.192633,
      "longitude": 26.785834,
      "dutyStart": "2026-02-21T08:00:00.000Z",
      "dutyEnd": "2026-02-22T08:00:00.000Z"
    },
    {
      "id": "izmir-73-113",
      "name": "ŞANLI  ECZANESİ",
      "address": "GÜMÜLDÜR FEVZİ ÇAKMAK MH. GAZİ MUSTAFA KEMAL PAŞA BLV.146/C",
      "phone": "02327974363",
      "district": "GÜMÜLDÜR-ÜRKMEZ",
      "city": "İzmir",
      "latitude": 38.072965,
      "longitude": 27.017854,
      "dutyStart": "2026-02-21T08:00:00.000Z",
      "dutyEnd": "2026-02-22T08:00:00.000Z"
    }
  ]
}