{
  "city": "kocaeli",
  "cityName": "Kocaeli",
  "cityId": 41,
  "date": "2026-03-05",
  "updatedAt": "2026-03-05T01:30:43.329Z",
  "count": 20,
  "pharmacies": [
    {
      "id": "kocaeli-0",
      "name": "AYSUGÜL ECZANESİ",
      "address": "KOZLUK MAH. ŞEHİT TEZCAN SÜREK SK. NO:8/A İZMİT",
      "phone": "02623322701",
      "district": "İzmit",
      "city": "Kocaeli",
      "latitude": 40.76531,
      "longitude": 29.918464,
      "dutyStart": "2026-03-05T08:30:00.000Z",
      "dutyEnd": "2026-03-06T08:30:00.000Z"
    },
    {
      "id": "kocaeli-1",
      "name": "ÖZER ECZANESİ",
      "address": "CEDİT MAH. DEVLET HASTANESİ SOKAK NO:32/A İZMİT",
      "phone": "02623320836",
      "district": "İzmit",
      "city": "Kocaeli",
      "latitude": 40.766469,
      "longitude": 29.937663,
      "dutyStart": "2026-03-05T08:30:00.000Z",
      "dutyEnd": "2026-03-06T08:30:00.000Z"
    },
    {
      "id": "kocaeli-2",
      "name": "ESİN ECZANESİ",
      "address": "YENISEHIR MAH. DÖNMEZ SOK. NO:34 İZMİT",
      "phone": "02623110073",
      "district": "İzmit",
      "city": "Kocaeli",
      "latitude": 40.764525,
      "longitude": 29.965347,
      "dutyStart": "2026-03-05T08:30:00.000Z",
      "dutyEnd": "2026-03-06T08:30:00.000Z"
    },
    {
      "id": "kocaeli-3",
      "name": "ANIL ECZANESİ",
      "address": "DOĞAN MAH. HASAN ATAKAN CAD. NO:8/A İZMİT",
      "phone": "02622269427",
      "district": "İzmit",
      "city": "Kocaeli",
      "latitude": 40.765785,
      "longitude": 29.876447,
      "dutyStart": "2026-03-05T08:30:00.000Z",
      "dutyEnd": "2026-03-06T08:30:00.000Z"
    },
    {
      "id": "kocaeli-4",
      "name": "BAYINDIRLIK ECZANESİ",
      "address": "TEPEKÖY MAH. EGEMENLİK CAD. NO:9 BAYINDIRLIK İZMİT",
      "phone": "02623291707",
      "district": "İzmit",
      "city": "Kocaeli",
      "latitude": 40.801899,
      "longitude": 29.974597,
      "dutyStart": "2026-03-05T08:30:00.000Z",
      "dutyEnd": "2026-03-06T08:30:00.000Z"
    },
    {
      "id": "kocaeli-5",
      "name": "BİZİM ECZANESİ",
      "address": "FATİH MAH.CUMHURİYET CAD.NO:29/A",
      "phone": "02625055555",
      "district": "Başiskele",
      "city": "Kocaeli",
      "latitude": 40.687486,
      "longitude": 29.967013,
      "dutyStart": "2026-03-05T08:30:00.000Z",
      "dutyEnd": "2026-03-06T08:30:00.000Z"
    },
    {
      "id": "kocaeli-6",
      "name": "CANKATAR ECZANESİ",
      "address": "PIRI REIS MAH. TUZLA CAD. NAZIR SOK. NO: 9",
      "phone": "02626530371",
      "district": "Darıca",
      "city": "Kocaeli",
      "latitude": 40.783942,
      "longitude": 29.370643,
      "dutyStart": "2026-03-05T08:30:00.000Z",
      "dutyEnd": "2026-03-06T08:30:00.000Z"
    },
    {
      "id": "kocaeli-7",
      "name": "DİLEK ECZANESİ",
      "address": "FEVZİ ÇAKMAK MAH. CENGİZ TOPEL CAD. BALKAN SOK. NO:29/A DARICA",
      "phone": "02627434047",
      "district": "Dilovası",
      "city": "Kocaeli",
      "latitude": 40.776432,
      "longitude": 29.410112,
      "dutyStart": "2026-03-05T08:30:00.000Z",
      "dutyEnd": "2026-03-06T08:30:00.000Z"
    },
    {
      "id": "kocaeli-8",
      "name": "UĞUR ECZANESİ",
      "address": "ORHANGAZİ MAH. 231. SOK. NO:1/B DİLOVASI",
      "phone": "02627541754",
      "district": "Kartepe",
      "city": "Kocaeli",
      "latitude": 40.789546,
      "longitude": 29.539414,
      "dutyStart": "2026-03-05T08:30:00.000Z",
      "dutyEnd": "2026-03-06T08:30:00.000Z"
    },
    {
      "id": "kocaeli-9",
      "name": "DURU ECZANESİ",
      "address": "DUMLUPINAR MAH. BİZİM SOK. NO:2/4 KARTEPE",
      "phone": "02623735533",
      "district": "Gebze",
      "city": "Kocaeli",
      "latitude": 40.754252,
      "longitude": 30.023035,
      "dutyStart": "2026-03-05T08:30:00.000Z",
      "dutyEnd": "2026-03-06T08:30:00.000Z"
    },
    {
      "id": "kocaeli-10",
      "name": "TATLIKUYU ECZANESİ",
      "address": "TATLIKUYU MAH. KÖRFEZ CAD. NO:26/A GEBZE",
      "phone": "02629995384",
      "district": "Gebze",
      "city": "Kocaeli",
      "latitude": 40.793613,
      "longitude": 29.433221,
      "dutyStart": "2026-03-05T08:30:00.000Z",
      "dutyEnd": "2026-03-06T08:30:00.000Z"
    },
    {
      "id": "kocaeli-11",
      "name": "KİRAZPINAR ECZANESİ",
      "address": "KİRAZPINAR MAH.2744.SOK.EMLAK KONUT KİRAZPINAR SİTESİ T2 BLOK NO:115/A",
      "phone": "05336840409",
      "district": "Gebze",
      "city": "Kocaeli",
      "latitude": 40.824484,
      "longitude": 29.464649,
      "dutyStart": "2026-03-05T08:30:00.000Z",
      "dutyEnd": "2026-03-06T08:30:00.000Z"
    },
    {
      "id": "kocaeli-12",
      "name": "ORKİDE ECZANESİ",
      "address": "MUSTAFA PAŞA MAH. 707 SK. NO:8/D GEBZE",
      "phone": "02626415101",
      "district": "Gölcük",
      "city": "Kocaeli",
      "latitude": 40.799428,
      "longitude": 29.427487,
      "dutyStart": "2026-03-05T08:30:00.000Z",
      "dutyEnd": "2026-03-06T08:30:00.000Z"
    },
    {
      "id": "kocaeli-13",
      "name": "TURAN ECZANESİ",
      "address": "YENİ MAH. 288. SOKAK NO:6/A GÖLCÜK",
      "phone": "02624355365",
      "district": "Gölcük",
      "city": "Kocaeli",
      "latitude": 40.714583,
      "longitude": 29.815782,
      "dutyStart": "2026-03-05T08:30:00.000Z",
      "dutyEnd": "2026-03-06T08:30:00.000Z"
    },
    {
      "id": "kocaeli-14",
      "name": "VİTAMİN ECZANESİ",
      "address": "DEĞİRMENDERE MERKEZ MAH. ÇINARLIK MEYDANI NO:19/A GÖLCÜK",
      "phone": "02624094041",
      "district": "Gölcük",
      "city": "Kocaeli",
      "latitude": 40.720852,
      "longitude": 29.782951,
      "dutyStart": "2026-03-05T08:30:00.000Z",
      "dutyEnd": "2026-03-06T08:30:00.000Z"
    },
    {
      "id": "kocaeli-15",
      "name": "İHSANİYE ECZANESİ",
      "address": "İHSANİYE MERKEZ MAH. BEYOĞLU CAD. NO: 36/A GÖLCÜK",
      "phone": "02624357570",
      "district": "Kandıra",
      "city": "Kocaeli",
      "latitude": 40.690477,
      "longitude": 29.831367,
      "dutyStart": "2026-03-05T08:30:00.000Z",
      "dutyEnd": "2026-03-06T08:30:00.000Z"
    },
    {
      "id": "kocaeli-16",
      "name": "POLATBİLEK ECZANESİ",
      "address": "ÇARŞI MAH.İSMAİL ŞENOĞLU CAD.NO:11/A",
      "phone": "05376993441",
      "district": "Karamürsel",
      "city": "Kocaeli",
      "latitude": 41.07013,
      "longitude": 30.148377,
      "dutyStart": "2026-03-05T08:30:00.000Z",
      "dutyEnd": "2026-03-06T08:30:00.000Z"
    },
    {
      "id": "kocaeli-17",
      "name": "HANDAN ECZANESİ",
      "address": "KAYACIK MAH. HÜSEYIN KARADENIZ SOK. NO: 11",
      "phone": "02624525411",
      "district": "Körfez",
      "city": "Kocaeli",
      "latitude": 40.684863,
      "longitude": 29.589083,
      "dutyStart": "2026-03-05T08:30:00.000Z",
      "dutyEnd": "2026-03-06T08:30:00.000Z"
    },
    {
      "id": "kocaeli-18",
      "name": "SİMLA ECZANESİ",
      "address": "YAVUZ SULTAN SELİM MAH. ŞEHİT RAŞİT YÜCEL CAD.KÖRFEZ SİTESİ İŞ MERKEZİ T2 BLOK NO:2/11 KÖRFEZ",
      "phone": "05465074114",
      "district": "Derince",
      "city": "Kocaeli",
      "latitude": 40.775016,
      "longitude": 29.798388,
      "dutyStart": "2026-03-05T08:30:00.000Z",
      "dutyEnd": "2026-03-06T08:30:00.000Z"
    },
    {
      "id": "kocaeli-19",
      "name": "FATİH ECZANESİ",
      "address": "FATİH SULTAN MAH.ÇELİK SOK.NO:11",
      "phone": "02622233125",
      "district": "İzmit",
      "city": "Kocaeli",
      "latitude": 40.772243,
      "longitude": 29.821393,
      "dutyStart": "2026-03-05T08:30:00.000Z",
      "dutyEnd": "2026-03-06T08:30:00.000Z"
    }
  ]
}