{
  "city": "kocaeli",
  "cityName": "Kocaeli",
  "cityId": 41,
  "date": "2026-03-03",
  "updatedAt": "2026-03-03T16:31:02.553Z",
  "count": 23,
  "pharmacies": [
    {
      "id": "kocaeli-0",
      "name": "EMET ECZANESİ",
      "address": "ÖMERAĞA MAH. NACİ GİRGİNSOY SOK. NO:3/A",
      "phone": "02623235422",
      "district": "İzmit",
      "city": "Kocaeli",
      "latitude": 40.76312,
      "longitude": 29.927889,
      "dutyStart": "2026-03-03T08:30:00.000Z",
      "dutyEnd": "2026-03-04T08:30:00.000Z"
    },
    {
      "id": "kocaeli-1",
      "name": "ŞİFA ECZANESİ",
      "address": "CEDIT MAH.DEVLET HAST. SOK.NO:16/B İZMİT",
      "phone": "02623244013",
      "district": "İzmit",
      "city": "Kocaeli",
      "latitude": 40.767142,
      "longitude": 29.937482,
      "dutyStart": "2026-03-03T08:30:00.000Z",
      "dutyEnd": "2026-03-04T08:30:00.000Z"
    },
    {
      "id": "kocaeli-2",
      "name": "PAŞA ECZANESİ",
      "address": "M.ALIPASA MAH. KAPTAN SOK. NO:30 BEKIRPASA",
      "phone": "02623246999",
      "district": "İzmit",
      "city": "Kocaeli",
      "latitude": 40.768758,
      "longitude": 29.953655,
      "dutyStart": "2026-03-03T08:30:00.000Z",
      "dutyEnd": "2026-03-04T08:30:00.000Z"
    },
    {
      "id": "kocaeli-3",
      "name": "KURUÇEŞME MERKEZ ECZANESİ",
      "address": "DOGAN MAH. ATATÜRK CAD. NO: 28 İZMİT",
      "phone": "02622262598",
      "district": "İzmit",
      "city": "Kocaeli",
      "latitude": 40.76561,
      "longitude": 29.877421,
      "dutyStart": "2026-03-03T08:30:00.000Z",
      "dutyEnd": "2026-03-04T08:30:00.000Z"
    },
    {
      "id": "kocaeli-4",
      "name": "YEŞİLOVA ECZANESİ",
      "address": "YESILOVA MAH. DAGÇIÇEGI SOK. NO: 17 İZMİT",
      "phone": "05457484106",
      "district": "İzmit",
      "city": "Kocaeli",
      "latitude": 40.791699,
      "longitude": 29.97339,
      "dutyStart": "2026-03-03T08:30:00.000Z",
      "dutyEnd": "2026-03-04T08:30:00.000Z"
    },
    {
      "id": "kocaeli-5",
      "name": "FEYZA ECZANESİ",
      "address": "ŞEHİT EKREM MAH. HÜRRİYET CAD. NO:245/A",
      "phone": "02623422500",
      "district": "Başiskele",
      "city": "Kocaeli",
      "latitude": 40.669113,
      "longitude": 29.916687,
      "dutyStart": "2026-03-03T08:30:00.000Z",
      "dutyEnd": "2026-03-04T08:30:00.000Z"
    },
    {
      "id": "kocaeli-6",
      "name": "ZEYNEP ECZANESİ",
      "address": "ÇAYIROVA MAH.5213.SOK.NO:50/A",
      "phone": "02627449422",
      "district": "Çayırova",
      "city": "Kocaeli",
      "latitude": 40.819782,
      "longitude": 29.372159,
      "dutyStart": "2026-03-03T08:30:00.000Z",
      "dutyEnd": "2026-03-04T08:30:00.000Z"
    },
    {
      "id": "kocaeli-7",
      "name": "ASUDE ECZANESİ",
      "address": "ATATÜRK MAH.CUMHURİYET CAD.NO:33/A",
      "phone": "02625031505",
      "district": "Çayırova",
      "city": "Kocaeli",
      "latitude": 40.836427,
      "longitude": 29.378073,
      "dutyStart": "2026-03-03T08:30:00.000Z",
      "dutyEnd": "2026-03-04T08:30:00.000Z"
    },
    {
      "id": "kocaeli-8",
      "name": "DERMAN ECZANESİ",
      "address": "OSMANGAZI MAH. ASIROGLU CAD. NO:126/A DARICA",
      "phone": "02626534543",
      "district": "Darıca",
      "city": "Kocaeli",
      "latitude": 40.789922,
      "longitude": 29.373603,
      "dutyStart": "2026-03-03T08:30:00.000Z",
      "dutyEnd": "2026-03-04T08:30:00.000Z"
    },
    {
      "id": "kocaeli-9",
      "name": "ZEUGMA ECZANESİ",
      "address": "KAZIM KARABEKİR MAH. AŞIK VEYSEL CAD. NO:15/A-B DARICA",
      "phone": "05416354541",
      "district": "Dilovası",
      "city": "Kocaeli",
      "latitude": 40.774379,
      "longitude": 29.398735,
      "dutyStart": "2026-03-03T08:30:00.000Z",
      "dutyEnd": "2026-03-04T08:30:00.000Z"
    },
    {
      "id": "kocaeli-10",
      "name": "SAĞLIK ECZANESİ",
      "address": "MİMAR SİNAN MAH. BAĞDAT CAD. NO:101/A DİLOVASI",
      "phone": "02627546284",
      "district": "Kartepe",
      "city": "Kocaeli",
      "latitude": 40.785633,
      "longitude": 29.540255,
      "dutyStart": "2026-03-03T08:30:00.000Z",
      "dutyEnd": "2026-03-04T08:30:00.000Z"
    },
    {
      "id": "kocaeli-11",
      "name": "MERKEZ ECZANESİ",
      "address": "KÖSEKÖY MAH. TERZİ GÖLÜ CAD. NO:3/1 KARTEPE",
      "phone": "02623734260",
      "district": "Gebze",
      "city": "Kocaeli",
      "latitude": 40.737804,
      "longitude": 30.005456,
      "dutyStart": "2026-03-03T08:30:00.000Z",
      "dutyEnd": "2026-03-04T08:30:00.000Z"
    },
    {
      "id": "kocaeli-12",
      "name": "DİLEK ECZANESİ",
      "address": "TATLIKUYU MAH. 1312/2 SOK. NO:13/B GEBZE",
      "phone": "05553610325",
      "district": "Gebze",
      "city": "Kocaeli",
      "latitude": 40.788852,
      "longitude": 29.433324,
      "dutyStart": "2026-03-03T08:30:00.000Z",
      "dutyEnd": "2026-03-04T08:30:00.000Z"
    },
    {
      "id": "kocaeli-13",
      "name": "ASLAN ECZANESİ",
      "address": "ARAPÇEŞME MAH.KAVAK CAD.NO:64/A",
      "phone": "05312536997",
      "district": "Gebze",
      "city": "Kocaeli",
      "latitude": 40.807842,
      "longitude": 29.44411,
      "dutyStart": "2026-03-03T08:30:00.000Z",
      "dutyEnd": "2026-03-04T08:30:00.000Z"
    },
    {
      "id": "kocaeli-14",
      "name": "NANE LİMON ECZANESİ",
      "address": "OSMAN YILMAZ MAH. ŞEHİT NUMAN DEDE CAD. NO:35 GEBZE",
      "phone": "02626419966",
      "district": "Gölcük",
      "city": "Kocaeli",
      "latitude": 40.796926,
      "longitude": 29.427297,
      "dutyStart": "2026-03-03T08:30:00.000Z",
      "dutyEnd": "2026-03-04T08:30:00.000Z"
    },
    {
      "id": "kocaeli-15",
      "name": "DUMLUPINAR ECZANESİ",
      "address": "ŞEHİTLER MAH. KOCATEPE CAD. NO:75/A",
      "phone": "02624126262",
      "district": "Gebze",
      "city": "Kocaeli",
      "latitude": 40.71442,
      "longitude": 29.831029,
      "dutyStart": "2026-03-03T08:30:00.000Z",
      "dutyEnd": "2026-03-04T08:30:00.000Z"
    },
    {
      "id": "kocaeli-16",
      "name": "ENES ECZANESİ",
      "address": "BEYLİKBAĞI MAH. CENGİZ TOPEL CAD. NO:6/B GEBZE",
      "phone": "02627434310",
      "district": "Gölcük",
      "city": "Kocaeli",
      "latitude": 40.804268,
      "longitude": 29.389766,
      "dutyStart": "2026-03-03T08:30:00.000Z",
      "dutyEnd": "2026-03-04T08:30:00.000Z"
    },
    {
      "id": "kocaeli-17",
      "name": "ECEM GENÇ ECZANESİ",
      "address": "YÜZBAŞILAR MAH. BAHRİYE ÜÇOK CAD. ALPER SİTESİ NO:31/B GÖLCÜK",
      "phone": "02624270323",
      "district": "Gölcük",
      "city": "Kocaeli",
      "latitude": 40.721085,
      "longitude": 29.794892,
      "dutyStart": "2026-03-03T08:30:00.000Z",
      "dutyEnd": "2026-03-04T08:30:00.000Z"
    },
    {
      "id": "kocaeli-18",
      "name": "ÖZDECAN ECZANESİ",
      "address": "ŞİRİNKÖY MAH. KERVANSARAY CAD. NO:11 İÇ KAPI NO: 21-22 GÖLCÜK",
      "phone": "02624224604",
      "district": "Kandıra",
      "city": "Kocaeli",
      "latitude": 40.69536,
      "longitude": 29.829113,
      "dutyStart": "2026-03-03T08:30:00.000Z",
      "dutyEnd": "2026-03-04T08:30:00.000Z"
    },
    {
      "id": "kocaeli-19",
      "name": "DAMLA ECZANESİ",
      "address": "ÇARŞI MAH.ÇARŞI CAD.NO:57",
      "phone": "02625516278",
      "district": "Karamürsel",
      "city": "Kocaeli",
      "latitude": 41.070326,
      "longitude": 30.150395,
      "dutyStart": "2026-03-03T08:30:00.000Z",
      "dutyEnd": "2026-03-04T08:30:00.000Z"
    },
    {
      "id": "kocaeli-20",
      "name": "YILDIZ ECZANESİ",
      "address": "4 TEMMUZ MAH.AMİRAL CAD. NO:102/Z01 KARAMÜRSEL",
      "phone": "02624521488",
      "district": "Körfez",
      "city": "Kocaeli",
      "latitude": 40.691415,
      "longitude": 29.616301,
      "dutyStart": "2026-03-03T08:30:00.000Z",
      "dutyEnd": "2026-03-04T08:30:00.000Z"
    },
    {
      "id": "kocaeli-21",
      "name": "FATİH ECZANESİ",
      "address": "FATİH MAH. İSTİKLAL CAD. NO:51 KÖRFEZ",
      "phone": "02625275555",
      "district": "Derince",
      "city": "Kocaeli",
      "latitude": 40.754908,
      "longitude": 29.79455,
      "dutyStart": "2026-03-03T08:30:00.000Z",
      "dutyEnd": "2026-03-04T08:30:00.000Z"
    },
    {
      "id": "kocaeli-22",
      "name": "SANCAR ECZANESİ",
      "address": "İBNİSİNA MAH. SIRRIPAŞA CAD. NO:6/A DERİNCE",
      "phone": "05417752904",
      "district": "İzmit",
      "city": "Kocaeli",
      "latitude": 40.761293,
      "longitude": 29.803839,
      "dutyStart": "2026-03-03T08:30:00.000Z",
      "dutyEnd": "2026-03-04T08:30:00.000Z"
    }
  ]
}