{
  "city": "kocaeli",
  "cityName": "Kocaeli",
  "cityId": 41,
  "date": "2026-02-17",
  "updatedAt": "2026-02-17T12:30:06.666Z",
  "count": 24,
  "pharmacies": [
    {
      "id": "kocaeli-0",
      "name": "EMET ECZANESİ",
      "address": "ÖMERAĞA MAH. NACİ GİRGİNSOY SOK. NO:3/A",
      "phone": "02623235422",
      "district": "İzmit",
      "city": "Kocaeli",
      "latitude": 40.76312,
      "longitude": 29.927889,
      "dutyStart": "2026-02-17T08:30:00.000Z",
      "dutyEnd": "2026-02-18T08:30:00.000Z"
    },
    {
      "id": "kocaeli-1",
      "name": "ZELİHA ECZANESİ",
      "address": "CEDİT MAH. BOSTANLAR SOK. NO:10/C İZMİT",
      "phone": "02623111136",
      "district": "İzmit",
      "city": "Kocaeli",
      "latitude": 40.766138,
      "longitude": 29.937897,
      "dutyStart": "2026-02-17T08:30:00.000Z",
      "dutyEnd": "2026-02-18T08:30:00.000Z"
    },
    {
      "id": "kocaeli-2",
      "name": "DENİZ ECZANESİ",
      "address": "YENİŞEHİR MAH. GAZİ MUSTAFA KEMAL BULVARI NO:150/A İZMİT",
      "phone": "02622291110",
      "district": "İzmit",
      "city": "Kocaeli",
      "latitude": 40.76751,
      "longitude": 29.966265,
      "dutyStart": "2026-02-17T08:30:00.000Z",
      "dutyEnd": "2026-02-18T08:30:00.000Z"
    },
    {
      "id": "kocaeli-3",
      "name": "MELEK ECZANESİ",
      "address": "YENI MAH. INKILAP CAD. NO:2/B İZMİT",
      "phone": "02622262554",
      "district": "İzmit",
      "city": "Kocaeli",
      "latitude": 40.764093,
      "longitude": 29.887777,
      "dutyStart": "2026-02-17T08:30:00.000Z",
      "dutyEnd": "2026-02-18T08:30:00.000Z"
    },
    {
      "id": "kocaeli-4",
      "name": "MERCAN ECZANESİ",
      "address": "GÜNDOĞDU MAH.BOĞAZOVA CAD.A BLOK NO:11/C",
      "phone": "02623224243",
      "district": "İzmit",
      "city": "Kocaeli",
      "latitude": 40.787622,
      "longitude": 29.957493,
      "dutyStart": "2026-02-17T08:30:00.000Z",
      "dutyEnd": "2026-02-18T08:30:00.000Z"
    },
    {
      "id": "kocaeli-5",
      "name": "CEYLAN ECZANESİ",
      "address": "YENİKÖY MERKEZ MAH.TEKNOPARK CAD.NO:5/A",
      "phone": "02623412542",
      "district": "Başiskele",
      "city": "Kocaeli",
      "latitude": 40.701314,
      "longitude": 29.884423,
      "dutyStart": "2026-02-17T08:30:00.000Z",
      "dutyEnd": "2026-02-18T08:30:00.000Z"
    },
    {
      "id": "kocaeli-6",
      "name": "SEVTAP ECZANESİ",
      "address": "ATATÜRK MAH. ADNAN KAHVECİ CAD. NO:49/B ÇAYIROVA",
      "phone": "02627439717",
      "district": "Çayırova",
      "city": "Kocaeli",
      "latitude": 40.831281,
      "longitude": 29.379432,
      "dutyStart": "2026-02-17T08:30:00.000Z",
      "dutyEnd": "2026-02-18T08:30:00.000Z"
    },
    {
      "id": "kocaeli-7",
      "name": "YÜKSEL ECZANESİ",
      "address": "EMEK MAH. BOSNA CAD. NO:163/A ÇAYIROVA",
      "phone": "05455756166",
      "district": "Çayırova",
      "city": "Kocaeli",
      "latitude": 40.817092,
      "longitude": 29.407385,
      "dutyStart": "2026-02-17T08:30:00.000Z",
      "dutyEnd": "2026-02-18T08:30:00.000Z"
    },
    {
      "id": "kocaeli-8",
      "name": "ARI ECZANESİ",
      "address": "NENEHATUN MAH.ERTUĞRULGAZİ CAD.NO:74/A-74/B DARICA",
      "phone": "02627454425",
      "district": "Darıca",
      "city": "Kocaeli",
      "latitude": 40.780813,
      "longitude": 29.382154,
      "dutyStart": "2026-02-17T08:30:00.000Z",
      "dutyEnd": "2026-02-18T08:30:00.000Z"
    },
    {
      "id": "kocaeli-9",
      "name": "ECEM ECZANESİ",
      "address": "İSTASYON MAH. ŞEHİT ABDULLAH HOROZ CAD. NO: 20/A GEBZE",
      "phone": "02626566099",
      "district": "Dilovası",
      "city": "Kocaeli",
      "latitude": 40.78433,
      "longitude": 29.411101,
      "dutyStart": "2026-02-17T08:30:00.000Z",
      "dutyEnd": "2026-02-18T08:30:00.000Z"
    },
    {
      "id": "kocaeli-10",
      "name": "YAHYA ECZANESİ",
      "address": "MİMAR SİNAN MAH.BAĞDAT CAD.NO:83/B",
      "phone": "02627547544",
      "district": "Kartepe",
      "city": "Kocaeli",
      "latitude": 40.785992,
      "longitude": 29.538923,
      "dutyStart": "2026-02-17T08:30:00.000Z",
      "dutyEnd": "2026-02-18T08:30:00.000Z"
    },
    {
      "id": "kocaeli-11",
      "name": "YENİ DERBENT ECZANESİ",
      "address": "DERBENT MAH.AKÇA SOK.NO:1/A KARTEPE",
      "phone": "02623534487",
      "district": "Gebze",
      "city": "Kocaeli",
      "latitude": 40.708762,
      "longitude": 30.108166,
      "dutyStart": "2026-02-17T08:30:00.000Z",
      "dutyEnd": "2026-02-18T08:30:00.000Z"
    },
    {
      "id": "kocaeli-12",
      "name": "GÖKÇEN ECZANESİ",
      "address": "SULTAN ORHAN MAH. 1122.SOK. NO:11/A GEBZE",
      "phone": "02626437171",
      "district": "Gebze",
      "city": "Kocaeli",
      "latitude": 40.801623,
      "longitude": 29.440795,
      "dutyStart": "2026-02-17T08:30:00.000Z",
      "dutyEnd": "2026-02-18T08:30:00.000Z"
    },
    {
      "id": "kocaeli-13",
      "name": "SU ECZANESİ",
      "address": "YENİKENT MAH. ISSIKGÖL CAD. NO:143/A GEBZE",
      "phone": "02627210506",
      "district": "Gebze",
      "city": "Kocaeli",
      "latitude": 40.825302,
      "longitude": 29.41678,
      "dutyStart": "2026-02-17T08:30:00.000Z",
      "dutyEnd": "2026-02-18T08:30:00.000Z"
    },
    {
      "id": "kocaeli-14",
      "name": "BÜŞRA ECZANESİ",
      "address": "OSMAN YILMAZ MAH.ŞEHİT HASAN TAHSİN BÜYÜKÇOBAN CAD.NO:38/B",
      "phone": "02626424214",
      "district": "Gölcük",
      "city": "Kocaeli",
      "latitude": 40.790943,
      "longitude": 29.418753,
      "dutyStart": "2026-02-17T08:30:00.000Z",
      "dutyEnd": "2026-02-18T08:30:00.000Z"
    },
    {
      "id": "kocaeli-15",
      "name": "PİYALEPAŞA ECZANESİ",
      "address": "PİYALEPAŞA MAH.471.SOK.NO:10/A GÖLCÜK",
      "phone": "02624149434",
      "district": "Gebze",
      "city": "Kocaeli",
      "latitude": 40.708811,
      "longitude": 29.830753,
      "dutyStart": "2026-02-17T08:30:00.000Z",
      "dutyEnd": "2026-02-18T08:30:00.000Z"
    },
    {
      "id": "kocaeli-16",
      "name": "BARIŞ ECZANESİ",
      "address": "BEYLIKBAGI MAH.ANKARA CD.NO:40/B",
      "phone": "02627444001",
      "district": "Gölcük",
      "city": "Kocaeli",
      "latitude": 40.80616,
      "longitude": 29.385643,
      "dutyStart": "2026-02-17T08:30:00.000Z",
      "dutyEnd": "2026-02-18T08:30:00.000Z"
    },
    {
      "id": "kocaeli-17",
      "name": "TEK ECZANESİ",
      "address": "TOPÇULAR MAH. BAŞAK CAD. NO:123/1A",
      "phone": "02624221737",
      "district": "Gölcük",
      "city": "Kocaeli",
      "latitude": 40.705979,
      "longitude": 29.800733,
      "dutyStart": "2026-02-17T08:30:00.000Z",
      "dutyEnd": "2026-02-18T08:30:00.000Z"
    },
    {
      "id": "kocaeli-18",
      "name": "BÜYÜK ECZANESİ",
      "address": "ÇİFTLİK MAH.HASTANE CAD.NO:74/B İHSANİYE",
      "phone": "02624357722",
      "district": "Kandıra",
      "city": "Kocaeli",
      "latitude": 40.706189,
      "longitude": 29.838791,
      "dutyStart": "2026-02-17T08:30:00.000Z",
      "dutyEnd": "2026-02-18T08:30:00.000Z"
    },
    {
      "id": "kocaeli-19",
      "name": "GENÇ ECZANESİ",
      "address": "4 TEMMUZ MAH. SELAHATTINBEY CAD. 40/A-40/C KARAMÜRSEL /KOCAELİ",
      "phone": "02625513031",
      "district": "Karamürsel",
      "city": "Kocaeli",
      "latitude": 41.070434,
      "longitude": 30.15181,
      "dutyStart": "2026-02-17T08:30:00.000Z",
      "dutyEnd": "2026-02-18T08:30:00.000Z"
    },
    {
      "id": "kocaeli-20",
      "name": "HAYAT ECZANESİ",
      "address": "ÇAMLITEPE MAH. YUNUS EMRE CAD NO:147/A KÖRFEZ",
      "phone": "02624522000",
      "district": "Karamürsel",
      "city": "Kocaeli",
      "latitude": 40.694332,
      "longitude": 29.617233,
      "dutyStart": "2026-02-17T08:30:00.000Z",
      "dutyEnd": "2026-02-18T08:30:00.000Z"
    },
    {
      "id": "kocaeli-21",
      "name": "YAREN ECZANESİ",
      "address": "MİMAR SİNAN MAH. ŞEHİT ERDOĞAN ÇÖPOĞLU SOK. NO:18/A KÖRFEZ",
      "phone": "02625265363",
      "district": "Körfez",
      "city": "Kocaeli",
      "latitude": 40.774721,
      "longitude": 29.776066,
      "dutyStart": "2026-02-17T08:30:00.000Z",
      "dutyEnd": "2026-02-18T08:30:00.000Z"
    },
    {
      "id": "kocaeli-22",
      "name": "EBRU ECZANESİ",
      "address": "YENİKENT MAH. GAZİ MUSTAFA KEMAL PAŞA CAD.ZAMBAK SOK. NO:26 DERİNCE",
      "phone": "02625284441",
      "district": "Körfez",
      "city": "Kocaeli",
      "latitude": 40.77117,
      "longitude": 29.751287,
      "dutyStart": "2026-02-17T08:30:00.000Z",
      "dutyEnd": "2026-02-18T08:30:00.000Z"
    },
    {
      "id": "kocaeli-23",
      "name": "KAYA ECZANESİ",
      "address": "",
      "phone": "05013254433",
      "district": "Derince",
      "city": "Kocaeli",
      "latitude": 40.772432,
      "longitude": 29.81037,
      "dutyStart": "2026-02-17T08:30:00.000Z",
      "dutyEnd": "2026-02-18T08:30:00.000Z"
    }
  ]
}