{
  "city": "kocaeli",
  "cityName": "Kocaeli",
  "cityId": 41,
  "date": "2026-02-18",
  "updatedAt": "2026-02-18T17:00:51.211Z",
  "count": 21,
  "pharmacies": [
    {
      "id": "kocaeli-0",
      "name": "YÜZGÜL ECZANESİ",
      "address": "CEDİT MAH.DEVLET HAST.SOK.NO:18/A",
      "phone": "02623211542",
      "district": "İzmit",
      "city": "Kocaeli",
      "latitude": 40.767194,
      "longitude": 29.937466,
      "dutyStart": "2026-02-18T08:30:00.000Z",
      "dutyEnd": "2026-02-19T08:30:00.000Z"
    },
    {
      "id": "kocaeli-1",
      "name": "HACETTEPE ECZANESİ",
      "address": "ALİKAHYA FATİH MAH. SEYMEN CAD. NO:34 İZMİT",
      "phone": "02623193292",
      "district": "İzmit",
      "city": "Kocaeli",
      "latitude": 40.775267,
      "longitude": 29.977171,
      "dutyStart": "2026-02-18T08:30:00.000Z",
      "dutyEnd": "2026-02-19T08:30:00.000Z"
    },
    {
      "id": "kocaeli-2",
      "name": "ÖZKAN ECZANESİ",
      "address": "YENIDOGAN MAH. MÜRSELPASA CAD. NO:2/B İZMİT",
      "phone": "02623236837",
      "district": "İzmit",
      "city": "Kocaeli",
      "latitude": 40.767173,
      "longitude": 29.903697,
      "dutyStart": "2026-02-18T08:30:00.000Z",
      "dutyEnd": "2026-02-19T08:30:00.000Z"
    },
    {
      "id": "kocaeli-3",
      "name": "YAŞAM ECZANESİ",
      "address": "BEKİRDERE MAH.ÇEŞME SOK. NO:12/B İZMİT",
      "phone": "05303822210",
      "district": "İzmit",
      "city": "Kocaeli",
      "latitude": 40.777945,
      "longitude": 29.950433,
      "dutyStart": "2026-02-18T08:30:00.000Z",
      "dutyEnd": "2026-02-19T08:30:00.000Z"
    },
    {
      "id": "kocaeli-4",
      "name": "ORGANİK ECZANESİ",
      "address": "YEŞİLYURT MAH. GALİP ERENOĞLU CAD. A BLOK NO:25/D BAŞİSKELE",
      "phone": "02625021826",
      "district": "Başiskele",
      "city": "Kocaeli",
      "latitude": 40.710409,
      "longitude": 29.965233,
      "dutyStart": "2026-02-18T08:30:00.000Z",
      "dutyEnd": "2026-02-19T08:30:00.000Z"
    },
    {
      "id": "kocaeli-5",
      "name": "ÇAĞDAŞKENT ECZANESİ",
      "address": "AKSE MAH. 526.SOK. NO:8/A",
      "phone": "02627448484",
      "district": "Çayırova",
      "city": "Kocaeli",
      "latitude": 40.837544,
      "longitude": 29.393681,
      "dutyStart": "2026-02-18T08:30:00.000Z",
      "dutyEnd": "2026-02-19T08:30:00.000Z"
    },
    {
      "id": "kocaeli-6",
      "name": "BAYRAMOĞLU ECZANESİ",
      "address": "BAYRAMOĞLU MAH.YILDIRIM BEYAZIT CAD.NO:50/B DARICA",
      "phone": "02623414941",
      "district": "Darıca",
      "city": "Kocaeli",
      "latitude": 40.791014,
      "longitude": 29.359993,
      "dutyStart": "2026-02-18T08:30:00.000Z",
      "dutyEnd": "2026-02-19T08:30:00.000Z"
    },
    {
      "id": "kocaeli-7",
      "name": "ÖZER ECZANESİ",
      "address": "FEVZIÇAKMAK MAH.DR.ZEKI ACAR CAD. NO:55/A DARICA/KOCAELI",
      "phone": "02626554848",
      "district": "Darıca",
      "city": "Kocaeli",
      "latitude": 40.771585,
      "longitude": 29.404642,
      "dutyStart": "2026-02-18T08:30:00.000Z",
      "dutyEnd": "2026-02-19T08:30:00.000Z"
    },
    {
      "id": "kocaeli-8",
      "name": "HARUN ECZANESİ",
      "address": "DİLİSKELESİ MAH.CUMHURİYET CAD.NO:67/C",
      "phone": "02627547617",
      "district": "Dilovası",
      "city": "Kocaeli",
      "latitude": 40.776655,
      "longitude": 29.526294,
      "dutyStart": "2026-02-18T08:30:00.000Z",
      "dutyEnd": "2026-02-19T08:30:00.000Z"
    },
    {
      "id": "kocaeli-9",
      "name": "EFE ECZANESİ",
      "address": "FATİH SULTAN MEHMET MAH.DEMOKRASİ CAD.NO:10/B",
      "phone": "02625038173",
      "district": "Kartepe",
      "city": "Kocaeli",
      "latitude": 40.737418,
      "longitude": 30.013042,
      "dutyStart": "2026-02-18T08:30:00.000Z",
      "dutyEnd": "2026-02-19T08:30:00.000Z"
    },
    {
      "id": "kocaeli-10",
      "name": "MUSA ECZANESİ",
      "address": "SULTAN ORHAN MAH.1112.SOK.NO:6/F",
      "phone": "05541107672",
      "district": "Gebze",
      "city": "Kocaeli",
      "latitude": 40.799634,
      "longitude": 29.439431,
      "dutyStart": "2026-02-18T08:30:00.000Z",
      "dutyEnd": "2026-02-19T08:30:00.000Z"
    },
    {
      "id": "kocaeli-11",
      "name": "NEFİZE ECZANESİ",
      "address": "GAZİLER MAH. İBRAHİMAĞA CAD. NO:175/A GEBZE",
      "phone": "05334568947",
      "district": "Gebze",
      "city": "Kocaeli",
      "latitude": 40.812867,
      "longitude": 29.431911,
      "dutyStart": "2026-02-18T08:30:00.000Z",
      "dutyEnd": "2026-02-19T08:30:00.000Z"
    },
    {
      "id": "kocaeli-12",
      "name": "NORMAL ECZANESİ",
      "address": "OSMAN YILMAZ MAH.642.SOK.NO:8/D",
      "phone": "05011538141",
      "district": "Gebze",
      "city": "Kocaeli",
      "latitude": 40.790545,
      "longitude": 29.425434,
      "dutyStart": "2026-02-18T08:30:00.000Z",
      "dutyEnd": "2026-02-19T08:30:00.000Z"
    },
    {
      "id": "kocaeli-13",
      "name": "DUMLUPINAR ECZANESİ",
      "address": "ŞEHİTLER MAH. KOCATEPE CAD. NO:75/A",
      "phone": "02624126262",
      "district": "Gölcük",
      "city": "Kocaeli",
      "latitude": 40.71442,
      "longitude": 29.831029,
      "dutyStart": "2026-02-18T08:30:00.000Z",
      "dutyEnd": "2026-02-19T08:30:00.000Z"
    },
    {
      "id": "kocaeli-14",
      "name": "YENİ ŞİFA ECZANESİ",
      "address": "ULUS MAH. TOPALOSMANAĞA CAD. NO:47/A GEBZE",
      "phone": "02627446665",
      "district": "Gebze",
      "city": "Kocaeli",
      "latitude": 40.808725,
      "longitude": 29.391674,
      "dutyStart": "2026-02-18T08:30:00.000Z",
      "dutyEnd": "2026-02-19T08:30:00.000Z"
    },
    {
      "id": "kocaeli-15",
      "name": "ŞİFA ECZANESİ",
      "address": "DEGIRMENDERE MERKEZ MAH. DEGIRMENDERE CUMHURIYET CAD. NO: 11/A",
      "phone": "02624267949",
      "district": "Gölcük",
      "city": "Kocaeli",
      "latitude": 40.721186,
      "longitude": 29.784361,
      "dutyStart": "2026-02-18T08:30:00.000Z",
      "dutyEnd": "2026-02-19T08:30:00.000Z"
    },
    {
      "id": "kocaeli-16",
      "name": "CANSEV ECZANESİ",
      "address": "AYDINLIK MAH.TURAN GÜNEŞ CAD.No:7 KANDIRA",
      "phone": "02625513333",
      "district": "Kandıra",
      "city": "Kocaeli",
      "latitude": 41.070565,
      "longitude": 30.152238,
      "dutyStart": "2026-02-18T08:30:00.000Z",
      "dutyEnd": "2026-02-19T08:30:00.000Z"
    },
    {
      "id": "kocaeli-17",
      "name": "ÇAĞDAŞ ECZANESİ",
      "address": "KAYACIK MAH. SAĞLIK SOK. NO:6/B KARAMÜRSEL",
      "phone": "02624545413",
      "district": "Karamürsel",
      "city": "Kocaeli",
      "latitude": 40.689036,
      "longitude": 29.606714,
      "dutyStart": "2026-02-18T08:30:00.000Z",
      "dutyEnd": "2026-02-19T08:30:00.000Z"
    },
    {
      "id": "kocaeli-18",
      "name": "ALTAY ECZANESİ",
      "address": "FATIH MAH. ISTIKLAL CAD.NO:47/A KÖRFEZ",
      "phone": "02625274663",
      "district": "Körfez",
      "city": "Kocaeli",
      "latitude": 40.754963,
      "longitude": 29.794242,
      "dutyStart": "2026-02-18T08:30:00.000Z",
      "dutyEnd": "2026-02-19T08:30:00.000Z"
    },
    {
      "id": "kocaeli-19",
      "name": "CADDE ECZANESİ",
      "address": "MİMAR SİNAN MAH. MEHMET AKİF ERSOY CAD. E BLOK NO:88/5 KÖRFEZ",
      "phone": "02624085848",
      "district": "Körfez",
      "city": "Kocaeli",
      "latitude": 40.770621,
      "longitude": 29.744736,
      "dutyStart": "2026-02-18T08:30:00.000Z",
      "dutyEnd": "2026-02-19T08:30:00.000Z"
    },
    {
      "id": "kocaeli-20",
      "name": "AKCAN ECZANESİ",
      "address": "YAVUZ SULTAN MAH. BARBAROS CAD. NO: 4 DERİNCE",
      "phone": "02622290302",
      "district": "Derince",
      "city": "Kocaeli",
      "latitude": 40.751469,
      "longitude": 29.805632,
      "dutyStart": "2026-02-18T08:30:00.000Z",
      "dutyEnd": "2026-02-19T08:30:00.000Z"
    }
  ]
}