{
  "city": "kocaeli",
  "cityName": "Kocaeli",
  "cityId": 41,
  "date": "2026-03-01",
  "updatedAt": "2026-03-01T01:30:13.679Z",
  "count": 19,
  "pharmacies": [
    {
      "id": "kocaeli-0",
      "name": "UMUT ECZANESİ",
      "address": "HACI HIZIR MAH. ALEMDAR CAD. NO: 60 İZMİT",
      "phone": "02624355400",
      "district": "İzmit",
      "city": "Kocaeli",
      "latitude": 40.766813,
      "longitude": 29.927883,
      "dutyStart": "2026-03-01T08:30:00.000Z",
      "dutyEnd": "2026-03-02T08:30:00.000Z"
    },
    {
      "id": "kocaeli-1",
      "name": "YÜZGÜL ECZANESİ",
      "address": "CEDİT MAH.DEVLET HAST.SOK.NO:18/A",
      "phone": "02623211542",
      "district": "İzmit",
      "city": "Kocaeli",
      "latitude": 40.767194,
      "longitude": 29.937466,
      "dutyStart": "2026-03-01T08:30:00.000Z",
      "dutyEnd": "2026-03-02T08:30:00.000Z"
    },
    {
      "id": "kocaeli-2",
      "name": "GÜNGÖR ECZANESİ",
      "address": "AKARCA MAH. ALBAY KARAOSMANOĞLU CAD. 10/30 İZMİT",
      "phone": "02623194962",
      "district": "İzmit",
      "city": "Kocaeli",
      "latitude": 40.774189,
      "longitude": 29.98782,
      "dutyStart": "2026-03-01T08:30:00.000Z",
      "dutyEnd": "2026-03-02T08:30:00.000Z"
    },
    {
      "id": "kocaeli-3",
      "name": "YENİDOĞAN ECZANESİ",
      "address": "YENIDOGAN MAH. KAYIN SOK. NO:16/A İZMİT",
      "phone": "02623217959",
      "district": "İzmit",
      "city": "Kocaeli",
      "latitude": 40.76847,
      "longitude": 29.902473,
      "dutyStart": "2026-03-01T08:30:00.000Z",
      "dutyEnd": "2026-03-02T08:30:00.000Z"
    },
    {
      "id": "kocaeli-4",
      "name": "TUANA ECZANESİ",
      "address": "TOPÇULAR MAH.GAZANFER BİLGE BUL.TUANA 3 SİTESİ F BLOK NO:172F/60 İZMİT",
      "phone": "02625044040",
      "district": "İzmit",
      "city": "Kocaeli",
      "latitude": 40.779073,
      "longitude": 29.935012,
      "dutyStart": "2026-03-01T08:30:00.000Z",
      "dutyEnd": "2026-03-02T08:30:00.000Z"
    },
    {
      "id": "kocaeli-5",
      "name": "LEMAN ECZANESİ",
      "address": "BARBAROS MAH. MİLLET CAD. NO:78/C BAŞİSKELE",
      "phone": "05538101100",
      "district": "Başiskele",
      "city": "Kocaeli",
      "latitude": 40.707287,
      "longitude": 29.9322,
      "dutyStart": "2026-03-01T08:30:00.000Z",
      "dutyEnd": "2026-03-02T08:30:00.000Z"
    },
    {
      "id": "kocaeli-6",
      "name": "BÜŞRA ECZANESİ",
      "address": "ÖZGÜRLÜK MAH.ADNAN KAHVECİ CAD.NO:58/A ÇAYIROVA",
      "phone": "05304879017",
      "district": "Çayırova",
      "city": "Kocaeli",
      "latitude": 40.830769,
      "longitude": 29.379507,
      "dutyStart": "2026-03-01T08:30:00.000Z",
      "dutyEnd": "2026-03-02T08:30:00.000Z"
    },
    {
      "id": "kocaeli-7",
      "name": "GÜNEŞ ECZANESİ",
      "address": "BAĞLARBAŞI MAH.İSTASYON CAD.NUSRET AN APT.NO:183/A",
      "phone": "02627457070",
      "district": "Darıca",
      "city": "Kocaeli",
      "latitude": 40.760307,
      "longitude": 29.387021,
      "dutyStart": "2026-03-01T08:30:00.000Z",
      "dutyEnd": "2026-03-02T08:30:00.000Z"
    },
    {
      "id": "kocaeli-8",
      "name": "YAHYA ECZANESİ",
      "address": "MİMAR SİNAN MAH.BAĞDAT CAD.NO:83/B",
      "phone": "02627547544",
      "district": "Dilovası",
      "city": "Kocaeli",
      "latitude": 40.785992,
      "longitude": 29.538923,
      "dutyStart": "2026-03-01T08:30:00.000Z",
      "dutyEnd": "2026-03-02T08:30:00.000Z"
    },
    {
      "id": "kocaeli-9",
      "name": "AYDIN ECZANESİ",
      "address": "EMEKEVLER MAH. CENGİZ TOPEL CAD. 30/A KARTEPE",
      "phone": "02623711528",
      "district": "Kartepe",
      "city": "Kocaeli",
      "latitude": 40.743443,
      "longitude": 30.054782,
      "dutyStart": "2026-03-01T08:30:00.000Z",
      "dutyEnd": "2026-03-02T08:30:00.000Z"
    },
    {
      "id": "kocaeli-10",
      "name": "ALTINSOY ECZANESİ",
      "address": "TATLIKUYU MAH.AHMET PEMBEGÜLLÜ CAD. NO:5/D GEBZE",
      "phone": "02626426767",
      "district": "Gebze",
      "city": "Kocaeli",
      "latitude": 40.792047,
      "longitude": 29.434721,
      "dutyStart": "2026-03-01T08:30:00.000Z",
      "dutyEnd": "2026-03-02T08:30:00.000Z"
    },
    {
      "id": "kocaeli-11",
      "name": "YENİ AKSE ECZANESİ",
      "address": "GÜZELLER MAH.İBRAHİMAĞA CAD.NO:136/B",
      "phone": "02625037590",
      "district": "Gebze",
      "city": "Kocaeli",
      "latitude": 40.810695,
      "longitude": 29.432191,
      "dutyStart": "2026-03-01T08:30:00.000Z",
      "dutyEnd": "2026-03-02T08:30:00.000Z"
    },
    {
      "id": "kocaeli-12",
      "name": "SEDA ECZANESİ",
      "address": "OSMAN YILMAZ MAH. İSTANBUL CAD. NO:24/A GEBZE",
      "phone": "02627450432",
      "district": "Gebze",
      "city": "Kocaeli",
      "latitude": 40.789208,
      "longitude": 29.420167,
      "dutyStart": "2026-03-01T08:30:00.000Z",
      "dutyEnd": "2026-03-02T08:30:00.000Z"
    },
    {
      "id": "kocaeli-13",
      "name": "SAĞLIK ECZANESİ",
      "address": "MERKEZ MAH. 19 MAYIS CAD. NO:45/F GÖLCÜK",
      "phone": "02624148090",
      "district": "Gölcük",
      "city": "Kocaeli",
      "latitude": 40.718956,
      "longitude": 29.822224,
      "dutyStart": "2026-03-01T08:30:00.000Z",
      "dutyEnd": "2026-03-02T08:30:00.000Z"
    },
    {
      "id": "kocaeli-14",
      "name": "YÜZBAŞILAR ECZANESİ",
      "address": "YÜZBAŞILAR MAH. SÜLEYMAN SOLAK CAD. NO:24 İÇ KAPI:B1-B2 DEĞİRMENDERE",
      "phone": "02624269774",
      "district": "Gölcük",
      "city": "Kocaeli",
      "latitude": 40.724059,
      "longitude": 29.797733,
      "dutyStart": "2026-03-01T08:30:00.000Z",
      "dutyEnd": "2026-03-02T08:30:00.000Z"
    },
    {
      "id": "kocaeli-15",
      "name": "CANSEV ECZANESİ",
      "address": "AYDINLIK MAH.TURAN GÜNEŞ CAD.No:7 KANDIRA",
      "phone": "02625513333",
      "district": "Kandıra",
      "city": "Kocaeli",
      "latitude": 41.070565,
      "longitude": 30.152238,
      "dutyStart": "2026-03-01T08:30:00.000Z",
      "dutyEnd": "2026-03-02T08:30:00.000Z"
    },
    {
      "id": "kocaeli-16",
      "name": "YILDIZ ECZANESİ",
      "address": "4 TEMMUZ MAH.AMİRAL CAD. NO:102/Z01 KARAMÜRSEL",
      "phone": "02624521488",
      "district": "Karamürsel",
      "city": "Kocaeli",
      "latitude": 40.691415,
      "longitude": 29.616301,
      "dutyStart": "2026-03-01T08:30:00.000Z",
      "dutyEnd": "2026-03-02T08:30:00.000Z"
    },
    {
      "id": "kocaeli-17",
      "name": "SAĞLIK ECZANESİ",
      "address": "ESENTEPE MAH. HAREKET SOK. NO:11/A KÖRFEZ",
      "phone": "02625264144",
      "district": "Körfez",
      "city": "Kocaeli",
      "latitude": 40.765248,
      "longitude": 29.7915,
      "dutyStart": "2026-03-01T08:30:00.000Z",
      "dutyEnd": "2026-03-02T08:30:00.000Z"
    },
    {
      "id": "kocaeli-18",
      "name": "SERPİL ECZANESİ",
      "address": "ÇENEDAĞ MAH. DENİZCİLER CAD. NO:18/1A DERİNCE",
      "phone": "02622396969",
      "district": "Derince",
      "city": "Kocaeli",
      "latitude": 40.757749,
      "longitude": 29.837123,
      "dutyStart": "2026-03-01T08:30:00.000Z",
      "dutyEnd": "2026-03-02T08:30:00.000Z"
    }
  ]
}