{
  "city": "kocaeli",
  "cityName": "Kocaeli",
  "cityId": 41,
  "date": "2026-03-01",
  "updatedAt": "2026-03-01T10:30:06.387Z",
  "count": 24,
  "pharmacies": [
    {
      "id": "kocaeli-0",
      "name": "İREM ECZANESİ",
      "address": "KEMALPAŞA MAH. HÜRRİYET CAD. NO:49",
      "phone": "02623220037",
      "district": "İzmit",
      "city": "Kocaeli",
      "latitude": 40.762954,
      "longitude": 29.924232,
      "dutyStart": "2026-03-01T08:30:00.000Z",
      "dutyEnd": "2026-03-02T08:30:00.000Z"
    },
    {
      "id": "kocaeli-1",
      "name": "ASLI ECZANESİ",
      "address": "CEDIT MAH. BULVAR CAD. MUZAFFER FIDAN SOK. NO:4/A İZMİT",
      "phone": "02623230142",
      "district": "İzmit",
      "city": "Kocaeli",
      "latitude": 40.765792,
      "longitude": 29.93912,
      "dutyStart": "2026-03-01T08:30:00.000Z",
      "dutyEnd": "2026-03-02T08:30:00.000Z"
    },
    {
      "id": "kocaeli-2",
      "name": "MARS ECZANESİ",
      "address": "YAHYAKAPTAN MAH.ÖZYILDIRIM SOK.NO:16/D",
      "phone": "05364750054",
      "district": "İzmit",
      "city": "Kocaeli",
      "latitude": 40.780401,
      "longitude": 29.973828,
      "dutyStart": "2026-03-01T08:30:00.000Z",
      "dutyEnd": "2026-03-02T08:30:00.000Z"
    },
    {
      "id": "kocaeli-3",
      "name": "ÖZKAN ECZANESİ",
      "address": "YENIDOGAN MAH. MÜRSELPASA CAD. NO:2/B İZMİT",
      "phone": "02623236837",
      "district": "İzmit",
      "city": "Kocaeli",
      "latitude": 40.767173,
      "longitude": 29.903697,
      "dutyStart": "2026-03-01T08:30:00.000Z",
      "dutyEnd": "2026-03-02T08:30:00.000Z"
    },
    {
      "id": "kocaeli-4",
      "name": "YAŞAM ECZANESİ",
      "address": "BEKİRDERE MAH.ÇEŞME SOK. NO:12/B İZMİT",
      "phone": "05303822210",
      "district": "İzmit",
      "city": "Kocaeli",
      "latitude": 40.777945,
      "longitude": 29.950433,
      "dutyStart": "2026-03-01T08:30:00.000Z",
      "dutyEnd": "2026-03-02T08:30:00.000Z"
    },
    {
      "id": "kocaeli-5",
      "name": "ORGANİK ECZANESİ",
      "address": "YEŞİLYURT MAH. GALİP ERENOĞLU CAD. A BLOK NO:25/D BAŞİSKELE",
      "phone": "02625021826",
      "district": "Başiskele",
      "city": "Kocaeli",
      "latitude": 40.710409,
      "longitude": 29.965233,
      "dutyStart": "2026-03-01T08:30:00.000Z",
      "dutyEnd": "2026-03-02T08:30:00.000Z"
    },
    {
      "id": "kocaeli-6",
      "name": "GÜZELTEPE ECZANESİ",
      "address": "ÖZGÜRLÜK MAH. MURAT ÇOBANOĞLU CAD. NO:7/A ÇAYIROVA",
      "phone": "02627430872",
      "district": "Çayırova",
      "city": "Kocaeli",
      "latitude": 40.828372,
      "longitude": 29.379857,
      "dutyStart": "2026-03-01T08:30:00.000Z",
      "dutyEnd": "2026-03-02T08:30:00.000Z"
    },
    {
      "id": "kocaeli-7",
      "name": "HANBABA ECZANESİ",
      "address": "ÖZGÜRLÜK MAH.232.SOK.NO:1/A ÇAYIROVA",
      "phone": "02627442087",
      "district": "Çayırova",
      "city": "Kocaeli",
      "latitude": 40.82554,
      "longitude": 29.383745,
      "dutyStart": "2026-03-01T08:30:00.000Z",
      "dutyEnd": "2026-03-02T08:30:00.000Z"
    },
    {
      "id": "kocaeli-8",
      "name": "DERYA ECZANESİ",
      "address": "ZİNCİRLİKUYU MAH. KARAASLAN CAD. NO:23/B DARICA",
      "phone": "05424778037",
      "district": "Darıca",
      "city": "Kocaeli",
      "latitude": 40.758966,
      "longitude": 29.384952,
      "dutyStart": "2026-03-01T08:30:00.000Z",
      "dutyEnd": "2026-03-02T08:30:00.000Z"
    },
    {
      "id": "kocaeli-9",
      "name": "MEVLANA ECZANESİ",
      "address": "İSTASYON MAH. 1409/1 SOK. NO:11/A GEBZE",
      "phone": "02626559212",
      "district": "Dilovası",
      "city": "Kocaeli",
      "latitude": 40.784594,
      "longitude": 29.411427,
      "dutyStart": "2026-03-01T08:30:00.000Z",
      "dutyEnd": "2026-03-02T08:30:00.000Z"
    },
    {
      "id": "kocaeli-10",
      "name": "ASLI DERMAN ECZANESİ",
      "address": "BAGDAT CAD. ORHANGAZI MAH. NO: 106/B",
      "phone": "02627546622",
      "district": "Kartepe",
      "city": "Kocaeli",
      "latitude": 40.785164,
      "longitude": 29.542836,
      "dutyStart": "2026-03-01T08:30:00.000Z",
      "dutyEnd": "2026-03-02T08:30:00.000Z"
    },
    {
      "id": "kocaeli-11",
      "name": "MAŞUKİYE SERAP ECZANESİ",
      "address": "MAŞUKİYE MAH.LEYLA ATAKAN CAD.NO:14/E",
      "phone": "02623543044",
      "district": "Gebze",
      "city": "Kocaeli",
      "latitude": 40.701947,
      "longitude": 30.13954,
      "dutyStart": "2026-03-01T08:30:00.000Z",
      "dutyEnd": "2026-03-02T08:30:00.000Z"
    },
    {
      "id": "kocaeli-12",
      "name": "ÖRNEK ECZANESİ",
      "address": "SULTAN ORHAN MAH.İLYASBEY CAD.NO:31/A GEBZE",
      "phone": "02626421520",
      "district": "Gebze",
      "city": "Kocaeli",
      "latitude": 40.8005,
      "longitude": 29.439906,
      "dutyStart": "2026-03-01T08:30:00.000Z",
      "dutyEnd": "2026-03-02T08:30:00.000Z"
    },
    {
      "id": "kocaeli-13",
      "name": "EZGİ ECZANESİ",
      "address": "ARAPÇESME MAH. KAVAK CAD. NO: 10 GEBZE",
      "phone": "02626436921",
      "district": "Gebze",
      "city": "Kocaeli",
      "latitude": 40.803887,
      "longitude": 29.440312,
      "dutyStart": "2026-03-01T08:30:00.000Z",
      "dutyEnd": "2026-03-02T08:30:00.000Z"
    },
    {
      "id": "kocaeli-14",
      "name": "CAN ERTAN ECZANESİ",
      "address": "MUSTAFAPAŞA MAH. 707 SOKAK NO:11/A GEBZE",
      "phone": "02626440329",
      "district": "Gölcük",
      "city": "Kocaeli",
      "latitude": 40.799162,
      "longitude": 29.427565,
      "dutyStart": "2026-03-01T08:30:00.000Z",
      "dutyEnd": "2026-03-02T08:30:00.000Z"
    },
    {
      "id": "kocaeli-15",
      "name": "MERVE ECZANESİ",
      "address": "KAVAKLI MAH. YAVUZ CAD. NO:22/B GÖLCÜK",
      "phone": "02624148800",
      "district": "Gebze",
      "city": "Kocaeli",
      "latitude": 40.722366,
      "longitude": 29.836959,
      "dutyStart": "2026-03-01T08:30:00.000Z",
      "dutyEnd": "2026-03-02T08:30:00.000Z"
    },
    {
      "id": "kocaeli-16",
      "name": "KESKİN ECZANESİ",
      "address": "CUMHURİYET MAH. 2235 SOK. NO:7/C GEBZE",
      "phone": "02625037876",
      "district": "Gölcük",
      "city": "Kocaeli",
      "latitude": 40.809432,
      "longitude": 29.379645,
      "dutyStart": "2026-03-01T08:30:00.000Z",
      "dutyEnd": "2026-03-02T08:30:00.000Z"
    },
    {
      "id": "kocaeli-17",
      "name": "KAYRA ECZANESİ",
      "address": "ATATÜRK MAH.3037 SOK.NO:5/A",
      "phone": "02624270405",
      "district": "Gölcük",
      "city": "Kocaeli",
      "latitude": 40.717744,
      "longitude": 29.785547,
      "dutyStart": "2026-03-01T08:30:00.000Z",
      "dutyEnd": "2026-03-02T08:30:00.000Z"
    },
    {
      "id": "kocaeli-18",
      "name": "GÖLCÜK ECZANESİ",
      "address": "ÇIFTLIK MAH. HAST.CAD. NO:74/A IHSANIYE GÖLCÜK",
      "phone": "02624355700",
      "district": "Kandıra",
      "city": "Kocaeli",
      "latitude": 40.706248,
      "longitude": 29.838777,
      "dutyStart": "2026-03-01T08:30:00.000Z",
      "dutyEnd": "2026-03-02T08:30:00.000Z"
    },
    {
      "id": "kocaeli-19",
      "name": "FURKAN ECZANESİ",
      "address": "AKDURAK MAH.HALİL İBRAHİM ERDEN SOK.NO:13/A KANDIRA",
      "phone": "02625512858",
      "district": "Karamürsel",
      "city": "Kocaeli",
      "latitude": 41.068492,
      "longitude": 30.154724,
      "dutyStart": "2026-03-01T08:30:00.000Z",
      "dutyEnd": "2026-03-02T08:30:00.000Z"
    },
    {
      "id": "kocaeli-20",
      "name": "AY ECZANESİ",
      "address": "4 TEMMUZ MAH.CUMHURİYET CAD.NO:27/1 KARAMÜRSEL",
      "phone": "02624521394",
      "district": "Körfez",
      "city": "Kocaeli",
      "latitude": 40.692813,
      "longitude": 29.615915,
      "dutyStart": "2026-03-01T08:30:00.000Z",
      "dutyEnd": "2026-03-02T08:30:00.000Z"
    },
    {
      "id": "kocaeli-21",
      "name": "BAHAR ECZANESİ",
      "address": "YAVUZ SULTAN SELİM MAH.REYHAN CAD.NO:5/A",
      "phone": "02625033385",
      "district": "Körfez",
      "city": "Kocaeli",
      "latitude": 40.775209,
      "longitude": 29.803789,
      "dutyStart": "2026-03-01T08:30:00.000Z",
      "dutyEnd": "2026-03-02T08:30:00.000Z"
    },
    {
      "id": "kocaeli-22",
      "name": "KOÇER ECZANESİ",
      "address": "MİMAR SİNAN MAH.SİTE SOK.BEYZA APT.NO:17/A",
      "phone": "05053994138",
      "district": "Derince",
      "city": "Kocaeli",
      "latitude": 40.771329,
      "longitude": 29.752012,
      "dutyStart": "2026-03-01T08:30:00.000Z",
      "dutyEnd": "2026-03-02T08:30:00.000Z"
    },
    {
      "id": "kocaeli-23",
      "name": "GİZEM ECZANESİ",
      "address": "YAVUZ SULTAN MAH.KÖRFEZ CAD.D PLAZA SİTESİ C BLOK NO:6/6",
      "phone": "02622290101",
      "district": "İzmit",
      "city": "Kocaeli",
      "latitude": 40.755033,
      "longitude": 29.809235,
      "dutyStart": "2026-03-01T08:30:00.000Z",
      "dutyEnd": "2026-03-02T08:30:00.000Z"
    }
  ]
}