{
  "city": "kocaeli",
  "cityName": "Kocaeli",
  "cityId": 41,
  "date": "2026-02-23",
  "updatedAt": "2026-02-23T11:30:31.565Z",
  "count": 23,
  "pharmacies": [
    {
      "id": "kocaeli-0",
      "name": "TÜRKANT ECZANESİ",
      "address": "ÖMERAĞA MAH. HAFIZ ŞERİF SOKAK.NO:5 İZMİT",
      "phone": "02623212049",
      "district": "İzmit",
      "city": "Kocaeli",
      "latitude": 40.763732,
      "longitude": 29.927341,
      "dutyStart": "2026-02-23T08:30:00.000Z",
      "dutyEnd": "2026-02-24T08:30:00.000Z"
    },
    {
      "id": "kocaeli-1",
      "name": "ELİF ECZANESİ",
      "address": "CEDİT MAH. TURAN GÜNEŞ CAD. NO:32/A",
      "phone": "02623223765",
      "district": "İzmit",
      "city": "Kocaeli",
      "latitude": 40.767667,
      "longitude": 29.937342,
      "dutyStart": "2026-02-23T08:30:00.000Z",
      "dutyEnd": "2026-02-24T08:30:00.000Z"
    },
    {
      "id": "kocaeli-2",
      "name": "GİZEM ECZANESİ",
      "address": "28 HAZİRAN MAH.BAYRAM ASLAN SOK.NO:12/A İZMİT",
      "phone": "02624660041",
      "district": "İzmit",
      "city": "Kocaeli",
      "latitude": 40.773813,
      "longitude": 29.951851,
      "dutyStart": "2026-02-23T08:30:00.000Z",
      "dutyEnd": "2026-02-24T08:30:00.000Z"
    },
    {
      "id": "kocaeli-3",
      "name": "ANIL ECZANESİ",
      "address": "DOĞAN MAH. HASAN ATAKAN CAD. NO:8/A İZMİT",
      "phone": "02622269427",
      "district": "İzmit",
      "city": "Kocaeli",
      "latitude": 40.765785,
      "longitude": 29.876447,
      "dutyStart": "2026-02-23T08:30:00.000Z",
      "dutyEnd": "2026-02-24T08:30:00.000Z"
    },
    {
      "id": "kocaeli-4",
      "name": "YENİ SEMA ECZANESİ",
      "address": "GÜNDOĞDU MAH. BOGAZOVA CAD. NO:14/A",
      "phone": "02623191110",
      "district": "İzmit",
      "city": "Kocaeli",
      "latitude": 40.787435,
      "longitude": 29.957854,
      "dutyStart": "2026-02-23T08:30:00.000Z",
      "dutyEnd": "2026-02-24T08:30:00.000Z"
    },
    {
      "id": "kocaeli-5",
      "name": "ORGANİK ECZANESİ",
      "address": "YEŞİLYURT MAH. GALİP ERENOĞLU CAD. A BLOK NO:25/D BAŞİSKELE",
      "phone": "02625021826",
      "district": "Başiskele",
      "city": "Kocaeli",
      "latitude": 40.710409,
      "longitude": 29.965233,
      "dutyStart": "2026-02-23T08:30:00.000Z",
      "dutyEnd": "2026-02-24T08:30:00.000Z"
    },
    {
      "id": "kocaeli-6",
      "name": "DÜLGEROĞLU ECZANESİ",
      "address": "ÖZGÜRLÜK MAH.ADNAN KAHVECİ CAD.NO:80/B ÇAYIROVA",
      "phone": "02627444184",
      "district": "Çayırova",
      "city": "Kocaeli",
      "latitude": 40.832693,
      "longitude": 29.379704,
      "dutyStart": "2026-02-23T08:30:00.000Z",
      "dutyEnd": "2026-02-24T08:30:00.000Z"
    },
    {
      "id": "kocaeli-7",
      "name": "SAĞLIK ECZANESİ",
      "address": "BAĞLARBAŞI MAH.İSTASYON CAD.NO:247",
      "phone": "05456181952",
      "district": "Darıca",
      "city": "Kocaeli",
      "latitude": 40.764454,
      "longitude": 29.392392,
      "dutyStart": "2026-02-23T08:30:00.000Z",
      "dutyEnd": "2026-02-24T08:30:00.000Z"
    },
    {
      "id": "kocaeli-8",
      "name": "IRMAK ECZANESİ",
      "address": "FEVZI ÇAKMAK MAH. DR.ZEKİ ACAR CAD. NO:60/C DARICA",
      "phone": "02626560555",
      "district": "Dilovası",
      "city": "Kocaeli",
      "latitude": 40.771253,
      "longitude": 29.404127,
      "dutyStart": "2026-02-23T08:30:00.000Z",
      "dutyEnd": "2026-02-24T08:30:00.000Z"
    },
    {
      "id": "kocaeli-9",
      "name": "SERDAR ECZANESİ",
      "address": "ORHANGAZİ MAH.BAĞDAT CAD.NO:148/A",
      "phone": "02623281122",
      "district": "Kartepe",
      "city": "Kocaeli",
      "latitude": 40.785233,
      "longitude": 29.546114,
      "dutyStart": "2026-02-23T08:30:00.000Z",
      "dutyEnd": "2026-02-24T08:30:00.000Z"
    },
    {
      "id": "kocaeli-10",
      "name": "UYGUR ECZANESİ",
      "address": "KÖSEKÖY MAH.BAĞDAT CAD.NO:94/B",
      "phone": "02623314127",
      "district": "Gebze",
      "city": "Kocaeli",
      "latitude": 40.732802,
      "longitude": 30.015289,
      "dutyStart": "2026-02-23T08:30:00.000Z",
      "dutyEnd": "2026-02-24T08:30:00.000Z"
    },
    {
      "id": "kocaeli-11",
      "name": "BURCUM ECZANESİ",
      "address": "HACIHALIL MAH. ZÜBEYDE HANIM CAD. NO: 33/A GEBZE",
      "phone": "02626411707",
      "district": "Gebze",
      "city": "Kocaeli",
      "latitude": 40.798798,
      "longitude": 29.434619,
      "dutyStart": "2026-02-23T08:30:00.000Z",
      "dutyEnd": "2026-02-24T08:30:00.000Z"
    },
    {
      "id": "kocaeli-12",
      "name": "KAPLUMBAĞA ECZANESİ",
      "address": "ARAPÇEŞME MAH. KAVAK CAD. NO:6/B GEBZE",
      "phone": "02626464666",
      "district": "Gebze",
      "city": "Kocaeli",
      "latitude": 40.803408,
      "longitude": 29.440203,
      "dutyStart": "2026-02-23T08:30:00.000Z",
      "dutyEnd": "2026-02-24T08:30:00.000Z"
    },
    {
      "id": "kocaeli-13",
      "name": "CAN ERTAN ECZANESİ",
      "address": "MUSTAFAPAŞA MAH. 707 SOKAK NO:11/A GEBZE",
      "phone": "02626440329",
      "district": "Gölcük",
      "city": "Kocaeli",
      "latitude": 40.799162,
      "longitude": 29.427565,
      "dutyStart": "2026-02-23T08:30:00.000Z",
      "dutyEnd": "2026-02-24T08:30:00.000Z"
    },
    {
      "id": "kocaeli-14",
      "name": "PELİN ECZANESİ",
      "address": "SEHITLER MAH. KOCATEPE CAD. NO:78",
      "phone": "02624120184",
      "district": "Gebze",
      "city": "Kocaeli",
      "latitude": 40.714221,
      "longitude": 29.830448,
      "dutyStart": "2026-02-23T08:30:00.000Z",
      "dutyEnd": "2026-02-24T08:30:00.000Z"
    },
    {
      "id": "kocaeli-15",
      "name": "BEYLİK ECZANESİ",
      "address": "YAVUZ SELİM MAH. SELİMPAŞA CAD. NO:80/A KOCAELİ",
      "phone": "02627441908",
      "district": "Gölcük",
      "city": "Kocaeli",
      "latitude": 40.813731,
      "longitude": 29.399479,
      "dutyStart": "2026-02-23T08:30:00.000Z",
      "dutyEnd": "2026-02-24T08:30:00.000Z"
    },
    {
      "id": "kocaeli-16",
      "name": "DENİZ ECZANESİ",
      "address": "YALI MAH. BAŞKOMUTAN CAD. NO:4/A GÖLCÜK",
      "phone": "02624264280",
      "district": "Gölcük",
      "city": "Kocaeli",
      "latitude": 40.719879,
      "longitude": 29.782301,
      "dutyStart": "2026-02-23T08:30:00.000Z",
      "dutyEnd": "2026-02-24T08:30:00.000Z"
    },
    {
      "id": "kocaeli-17",
      "name": "AİLE ECZANESİ",
      "address": "ÇİFTLİK MAH. HASTANE CAD. NO:76/B GÖLCÜK",
      "phone": "02624356680",
      "district": "Kandıra",
      "city": "Kocaeli",
      "latitude": 40.705949,
      "longitude": 29.838827,
      "dutyStart": "2026-02-23T08:30:00.000Z",
      "dutyEnd": "2026-02-24T08:30:00.000Z"
    },
    {
      "id": "kocaeli-18",
      "name": "TOKİ ECZANESİ",
      "address": "ORHAN MAH.KABAAĞAÇ CAD.NO:22/D",
      "phone": "02625514888",
      "district": "Karamürsel",
      "city": "Kocaeli",
      "latitude": 41.06595,
      "longitude": 30.135492,
      "dutyStart": "2026-02-23T08:30:00.000Z",
      "dutyEnd": "2026-02-24T08:30:00.000Z"
    },
    {
      "id": "kocaeli-19",
      "name": "KARAMÜRSEL ECZANESİ",
      "address": "4 TEMMUZ MAH.CUMHURIYET CAD.NO:36 KARAMÜRSEL",
      "phone": "02624521164",
      "district": "Körfez",
      "city": "Kocaeli",
      "latitude": 40.693067,
      "longitude": 29.615882,
      "dutyStart": "2026-02-23T08:30:00.000Z",
      "dutyEnd": "2026-02-24T08:30:00.000Z"
    },
    {
      "id": "kocaeli-20",
      "name": "SAĞLIK ECZANESİ",
      "address": "ESENTEPE MAH. HAREKET SOK. NO:11/A KÖRFEZ",
      "phone": "02625264144",
      "district": "Körfez",
      "city": "Kocaeli",
      "latitude": 40.765248,
      "longitude": 29.7915,
      "dutyStart": "2026-02-23T08:30:00.000Z",
      "dutyEnd": "2026-02-24T08:30:00.000Z"
    },
    {
      "id": "kocaeli-21",
      "name": "BANU ECZANESİ",
      "address": "ATALAR MAH. MEHMET AKIF ERSOY CAD. 10/B KÖRFEZ",
      "phone": "02625287017",
      "district": "Derince",
      "city": "Kocaeli",
      "latitude": 40.773438,
      "longitude": 29.734422,
      "dutyStart": "2026-02-23T08:30:00.000Z",
      "dutyEnd": "2026-02-24T08:30:00.000Z"
    },
    {
      "id": "kocaeli-22",
      "name": "EZGİ ECZANESİ",
      "address": "İBNİ SİNA MAH. SIRRIPAŞA CAD. NO:2/A DERİNCE",
      "phone": "02622294152",
      "district": "İzmit",
      "city": "Kocaeli",
      "latitude": 40.761358,
      "longitude": 29.803513,
      "dutyStart": "2026-02-23T08:30:00.000Z",
      "dutyEnd": "2026-02-24T08:30:00.000Z"
    }
  ]
}