{
  "city": "kocaeli",
  "cityName": "Kocaeli",
  "cityId": 41,
  "date": "2026-03-07",
  "updatedAt": "2026-03-07T07:00:26.782Z",
  "count": 33,
  "pharmacies": [
    {
      "id": "kocaeli-0",
      "name": "İZMİT ECZANESİ",
      "address": "TEPECİK MAH. FETHİYE CAD. ÖZSOY İŞHANI 33/A İZMİT",
      "phone": "02623310181",
      "district": "İzmit",
      "city": "Kocaeli",
      "latitude": 40.764468,
      "longitude": 29.925995,
      "dutyStart": "2026-03-07T08:30:00.000Z",
      "dutyEnd": "2026-03-08T08:30:00.000Z"
    },
    {
      "id": "kocaeli-1",
      "name": "KADIKÖY ECZANESİ",
      "address": "KADIKÖY MAH.BAĞDAT CAD.NO:125/B",
      "phone": "02623255030",
      "district": "İzmit",
      "city": "Kocaeli",
      "latitude": 40.76797,
      "longitude": 29.946786,
      "dutyStart": "2026-03-07T08:30:00.000Z",
      "dutyEnd": "2026-03-08T08:30:00.000Z"
    },
    {
      "id": "kocaeli-2",
      "name": "GÜLTAÇ ECZANESİ",
      "address": "YENİŞEHİR MAH. ÖZDEN SOK. NO:28 İZMİT",
      "phone": "02623433175",
      "district": "İzmit",
      "city": "Kocaeli",
      "latitude": 40.770198,
      "longitude": 29.960642,
      "dutyStart": "2026-03-07T08:30:00.000Z",
      "dutyEnd": "2026-03-08T08:30:00.000Z"
    },
    {
      "id": "kocaeli-3",
      "name": "KURUÇEŞME MERKEZ ECZANESİ",
      "address": "DOGAN MAH. ATATÜRK CAD. NO: 28 İZMİT",
      "phone": "02622262598",
      "district": "İzmit",
      "city": "Kocaeli",
      "latitude": 40.76561,
      "longitude": 29.877421,
      "dutyStart": "2026-03-07T08:30:00.000Z",
      "dutyEnd": "2026-03-08T08:30:00.000Z"
    },
    {
      "id": "kocaeli-4",
      "name": "DERMAN ECZANESİ",
      "address": "YENIDOGAN MAH. HASTANE YOLU SOK NO:11/C İZMİT/KOCAELİ",
      "phone": "02623211720",
      "district": "İzmit",
      "city": "Kocaeli",
      "latitude": 40.76442,
      "longitude": 29.899253,
      "dutyStart": "2026-03-07T08:30:00.000Z",
      "dutyEnd": "2026-03-08T08:30:00.000Z"
    },
    {
      "id": "kocaeli-5",
      "name": "ALKAN ECZANESİ",
      "address": "YENİŞEHİR MAH. TURAN GÜNEŞ CAD. NO:310/7A",
      "phone": "02623316540",
      "district": "İzmit",
      "city": "Kocaeli",
      "latitude": 40.775684,
      "longitude": 29.963259,
      "dutyStart": "2026-03-07T08:30:00.000Z",
      "dutyEnd": "2026-03-08T08:30:00.000Z"
    },
    {
      "id": "kocaeli-6",
      "name": "ZEYNEP ECZANESİ",
      "address": "OVACIK MAH. D-100 KARAYOLU CAD. NO:28/1 BAŞİSKELE",
      "phone": "02623315935",
      "district": "İzmit",
      "city": "Kocaeli",
      "latitude": 40.759351,
      "longitude": 29.97808,
      "dutyStart": "2026-03-07T08:30:00.000Z",
      "dutyEnd": "2026-03-08T08:30:00.000Z"
    },
    {
      "id": "kocaeli-7",
      "name": "EDA ECZANESİ",
      "address": "FATİH MAH.CUMHURİYET CAD.MANAR 3 SİTESİ A BLOK NO:151 AA",
      "phone": "05539452440",
      "district": "Başiskele",
      "city": "Kocaeli",
      "latitude": 40.696436,
      "longitude": 29.973531,
      "dutyStart": "2026-03-07T08:30:00.000Z",
      "dutyEnd": "2026-03-08T08:30:00.000Z"
    },
    {
      "id": "kocaeli-8",
      "name": "BAŞİSKELE ECZANESİ",
      "address": "BARBAROS MAH. ATATÜRK CAD. NO: 15 BAŞİSKELE",
      "phone": "02623434186",
      "district": "Başiskele",
      "city": "Kocaeli",
      "latitude": 40.711887,
      "longitude": 29.928998,
      "dutyStart": "2026-03-07T08:30:00.000Z",
      "dutyEnd": "2026-03-08T08:30:00.000Z"
    },
    {
      "id": "kocaeli-9",
      "name": "YENİKÖY ECZANESİ",
      "address": "ATAKENT MAH. BAYSAL SOK. NO:2/A BAŞİSKELE",
      "phone": "05528250541",
      "district": "Başiskele",
      "city": "Kocaeli",
      "latitude": 40.701347,
      "longitude": 29.889751,
      "dutyStart": "2026-03-07T08:30:00.000Z",
      "dutyEnd": "2026-03-08T08:30:00.000Z"
    },
    {
      "id": "kocaeli-10",
      "name": "DORUK ECZANESİ",
      "address": "YENİ MAH.MENDERES CAD.NO:71/A ÇAYIROVA",
      "phone": "05461183292",
      "district": "Başiskele",
      "city": "Kocaeli",
      "latitude": 40.824452,
      "longitude": 29.368879,
      "dutyStart": "2026-03-07T08:30:00.000Z",
      "dutyEnd": "2026-03-08T08:30:00.000Z"
    },
    {
      "id": "kocaeli-11",
      "name": "AKKUZU ECZANESİ",
      "address": "İNÖNÜ MAH.145. SOK. NO:14/A ÇAYIROVA",
      "phone": "02627444142",
      "district": "Çayırova",
      "city": "Kocaeli",
      "latitude": 40.823558,
      "longitude": 29.392928,
      "dutyStart": "2026-03-07T08:30:00.000Z",
      "dutyEnd": "2026-03-08T08:30:00.000Z"
    },
    {
      "id": "kocaeli-12",
      "name": "DARICA LEYLA ECZANESİ",
      "address": "OSMANGAZI MAH. FATIH SULTAN MEHMET CAD. NO:73",
      "phone": "02626540608",
      "district": "Çayırova",
      "city": "Kocaeli",
      "latitude": 40.795636,
      "longitude": 29.368804,
      "dutyStart": "2026-03-07T08:30:00.000Z",
      "dutyEnd": "2026-03-08T08:30:00.000Z"
    },
    {
      "id": "kocaeli-13",
      "name": "ÇINAR ECZANESİ",
      "address": "FEVZİ ÇAKMAK MAH.İSTASYON CAD. NO:404 DARICA",
      "phone": "02626550257",
      "district": "Darıca",
      "city": "Kocaeli",
      "latitude": 40.773925,
      "longitude": 29.401577,
      "dutyStart": "2026-03-07T08:30:00.000Z",
      "dutyEnd": "2026-03-08T08:30:00.000Z"
    },
    {
      "id": "kocaeli-14",
      "name": "HARUN ECZANESİ",
      "address": "DİLİSKELESİ MAH.CUMHURİYET CAD.NO:67/C",
      "phone": "02627547617",
      "district": "Dilovası",
      "city": "Kocaeli",
      "latitude": 40.776655,
      "longitude": 29.526294,
      "dutyStart": "2026-03-07T08:30:00.000Z",
      "dutyEnd": "2026-03-08T08:30:00.000Z"
    },
    {
      "id": "kocaeli-15",
      "name": "BALLI ÇİÇEK ECZANESİ",
      "address": "ATAEVLER MAH. SAPANCA YOLU CAD. NO:26/F KARTEPE",
      "phone": "02625033341",
      "district": "Kartepe",
      "city": "Kocaeli",
      "latitude": 40.746363,
      "longitude": 30.048833,
      "dutyStart": "2026-03-07T08:30:00.000Z",
      "dutyEnd": "2026-03-08T08:30:00.000Z"
    },
    {
      "id": "kocaeli-16",
      "name": "İREM ECZANESİ",
      "address": "İSTASYON MAH. ATAKAN CAD. N. TURHAN İŞ MERKEZİ NO:3/A",
      "phone": "02623733212",
      "district": "Kartepe",
      "city": "Kocaeli",
      "latitude": 40.752833,
      "longitude": 30.023325,
      "dutyStart": "2026-03-07T08:30:00.000Z",
      "dutyEnd": "2026-03-08T08:30:00.000Z"
    },
    {
      "id": "kocaeli-17",
      "name": "DEMİRTAŞ ECZANESİ",
      "address": "GÜZELLER MAH.YENİBAĞDAT CAD.NO:583/A GEBZE",
      "phone": "02626429091",
      "district": "Gebze",
      "city": "Kocaeli",
      "latitude": 40.801027,
      "longitude": 29.431763,
      "dutyStart": "2026-03-07T08:30:00.000Z",
      "dutyEnd": "2026-03-08T08:30:00.000Z"
    },
    {
      "id": "kocaeli-18",
      "name": "YENİ HAYAT ECZANESİ",
      "address": "MUSTAFA PASA MAH. BAGDAT CAD. 712. SOK. NO:2",
      "phone": "02626423232",
      "district": "Gebze",
      "city": "Kocaeli",
      "latitude": 40.80024,
      "longitude": 29.430742,
      "dutyStart": "2026-03-07T08:30:00.000Z",
      "dutyEnd": "2026-03-08T08:30:00.000Z"
    },
    {
      "id": "kocaeli-19",
      "name": "PİYALEPAŞA ECZANESİ",
      "address": "PİYALEPAŞA MAH.471.SOK.NO:10/A GÖLCÜK",
      "phone": "02624149434",
      "district": "Gölcük",
      "city": "Kocaeli",
      "latitude": 40.708811,
      "longitude": 29.830753,
      "dutyStart": "2026-03-07T08:30:00.000Z",
      "dutyEnd": "2026-03-08T08:30:00.000Z"
    },
    {
      "id": "kocaeli-20",
      "name": "BARIŞ ECZANESİ",
      "address": "BEYLIKBAGI MAH.ANKARA CD.NO:40/B",
      "phone": "02627444001",
      "district": "Gebze",
      "city": "Kocaeli",
      "latitude": 40.80616,
      "longitude": 29.385643,
      "dutyStart": "2026-03-07T08:30:00.000Z",
      "dutyEnd": "2026-03-08T08:30:00.000Z"
    },
    {
      "id": "kocaeli-21",
      "name": "TUNAHAN ECZANESİ",
      "address": "BEYLİKBAĞI MAH. YAŞARDOĞU CAD. NO:101/B GEBZE",
      "phone": "02627430003",
      "district": "Gebze",
      "city": "Kocaeli",
      "latitude": 40.802957,
      "longitude": 29.39143,
      "dutyStart": "2026-03-07T08:30:00.000Z",
      "dutyEnd": "2026-03-08T08:30:00.000Z"
    },
    {
      "id": "kocaeli-22",
      "name": "HACETTEPE ECZANESİ",
      "address": "YÜZBAŞILAR MAH. AMİRAL KAYACAN CAD. NO:76/B GÖLCÜK",
      "phone": "05413994616",
      "district": "Gölcük",
      "city": "Kocaeli",
      "latitude": 40.720762,
      "longitude": 29.794937,
      "dutyStart": "2026-03-07T08:30:00.000Z",
      "dutyEnd": "2026-03-08T08:30:00.000Z"
    },
    {
      "id": "kocaeli-23",
      "name": "AZAT ECZANESİ",
      "address": "ÇİFTLİK MAH. KAZIM KARABEKİR CAD.NO:16/C GÖLCÜK",
      "phone": "02624358030",
      "district": "Gölcük",
      "city": "Kocaeli",
      "latitude": 40.705713,
      "longitude": 29.846837,
      "dutyStart": "2026-03-07T08:30:00.000Z",
      "dutyEnd": "2026-03-08T08:30:00.000Z"
    },
    {
      "id": "kocaeli-24",
      "name": "KANDIRA ECZANESİ",
      "address": "ÇARSI MAH. İSMAİL ŞENOĞLU CAD. NO:39/E KANDIRA",
      "phone": "02625512285",
      "district": "Kandıra",
      "city": "Kocaeli",
      "latitude": 41.069435,
      "longitude": 30.15185,
      "dutyStart": "2026-03-07T08:30:00.000Z",
      "dutyEnd": "2026-03-08T08:30:00.000Z"
    },
    {
      "id": "kocaeli-25",
      "name": "HANDAN ECZANESİ",
      "address": "KAYACIK MAH. HÜSEYIN KARADENIZ SOK. NO: 11",
      "phone": "02624525411",
      "district": "Karamürsel",
      "city": "Kocaeli",
      "latitude": 40.684863,
      "longitude": 29.589083,
      "dutyStart": "2026-03-07T08:30:00.000Z",
      "dutyEnd": "2026-03-08T08:30:00.000Z"
    },
    {
      "id": "kocaeli-26",
      "name": "FİLİZ ECZANESİ",
      "address": "KUZEY MAH. AGADERE CAD. NO:21 KÖRFEZ",
      "phone": "02625267090",
      "district": "Körfez",
      "city": "Kocaeli",
      "latitude": 40.76289,
      "longitude": 29.786979,
      "dutyStart": "2026-03-07T08:30:00.000Z",
      "dutyEnd": "2026-03-08T08:30:00.000Z"
    },
    {
      "id": "kocaeli-27",
      "name": "DEMET ECZANESİ",
      "address": "GÜNEY MAH. ALBAY SOK. NO:6/B-C-D KÖRFEZ",
      "phone": "02625266100",
      "district": "Körfez",
      "city": "Kocaeli",
      "latitude": 40.760275,
      "longitude": 29.787494,
      "dutyStart": "2026-03-07T08:30:00.000Z",
      "dutyEnd": "2026-03-08T08:30:00.000Z"
    },
    {
      "id": "kocaeli-28",
      "name": "ERDOĞAN ECZANESİ",
      "address": "YENIYALI MAH. BELEN CAD. NO:42 KÖRFEZ",
      "phone": "05335264090",
      "district": "Körfez",
      "city": "Kocaeli",
      "latitude": 40.766794,
      "longitude": 29.786009,
      "dutyStart": "2026-03-07T08:30:00.000Z",
      "dutyEnd": "2026-03-08T08:30:00.000Z"
    },
    {
      "id": "kocaeli-29",
      "name": "BANU ECZANESİ",
      "address": "ATALAR MAH. MEHMET AKIF ERSOY CAD. 10/B KÖRFEZ",
      "phone": "02625287017",
      "district": "Körfez",
      "city": "Kocaeli",
      "latitude": 40.773438,
      "longitude": 29.734422,
      "dutyStart": "2026-03-07T08:30:00.000Z",
      "dutyEnd": "2026-03-08T08:30:00.000Z"
    },
    {
      "id": "kocaeli-30",
      "name": "BAHAR ECZANESİ",
      "address": "ÇINARLI MAH. ÖNDER CAD. NO:86",
      "phone": "02622236687",
      "district": "Derince",
      "city": "Kocaeli",
      "latitude": 40.765301,
      "longitude": 29.842823,
      "dutyStart": "2026-03-07T08:30:00.000Z",
      "dutyEnd": "2026-03-08T08:30:00.000Z"
    },
    {
      "id": "kocaeli-31",
      "name": "AKBULUT ECZANESİ",
      "address": "YENİKENT MAH. ZAMBAK SOK. NO:26/A DERİNCE",
      "phone": "02622333662",
      "district": "Derince",
      "city": "Kocaeli",
      "latitude": 40.772471,
      "longitude": 29.810041,
      "dutyStart": "2026-03-07T08:30:00.000Z",
      "dutyEnd": "2026-03-08T08:30:00.000Z"
    },
    {
      "id": "kocaeli-32",
      "name": "GÜNEŞ ECZANESİ",
      "address": "İBNİ SİNA MAH. LOJMAN SOK. NO:18/B DERİNCE",
      "phone": "02622331223",
      "district": "Derince",
      "city": "Kocaeli",
      "latitude": 40.76262,
      "longitude": 29.812505,
      "dutyStart": "2026-03-07T08:30:00.000Z",
      "dutyEnd": "2026-03-08T08:30:00.000Z"
    }
  ]
}