{
  "city": "kocaeli",
  "cityName": "Kocaeli",
  "cityId": 41,
  "date": "2026-02-15",
  "updatedAt": "2026-02-15T18:30:12.578Z",
  "count": 21,
  "pharmacies": [
    {
      "id": "kocaeli-0",
      "name": "UMUT ECZANESİ",
      "address": "HACI HIZIR MAH. ALEMDAR CAD. NO: 60 İZMİT",
      "phone": "02624355400",
      "district": "İzmit",
      "city": "Kocaeli",
      "latitude": 40.766813,
      "longitude": 29.927883,
      "dutyStart": "2026-02-15T08:30:00.000Z",
      "dutyEnd": "2026-02-16T08:30:00.000Z"
    },
    {
      "id": "kocaeli-1",
      "name": "NAR ECZANESİ",
      "address": "YENISEHIR MAH. DÖNMEZ SOK. NO: 32/B İZMİT",
      "phone": "02623114627",
      "district": "İzmit",
      "city": "Kocaeli",
      "latitude": 40.764769,
      "longitude": 29.965435,
      "dutyStart": "2026-02-15T08:30:00.000Z",
      "dutyEnd": "2026-02-16T08:30:00.000Z"
    },
    {
      "id": "kocaeli-2",
      "name": "ANIL ECZANESİ",
      "address": "DOĞAN MAH. HASAN ATAKAN CAD. NO:8/A İZMİT",
      "phone": "02622269427",
      "district": "İzmit",
      "city": "Kocaeli",
      "latitude": 40.765785,
      "longitude": 29.876447,
      "dutyStart": "2026-02-15T08:30:00.000Z",
      "dutyEnd": "2026-02-16T08:30:00.000Z"
    },
    {
      "id": "kocaeli-3",
      "name": "YENİ SEMA ECZANESİ",
      "address": "GÜNDOĞDU MAH. BOGAZOVA CAD. NO:14/A",
      "phone": "02623191110",
      "district": "İzmit",
      "city": "Kocaeli",
      "latitude": 40.787435,
      "longitude": 29.957854,
      "dutyStart": "2026-02-15T08:30:00.000Z",
      "dutyEnd": "2026-02-16T08:30:00.000Z"
    },
    {
      "id": "kocaeli-4",
      "name": "LEMAN ECZANESİ",
      "address": "BARBAROS MAH. MİLLET CAD. NO:78/C BAŞİSKELE",
      "phone": "05538101100",
      "district": "Başiskele",
      "city": "Kocaeli",
      "latitude": 40.707287,
      "longitude": 29.9322,
      "dutyStart": "2026-02-15T08:30:00.000Z",
      "dutyEnd": "2026-02-16T08:30:00.000Z"
    },
    {
      "id": "kocaeli-5",
      "name": "NURECE ECZANESİ",
      "address": "YENI MAH. FATIH CAD. NO: 123/B",
      "phone": "02627449834",
      "district": "Çayırova",
      "city": "Kocaeli",
      "latitude": 40.825703,
      "longitude": 29.373026,
      "dutyStart": "2026-02-15T08:30:00.000Z",
      "dutyEnd": "2026-02-16T08:30:00.000Z"
    },
    {
      "id": "kocaeli-6",
      "name": "ÇINAR ECZANESİ",
      "address": "ÖZGÜRLÜK MAH.İSTİKLAL CAD.NO:192/A ÇAYIROVA",
      "phone": "05077420754",
      "district": "Çayırova",
      "city": "Kocaeli",
      "latitude": 40.832444,
      "longitude": 29.387968,
      "dutyStart": "2026-02-15T08:30:00.000Z",
      "dutyEnd": "2026-02-16T08:30:00.000Z"
    },
    {
      "id": "kocaeli-7",
      "name": "ŞEBNEM ENİSE ECZANESİ",
      "address": "BAĞLARBAŞI MAH. İSTASYON CAD. NO:204 DARICA",
      "phone": "02627453464",
      "district": "Darıca",
      "city": "Kocaeli",
      "latitude": 40.761983,
      "longitude": 29.388882,
      "dutyStart": "2026-02-15T08:30:00.000Z",
      "dutyEnd": "2026-02-16T08:30:00.000Z"
    },
    {
      "id": "kocaeli-8",
      "name": "ONUR ECZANESİ",
      "address": "ORHANGAZİ MAH. BAĞDAT CAD. NO:127/A DİLOVASI",
      "phone": "02627547888",
      "district": "Dilovası",
      "city": "Kocaeli",
      "latitude": 40.785364,
      "longitude": 29.542535,
      "dutyStart": "2026-02-15T08:30:00.000Z",
      "dutyEnd": "2026-02-16T08:30:00.000Z"
    },
    {
      "id": "kocaeli-9",
      "name": "PAPATYA ECZANESİ",
      "address": "KÖSEKÖY MAH.TERZİ GÖLÜ CAD.NO:13/A",
      "phone": "05447146141",
      "district": "Kartepe",
      "city": "Kocaeli",
      "latitude": 40.738226,
      "longitude": 30.006217,
      "dutyStart": "2026-02-15T08:30:00.000Z",
      "dutyEnd": "2026-02-16T08:30:00.000Z"
    },
    {
      "id": "kocaeli-10",
      "name": "AKÇAY ECZANESİ",
      "address": "HACIHALİL MAH.YENİ BAĞDATCAD.ÖZDEMİR APT.NO:456/C GEBZE",
      "phone": "02626437046",
      "district": "Gebze",
      "city": "Kocaeli",
      "latitude": 40.801869,
      "longitude": 29.437534,
      "dutyStart": "2026-02-15T08:30:00.000Z",
      "dutyEnd": "2026-02-16T08:30:00.000Z"
    },
    {
      "id": "kocaeli-11",
      "name": "AÇELYA DEVA ECZANESİ",
      "address": "MEVLANA MAH.MUAMMER AKSOY CAD.NO:30/A",
      "phone": "02626411269",
      "district": "Gebze",
      "city": "Kocaeli",
      "latitude": 40.806993,
      "longitude": 29.428807,
      "dutyStart": "2026-02-15T08:30:00.000Z",
      "dutyEnd": "2026-02-16T08:30:00.000Z"
    },
    {
      "id": "kocaeli-12",
      "name": "ÜMİT ECZANESİ",
      "address": "KAVAKLI MAH. BURAKREIS CAD. NO:8 GÖLCÜK",
      "phone": "02624120816",
      "district": "Gölcük",
      "city": "Kocaeli",
      "latitude": 40.722187,
      "longitude": 29.836385,
      "dutyStart": "2026-02-15T08:30:00.000Z",
      "dutyEnd": "2026-02-16T08:30:00.000Z"
    },
    {
      "id": "kocaeli-13",
      "name": "HÜRRİYET ECZANESİ",
      "address": "HÜRRİYET MAH. YASA CAD. NO:24/A GEBZE",
      "phone": "02627449672",
      "district": "Gebze",
      "city": "Kocaeli",
      "latitude": 40.800465,
      "longitude": 29.402354,
      "dutyStart": "2026-02-15T08:30:00.000Z",
      "dutyEnd": "2026-02-16T08:30:00.000Z"
    },
    {
      "id": "kocaeli-14",
      "name": "SEDEF ECZANESİ",
      "address": "TOPÇULAR MAH.DEVLET KARAYOLU(D130)CAD.NO:71/C",
      "phone": "02625035353",
      "district": "Gölcük",
      "city": "Kocaeli",
      "latitude": 40.71797,
      "longitude": 29.79617,
      "dutyStart": "2026-02-15T08:30:00.000Z",
      "dutyEnd": "2026-02-16T08:30:00.000Z"
    },
    {
      "id": "kocaeli-15",
      "name": "AİLE ECZANESİ",
      "address": "ÇİFTLİK MAH. HASTANE CAD. NO:76/B GÖLCÜK",
      "phone": "02624356680",
      "district": "Gölcük",
      "city": "Kocaeli",
      "latitude": 40.705949,
      "longitude": 29.838827,
      "dutyStart": "2026-02-15T08:30:00.000Z",
      "dutyEnd": "2026-02-16T08:30:00.000Z"
    },
    {
      "id": "kocaeli-16",
      "name": "ÖZDEMİR ECZANESİ",
      "address": "ÇARŞI MAH. İSMAİL ŞENOĞLU CAD. NO:24/A KANDIRA",
      "phone": "02625515544",
      "district": "Kandıra",
      "city": "Kocaeli",
      "latitude": 41.069291,
      "longitude": 30.149583,
      "dutyStart": "2026-02-15T08:30:00.000Z",
      "dutyEnd": "2026-02-16T08:30:00.000Z"
    },
    {
      "id": "kocaeli-17",
      "name": "SAHİL ECZANESİ",
      "address": "4 TEMMUZ MAH.ATATÜRK CAD. NO:55/A KARAMÜRSEL",
      "phone": "02624525610",
      "district": "Karamürsel",
      "city": "Kocaeli",
      "latitude": 40.694137,
      "longitude": 29.616729,
      "dutyStart": "2026-02-15T08:30:00.000Z",
      "dutyEnd": "2026-02-16T08:30:00.000Z"
    },
    {
      "id": "kocaeli-18",
      "name": "MARMARA ECZANESİ",
      "address": "GÜNEY MAH.ALBAY SOK.NO:14/C",
      "phone": "02625264657",
      "district": "Körfez",
      "city": "Kocaeli",
      "latitude": 40.759643,
      "longitude": 29.787248,
      "dutyStart": "2026-02-15T08:30:00.000Z",
      "dutyEnd": "2026-02-16T08:30:00.000Z"
    },
    {
      "id": "kocaeli-19",
      "name": "ATAMAN ECZANESİ",
      "address": "ATALAR MAH.MEHMET AKİF ERSOY CAD.NO:21/A KÖRFEZ",
      "phone": "05332502972",
      "district": "Körfez",
      "city": "Kocaeli",
      "latitude": 40.773613,
      "longitude": 29.735152,
      "dutyStart": "2026-02-15T08:30:00.000Z",
      "dutyEnd": "2026-02-16T08:30:00.000Z"
    },
    {
      "id": "kocaeli-20",
      "name": "MARMARA ECZANESİ",
      "address": "YENİKENT MAH.HAYAL SOK.AHMET YESEVİ CAMİ NO:17/C DERİNCE",
      "phone": "05054954041",
      "district": "Derince",
      "city": "Kocaeli",
      "latitude": 40.780858,
      "longitude": 29.811152,
      "dutyStart": "2026-02-15T08:30:00.000Z",
      "dutyEnd": "2026-02-16T08:30:00.000Z"
    }
  ]
}