{
  "city": "kocaeli",
  "cityName": "Kocaeli",
  "cityId": 41,
  "date": "2026-02-19",
  "updatedAt": "2026-02-19T18:30:31.267Z",
  "count": 23,
  "pharmacies": [
    {
      "id": "kocaeli-0",
      "name": "EREM ECZANESİ",
      "address": "ÇUKURBAĞ MAH. İNÖNÜ CAD. NO:113 İZMİT",
      "phone": "02623238909",
      "district": "İzmit",
      "city": "Kocaeli",
      "latitude": 40.76604,
      "longitude": 29.929553,
      "dutyStart": "2026-02-19T08:30:00.000Z",
      "dutyEnd": "2026-02-20T08:30:00.000Z"
    },
    {
      "id": "kocaeli-1",
      "name": "KADIKÖY ECZANESİ",
      "address": "KADIKÖY MAH.BAĞDAT CAD.NO:125/B",
      "phone": "02623255030",
      "district": "İzmit",
      "city": "Kocaeli",
      "latitude": 40.76797,
      "longitude": 29.946786,
      "dutyStart": "2026-02-19T08:30:00.000Z",
      "dutyEnd": "2026-02-20T08:30:00.000Z"
    },
    {
      "id": "kocaeli-2",
      "name": "ÖZLEM ECZANESİ",
      "address": "BEKİRDERE MAH.TURAN GÜNEŞ CAD.NO:337/A İZMİT",
      "phone": "02623225504",
      "district": "İzmit",
      "city": "Kocaeli",
      "latitude": 40.772512,
      "longitude": 29.955116,
      "dutyStart": "2026-02-19T08:30:00.000Z",
      "dutyEnd": "2026-02-20T08:30:00.000Z"
    },
    {
      "id": "kocaeli-3",
      "name": "YENİDOĞAN ECZANESİ",
      "address": "YENIDOGAN MAH. KAYIN SOK. NO:16/A İZMİT",
      "phone": "02623217959",
      "district": "İzmit",
      "city": "Kocaeli",
      "latitude": 40.76847,
      "longitude": 29.902473,
      "dutyStart": "2026-02-19T08:30:00.000Z",
      "dutyEnd": "2026-02-20T08:30:00.000Z"
    },
    {
      "id": "kocaeli-4",
      "name": "YASEMİN ECZANESİ",
      "address": "GÜNDOĞDU MAH. BOĞAZOVA CAD. C BLOK NO:5/E",
      "phone": "02625000070",
      "district": "İzmit",
      "city": "Kocaeli",
      "latitude": 40.787164,
      "longitude": 29.955454,
      "dutyStart": "2026-02-19T08:30:00.000Z",
      "dutyEnd": "2026-02-20T08:30:00.000Z"
    },
    {
      "id": "kocaeli-5",
      "name": "LEMAN ECZANESİ",
      "address": "BARBAROS MAH. MİLLET CAD. NO:78/C BAŞİSKELE",
      "phone": "05538101100",
      "district": "Başiskele",
      "city": "Kocaeli",
      "latitude": 40.707287,
      "longitude": 29.9322,
      "dutyStart": "2026-02-19T08:30:00.000Z",
      "dutyEnd": "2026-02-20T08:30:00.000Z"
    },
    {
      "id": "kocaeli-6",
      "name": "SEVGİ ECZANESİ",
      "address": "YENİ MAH.5148 SOK.NO:16/A ÇAYIROVA",
      "phone": "02627438685",
      "district": "Çayırova",
      "city": "Kocaeli",
      "latitude": 40.824217,
      "longitude": 29.370132,
      "dutyStart": "2026-02-19T08:30:00.000Z",
      "dutyEnd": "2026-02-20T08:30:00.000Z"
    },
    {
      "id": "kocaeli-7",
      "name": "YENİ YAŞAM ECZANESİ",
      "address": "ÖZGÜRLÜK MAH. UGUR MUMCU CAD.NO:52/B",
      "phone": "02627439403",
      "district": "Çayırova",
      "city": "Kocaeli",
      "latitude": 40.825454,
      "longitude": 29.383401,
      "dutyStart": "2026-02-19T08:30:00.000Z",
      "dutyEnd": "2026-02-20T08:30:00.000Z"
    },
    {
      "id": "kocaeli-8",
      "name": "AYŞE ECZANESİ",
      "address": "PİRİ REİS MAH.BARBAROS CAD.NO:43/B",
      "phone": "05010453701",
      "district": "Darıca",
      "city": "Kocaeli",
      "latitude": 40.783159,
      "longitude": 29.369569,
      "dutyStart": "2026-02-19T08:30:00.000Z",
      "dutyEnd": "2026-02-20T08:30:00.000Z"
    },
    {
      "id": "kocaeli-9",
      "name": "KIRMIZI ECZANESİ",
      "address": "MİMAR SİNAN MAH.İSTİKLAL CAD.NO:51/A",
      "phone": "05377185097",
      "district": "Dilovası",
      "city": "Kocaeli",
      "latitude": 40.790118,
      "longitude": 29.540251,
      "dutyStart": "2026-02-19T08:30:00.000Z",
      "dutyEnd": "2026-02-20T08:30:00.000Z"
    },
    {
      "id": "kocaeli-10",
      "name": "MAŞUKİYE SERAP ECZANESİ",
      "address": "MAŞUKİYE MAH.LEYLA ATAKAN CAD.NO:14/E",
      "phone": "02623543044",
      "district": "Kartepe",
      "city": "Kocaeli",
      "latitude": 40.701947,
      "longitude": 30.13954,
      "dutyStart": "2026-02-19T08:30:00.000Z",
      "dutyEnd": "2026-02-20T08:30:00.000Z"
    },
    {
      "id": "kocaeli-11",
      "name": "SULTANORHAN ECZANESİ",
      "address": "SULTAN ORHAN MAH. ILYASBEY CAD. NO:19/E GEBZE",
      "phone": "02626414710",
      "district": "Gebze",
      "city": "Kocaeli",
      "latitude": 40.799347,
      "longitude": 29.439973,
      "dutyStart": "2026-02-19T08:30:00.000Z",
      "dutyEnd": "2026-02-20T08:30:00.000Z"
    },
    {
      "id": "kocaeli-12",
      "name": "İPEK ECZANESİ",
      "address": "ARAPÇEŞME MAH. 1014/1 SOK. NO:7/A GEBZE",
      "phone": "02626444972",
      "district": "Gebze",
      "city": "Kocaeli",
      "latitude": 40.812988,
      "longitude": 29.444441,
      "dutyStart": "2026-02-19T08:30:00.000Z",
      "dutyEnd": "2026-02-20T08:30:00.000Z"
    },
    {
      "id": "kocaeli-13",
      "name": "ŞULE ECZANESİ",
      "address": "OSMAN YILMAZ MAH.İLYAS UZUNER CAD.ER-ÖN APT.NO17/B",
      "phone": "02626424212",
      "district": "Gebze",
      "city": "Kocaeli",
      "latitude": 40.791542,
      "longitude": 29.42255,
      "dutyStart": "2026-02-19T08:30:00.000Z",
      "dutyEnd": "2026-02-20T08:30:00.000Z"
    },
    {
      "id": "kocaeli-14",
      "name": "TURAN ECZANESİ",
      "address": "YENİ MAH. 288. SOKAK NO:6/A GÖLCÜK",
      "phone": "02624355365",
      "district": "Gölcük",
      "city": "Kocaeli",
      "latitude": 40.714583,
      "longitude": 29.815782,
      "dutyStart": "2026-02-19T08:30:00.000Z",
      "dutyEnd": "2026-02-20T08:30:00.000Z"
    },
    {
      "id": "kocaeli-15",
      "name": "ANADOLU ECZANESİ",
      "address": "ULUS MAH.ANKARA CAD.NO:49/A",
      "phone": "02627444742",
      "district": "Gebze",
      "city": "Kocaeli",
      "latitude": 40.807857,
      "longitude": 29.38854,
      "dutyStart": "2026-02-19T08:30:00.000Z",
      "dutyEnd": "2026-02-20T08:30:00.000Z"
    },
    {
      "id": "kocaeli-16",
      "name": "YÜZBAŞILAR ECZANESİ",
      "address": "YÜZBAŞILAR MAH. SÜLEYMAN SOLAK CAD. NO:24 İÇ KAPI:B1-B2 DEĞİRMENDERE",
      "phone": "02624269774",
      "district": "Gölcük",
      "city": "Kocaeli",
      "latitude": 40.724059,
      "longitude": 29.797733,
      "dutyStart": "2026-02-19T08:30:00.000Z",
      "dutyEnd": "2026-02-20T08:30:00.000Z"
    },
    {
      "id": "kocaeli-17",
      "name": "AZAT ECZANESİ",
      "address": "ÇİFTLİK MAH. KAZIM KARABEKİR CAD.NO:16/C GÖLCÜK",
      "phone": "02624358030",
      "district": "Gölcük",
      "city": "Kocaeli",
      "latitude": 40.705713,
      "longitude": 29.846837,
      "dutyStart": "2026-02-19T08:30:00.000Z",
      "dutyEnd": "2026-02-20T08:30:00.000Z"
    },
    {
      "id": "kocaeli-18",
      "name": "KANDIRA ECZANESİ",
      "address": "ÇARSI MAH. İSMAİL ŞENOĞLU CAD. NO:39/E KANDIRA",
      "phone": "02625512285",
      "district": "Kandıra",
      "city": "Kocaeli",
      "latitude": 41.069435,
      "longitude": 30.15185,
      "dutyStart": "2026-02-19T08:30:00.000Z",
      "dutyEnd": "2026-02-20T08:30:00.000Z"
    },
    {
      "id": "kocaeli-19",
      "name": "AY ECZANESİ",
      "address": "4 TEMMUZ MAH.CUMHURİYET CAD.NO:27/1 KARAMÜRSEL",
      "phone": "02624521394",
      "district": "Karamürsel",
      "city": "Kocaeli",
      "latitude": 40.692813,
      "longitude": 29.615915,
      "dutyStart": "2026-02-19T08:30:00.000Z",
      "dutyEnd": "2026-02-20T08:30:00.000Z"
    },
    {
      "id": "kocaeli-20",
      "name": "DONANMA ECZANESİ",
      "address": "GÜNEY MAH. ALBAY SOK. NO: 8/A KÖRFEZ",
      "phone": "02625278595",
      "district": "Körfez",
      "city": "Kocaeli",
      "latitude": 40.760031,
      "longitude": 29.787397,
      "dutyStart": "2026-02-19T08:30:00.000Z",
      "dutyEnd": "2026-02-20T08:30:00.000Z"
    },
    {
      "id": "kocaeli-21",
      "name": "YASEMİN ECZANESİ",
      "address": "MİMAR SİNAN MAH.MEHMET AKİF ERSOY CAD.NO:127/A KÖRFEZ",
      "phone": "05533614900",
      "district": "Körfez",
      "city": "Kocaeli",
      "latitude": 40.770035,
      "longitude": 29.753447,
      "dutyStart": "2026-02-19T08:30:00.000Z",
      "dutyEnd": "2026-02-20T08:30:00.000Z"
    },
    {
      "id": "kocaeli-22",
      "name": "BARIŞ ECZANESİ",
      "address": "YAVUZ SULTAN MAH.KÖRFEZ CAD.ELİT SİTESİ NO:7/K DERİNCE",
      "phone": "02623236320",
      "district": "Derince",
      "city": "Kocaeli",
      "latitude": 40.755608,
      "longitude": 29.80924,
      "dutyStart": "2026-02-19T08:30:00.000Z",
      "dutyEnd": "2026-02-20T08:30:00.000Z"
    }
  ]
}