{
  "city": "konya",
  "cityName": "Konya",
  "cityId": 42,
  "date": "2026-02-28",
  "updatedAt": "2026-02-28T05:00:05.221Z",
  "count": 31,
  "pharmacies": [
    {
      "id": "konya-0",
      "name": "NİŞANTAŞI ECZANESİ",
      "address": "NİŞANTAŞI MAHALLESİ ŞEHİT ÖMER TAŞER SOKAK NO:15B 15A SELÇUKLU",
      "phone": "903323216111",
      "district": "Selçuklu",
      "city": "Konya",
      "latitude": 37.8759623,
      "longitude": 32.4797426,
      "dutyStart": "2026-02-28T09:00:00.000Z",
      "dutyEnd": "2026-03-01T09:00:00.000Z"
    },
    {
      "id": "konya-1",
      "name": "İLHAN ECZANESİ",
      "address": "FATİH MAHALLESİ MANAVLI SOKAK NO:3A SELÇUKLU",
      "phone": "903322364506",
      "district": "Selçuklu",
      "city": "Konya",
      "latitude": 37.8944578,
      "longitude": 32.4874506,
      "dutyStart": "2026-02-28T09:00:00.000Z",
      "dutyEnd": "2026-03-01T09:00:00.000Z"
    },
    {
      "id": "konya-2",
      "name": "PINAR ECZANESİ",
      "address": "KÖYCEĞİZ MAHALLESİ BEYŞEHİR CADDESİ NO:248C MERAM",
      "phone": "903323243021",
      "district": "Meram",
      "city": "Konya",
      "latitude": 37.8769682,
      "longitude": 32.4293683,
      "dutyStart": "2026-02-28T09:00:00.000Z",
      "dutyEnd": "2026-03-01T09:00:00.000Z"
    },
    {
      "id": "konya-3",
      "name": "CAN ECZANESİ",
      "address": "ALAVARDI MAHALLESİ ÇAMLIK SOKAK NO:6D MERAM",
      "phone": "903323235300",
      "district": "Meram",
      "city": "Konya",
      "latitude": 37.8720625,
      "longitude": 32.4600237,
      "dutyStart": "2026-02-28T09:00:00.000Z",
      "dutyEnd": "2026-03-01T09:00:00.000Z"
    },
    {
      "id": "konya-4",
      "name": "TARÇIN ECZANESİ",
      "address": "FEVZİ ÇAKMAK MAHALLESİ GÖZDE CADDESİ NO:41G SELÇUKLU",
      "phone": "905519929020",
      "district": "Karatay",
      "city": "Konya",
      "latitude": 37.89834,
      "longitude": 32.53097,
      "dutyStart": "2026-02-28T09:00:00.000Z",
      "dutyEnd": "2026-03-01T09:00:00.000Z"
    },
    {
      "id": "konya-5",
      "name": "LALEZAR ECZANESİ",
      "address": "SAHİBİATA MAHALLESİ HAL SOKAK NO:2F MERAM",
      "phone": "903323270600",
      "district": "Meram",
      "city": "Konya",
      "latitude": 37.8665252,
      "longitude": 32.4986131,
      "dutyStart": "2026-02-28T09:00:00.000Z",
      "dutyEnd": "2026-03-01T09:00:00.000Z"
    },
    {
      "id": "konya-6",
      "name": "ZEYNEP SENA ECZANESİ",
      "address": "HACIVEYİSZADE MAHALLESİ FARABİ SOKAK NO: 48D KARATAY",
      "phone": "903323128273",
      "district": "Karatay",
      "city": "Konya",
      "latitude": 37.876123,
      "longitude": 32.523024,
      "dutyStart": "2026-02-28T09:00:00.000Z",
      "dutyEnd": "2026-03-01T09:00:00.000Z"
    },
    {
      "id": "konya-7",
      "name": "NURCAN ECZANESİ",
      "address": "HÜSAMETTİN ÇELEBİ MAHALLESİ AKABE CADDESİ NO:17A SELÇUKLU",
      "phone": "903322462869",
      "district": "Selçuklu",
      "city": "Konya",
      "latitude": 37.9120306,
      "longitude": 32.4912757,
      "dutyStart": "2026-02-28T09:00:00.000Z",
      "dutyEnd": "2026-03-01T09:00:00.000Z"
    },
    {
      "id": "konya-8",
      "name": "MALAZGİRT ECZANESİ",
      "address": "MALAZGİRT MH. DEREBAŞI SK. NO:5B SELÇUKLU",
      "phone": "905072713490",
      "district": "Selçuklu",
      "city": "Konya",
      "latitude": 37.9283,
      "longitude": 32.49978,
      "dutyStart": "2026-02-28T09:00:00.000Z",
      "dutyEnd": "2026-03-01T09:00:00.000Z"
    },
    {
      "id": "konya-9",
      "name": "GÜLDEN ECZANESİ",
      "address": "YAZIR MAHALLESİ ŞEHİT ERKAN ÖZBALCI SOKAK NO:18A SELÇUKLU",
      "phone": "903322651510",
      "district": "Selçuklu",
      "city": "Konya",
      "latitude": 37.956916,
      "longitude": 32.5102055,
      "dutyStart": "2026-02-28T09:00:00.000Z",
      "dutyEnd": "2026-03-01T09:00:00.000Z"
    },
    {
      "id": "konya-10",
      "name": "KAMPÜS ECZANESİ",
      "address": "BOSNA HERSEK MAHALLESİ YENİ İSTANBUL CADDESİ FORUM KAMPÜS NO:248T SELÇUKLU",
      "phone": "903322474844",
      "district": "Selçuklu",
      "city": "Konya",
      "latitude": 38.0165151,
      "longitude": 32.5177233,
      "dutyStart": "2026-02-28T09:00:00.000Z",
      "dutyEnd": "2026-03-01T09:00:00.000Z"
    },
    {
      "id": "konya-11",
      "name": "HANDE UYARARSLAN ECZANESİ",
      "address": "YENİŞEHİR MAHALLESİ GAZZE CADDESİ NO:13M MERAM",
      "phone": "903323028898",
      "district": "Karatay",
      "city": "Konya",
      "latitude": 37.8545302,
      "longitude": 32.4715679,
      "dutyStart": "2026-02-28T09:00:00.000Z",
      "dutyEnd": "2026-03-01T09:00:00.000Z"
    },
    {
      "id": "konya-12",
      "name": "ÇAKILLAR ECZANESİ",
      "address": "İSTASYON MAHALLESİ 30489. SOKAK NO:4G",
      "phone": "903328256350",
      "district": "Akşehi̇r",
      "city": "Konya",
      "latitude": 38.3657472,
      "longitude": 31.4321004,
      "dutyStart": "2026-02-28T09:00:00.000Z",
      "dutyEnd": "2026-03-01T09:00:00.000Z"
    },
    {
      "id": "konya-13",
      "name": "ELMALI ECZANESİ",
      "address": "ÖLMEZ MAHALLESİ MİLLET CADDESİ NO:10A",
      "phone": "903326312089",
      "district": "Altineki̇n",
      "city": "Konya",
      "latitude": 38.3072096,
      "longitude": 32.8632408,
      "dutyStart": "2026-02-28T09:00:00.000Z",
      "dutyEnd": "2026-03-01T09:00:00.000Z"
    },
    {
      "id": "konya-14",
      "name": "HARMAN ECZANESİ",
      "address": "EVSAT MAHALLESİ ORHAN ÖZGÜR CADDESİ NO:25B",
      "phone": "903325120012",
      "district": "Beyşehi̇r",
      "city": "Konya",
      "latitude": 37.6772604,
      "longitude": 31.7258945,
      "dutyStart": "2026-02-28T09:00:00.000Z",
      "dutyEnd": "2026-03-01T09:00:00.000Z"
    },
    {
      "id": "konya-15",
      "name": "ATASEVEN ECZANESİ",
      "address": "YUKARI MAHALLE FEVZİ PAŞA CADDESİ NO:5A",
      "phone": "903324261297",
      "district": "Bozkir",
      "city": "Konya",
      "latitude": 37.1892336,
      "longitude": 32.2449391,
      "dutyStart": "2026-02-28T09:00:00.000Z",
      "dutyEnd": "2026-03-01T09:00:00.000Z"
    },
    {
      "id": "konya-16",
      "name": "BÜŞRA ECZANESİ",
      "address": "KÖPRÜBAŞI MAHALLESİ İNÖNÜ CADDESİ NO:65A-65B",
      "phone": "903326732526",
      "district": "Ci̇hanbeyli̇",
      "city": "Konya",
      "latitude": 38.6548364,
      "longitude": 32.92734,
      "dutyStart": "2026-02-28T09:00:00.000Z",
      "dutyEnd": "2026-03-01T09:00:00.000Z"
    },
    {
      "id": "konya-17",
      "name": "DİYDEM ECZANESİ",
      "address": "YENİCEOBA MAH. YENİCEOBA CAD. NO:61C",
      "phone": "903326761114",
      "district": "Ci̇hanbeyli̇",
      "city": "Konya",
      "latitude": 38.87074,
      "longitude": 32.79009,
      "dutyStart": "2026-02-28T09:00:00.000Z",
      "dutyEnd": "2026-03-01T09:00:00.000Z"
    },
    {
      "id": "konya-18",
      "name": "FİDAN ECZANESİ",
      "address": "SELÇUK MAHALLESİ MEVLANA CADDESİ NO: 14B",
      "phone": "903328712021",
      "district": "Çelti̇k",
      "city": "Konya",
      "latitude": 38.2842145,
      "longitude": 31.8945928,
      "dutyStart": "2026-02-28T09:00:00.000Z",
      "dutyEnd": "2026-03-01T09:00:00.000Z"
    },
    {
      "id": "konya-19",
      "name": "DEVA ECZANESİ",
      "address": "İZZETBEY MAHALLESİ GAZİ CADDESİ NO:13A",
      "phone": "903324472848",
      "district": "Çumra",
      "city": "Konya",
      "latitude": 37.5717043,
      "longitude": 32.7804202,
      "dutyStart": "2026-02-28T09:00:00.000Z",
      "dutyEnd": "2026-03-01T09:00:00.000Z"
    },
    {
      "id": "konya-20",
      "name": "HİSAR ECZANESİ",
      "address": "PAZAR MH. İSMET PAŞA CD. NO:71A",
      "phone": "903325561275",
      "district": "Doğanhi̇sar",
      "city": "Konya",
      "latitude": 38.14542,
      "longitude": 31.67704,
      "dutyStart": "2026-02-28T09:00:00.000Z",
      "dutyEnd": "2026-03-01T09:00:00.000Z"
    },
    {
      "id": "konya-21",
      "name": "ERDEN ECZANESİ",
      "address": "PİRÖMER NAHALLESİ ÜÇGÖZ CADDESİ TUVANA İŞ MERKEZİ NO:16B",
      "phone": "903327135001",
      "district": "Ereğli̇",
      "city": "Konya",
      "latitude": 37.511855,
      "longitude": 34.0474101,
      "dutyStart": "2026-02-28T09:00:00.000Z",
      "dutyEnd": "2026-03-01T09:00:00.000Z"
    },
    {
      "id": "konya-22",
      "name": "ERGÜL ECZANESİ",
      "address": "BAHÇELİEVLER MAHALLESİ 110214. SOKAK NO:10A",
      "phone": "903325124447",
      "district": "Hüyük",
      "city": "Konya",
      "latitude": 37.9527782,
      "longitude": 31.5979867,
      "dutyStart": "2026-02-28T09:00:00.000Z",
      "dutyEnd": "2026-03-01T09:00:00.000Z"
    },
    {
      "id": "konya-23",
      "name": "HACIÖMER ECZANESİ",
      "address": "CAMİİATİK MAHALLESİ MUHSİN YAZICIOĞLU CADDESİ HACI ÖMER İŞ MERKEZİ NO:68",
      "phone": "903328816171",
      "district": "Ilgin",
      "city": "Konya",
      "latitude": 38.2807551,
      "longitude": 31.9158625,
      "dutyStart": "2026-02-28T09:00:00.000Z",
      "dutyEnd": "2026-03-01T09:00:00.000Z"
    },
    {
      "id": "konya-24",
      "name": "GÜNEŞ ECZANESİ",
      "address": "TEPEBAŞI MAHALLESİ KONYA CADDESİ NO:26D",
      "phone": "903328343150",
      "district": "Kadinhani",
      "city": "Konya",
      "latitude": 38.2387666,
      "longitude": 32.2336928,
      "dutyStart": "2026-02-28T09:00:00.000Z",
      "dutyEnd": "2026-03-01T09:00:00.000Z"
    },
    {
      "id": "konya-25",
      "name": "BAŞAK ECZANESİ",
      "address": "HACI ÖMERLİ MAHALLESİ KONYA CADDESİ NO:21A",
      "phone": "903327551463",
      "district": "Karapinar",
      "city": "Konya",
      "latitude": 37.7148025,
      "longitude": 33.5447695,
      "dutyStart": "2026-02-28T09:00:00.000Z",
      "dutyEnd": "2026-03-01T09:00:00.000Z"
    },
    {
      "id": "konya-26",
      "name": "POLAT ECZANESİ",
      "address": "FATİH SULTAN MEHMET MAHALLESİ AHMET BARAN CADDESİ NO:5AA",
      "phone": "903326416264",
      "district": "Kulu",
      "city": "Konya",
      "latitude": 39.0888373,
      "longitude": 33.069878,
      "dutyStart": "2026-02-28T09:00:00.000Z",
      "dutyEnd": "2026-03-01T09:00:00.000Z"
    },
    {
      "id": "konya-27",
      "name": "ÖZŞAHİN ECZANESİ",
      "address": "DOĞU İSTASYON MAHALLESİ YALÇIN CADDESİ NO:12",
      "phone": "903326171175",
      "district": "Sarayönü",
      "city": "Konya",
      "latitude": 38.26076,
      "longitude": 32.40803,
      "dutyStart": "2026-02-28T09:00:00.000Z",
      "dutyEnd": "2026-03-01T09:00:00.000Z"
    },
    {
      "id": "konya-28",
      "name": "YAŞAM ECZANESİ",
      "address": "HACI SEYİT ALİ MAHALLESİ HÜRRİYET CADDESİ NO:23C",
      "phone": "903325823139",
      "district": "Seydi̇şehi̇r",
      "city": "Konya",
      "latitude": 37.4195927,
      "longitude": 31.8462982,
      "dutyStart": "2026-02-28T09:00:00.000Z",
      "dutyEnd": "2026-03-01T09:00:00.000Z"
    },
    {
      "id": "konya-29",
      "name": "TUZLUKÇU ECZANESİ",
      "address": "AŞAĞI MAHALLESİ AKŞEHİR CADDESİ NO:38",
      "phone": "903328612866",
      "district": "Tuzlukçu",
      "city": "Konya",
      "latitude": 38.4760048,
      "longitude": 31.6266913,
      "dutyStart": "2026-02-28T09:00:00.000Z",
      "dutyEnd": "2026-03-01T09:00:00.000Z"
    },
    {
      "id": "konya-30",
      "name": "KURTOĞLU ECZANESİ",
      "address": "YENİ MAHALLE BADEMLİK CADDESİ NO:6B",
      "phone": "903328512115",
      "district": "Yunak",
      "city": "Konya",
      "latitude": 38.8142305,
      "longitude": 31.7340919,
      "dutyStart": "2026-02-28T09:00:00.000Z",
      "dutyEnd": "2026-03-01T09:00:00.000Z"
    }
  ]
}