{
  "city": "sinop",
  "cityName": "Sinop",
  "cityId": 57,
  "date": "2026-02-26",
  "updatedAt": "2026-02-26T06:31:00.677Z",
  "count": 6,
  "pharmacies": [
    {
      "id": "sinop-19",
      "name": "İNCİ ECZANESİ",
      "address": "KORUCUK KÖYÜ TIRKIŞLAR MAH. NO:9/2-B",
      "phone": "03682715656",
      "district": "Merkez",
      "city": "Sinop",
      "latitude": 42.003249,
      "longitude": 35.078706,
      "dutyStart": "2026-02-26T08:30:00.000Z",
      "dutyEnd": "2026-02-27T08:30:00.000Z"
    },
    {
      "id": "sinop-20",
      "name": "ÖNCEL ECZANESİ",
      "address": "YALI MAH. ATATÜRK CAD. NO.21/B",
      "phone": "03686131395",
      "district": "Ayancık",
      "city": "Sinop",
      "latitude": 41.944097,
      "longitude": 34.588553,
      "dutyStart": "2026-02-26T08:30:00.000Z",
      "dutyEnd": "2026-02-27T08:30:00.000Z"
    },
    {
      "id": "sinop-21",
      "name": "DERMAN  ECZANESİ",
      "address": "ZİNCİRLİKUYU MAH.ECZANE CAD.NO:38/A",
      "phone": "03683151930",
      "district": "Boyabat",
      "city": "Sinop",
      "latitude": 41.465875,
      "longitude": 34.76867,
      "dutyStart": "2026-02-26T08:30:00.000Z",
      "dutyEnd": "2026-02-27T08:30:00.000Z"
    },
    {
      "id": "sinop-22",
      "name": "NAZLI ECZANESİ",
      "address": "MERKEZ MAH. PLEVNE CAD. NO:47/B",
      "phone": "03684161057",
      "district": "Durağan",
      "city": "Sinop",
      "latitude": 41.416371,
      "longitude": 35.058495,
      "dutyStart": "2026-02-26T08:30:00.000Z",
      "dutyEnd": "2026-02-27T08:30:00.000Z"
    },
    {
      "id": "sinop-23",
      "name": "ERFELEK ECZANESİ",
      "address": "CUMHURİYET MEYDANI NO:18",
      "phone": "03685112039",
      "district": "Erfelek",
      "city": "Sinop",
      "latitude": 41.879923,
      "longitude": 34.906679,
      "dutyStart": "2026-02-26T08:30:00.000Z",
      "dutyEnd": "2026-02-27T08:30:00.000Z"
    },
    {
      "id": "sinop-24",
      "name": "EKİN ECZANESİ",
      "address": "HAMİDİYE MAH. RECAİ KURUOĞLU BULVARI NO:39",
      "phone": "03687184837",
      "district": "Gerze",
      "city": "Sinop",
      "latitude": 41.807084,
      "longitude": 35.198167,
      "dutyStart": "2026-02-26T08:30:00.000Z",
      "dutyEnd": "2026-02-27T08:30:00.000Z"
    }
  ]
}