{
  "city": "antalya",
  "cityName": "Antalya",
  "cityId": 7,
  "date": "2026-02-28",
  "updatedAt": "2026-02-28T04:00:04.516Z",
  "count": 37,
  "pharmacies": [
    {
      "id": "antalya-0",
      "name": "YENİ YAPRAK ECZANESİ",
      "address": "",
      "phone": "02423340642",
      "district": "Muratpaşa",
      "city": "Antalya",
      "latitude": 36.894564307909604,
      "longitude": 30.684362164398888,
      "dutyStart": "2026-02-28T08:00:00.000Z",
      "dutyEnd": "2026-03-01T08:00:00.000Z"
    },
    {
      "id": "antalya-1",
      "name": "ELİZ ECZANESİ",
      "address": "YILDIZ MAH.ÇAKIRLAR CAD. NO:24/A MURATPAŞA (MEDSTAR HASTANESİ KARŞISI)",
      "phone": "02424109193",
      "district": "Antalya",
      "city": "Antalya",
      "latitude": 36.896995987921294,
      "longitude": 30.697839829309316,
      "dutyStart": "2026-02-28T08:00:00.000Z",
      "dutyEnd": "2026-03-01T08:00:00.000Z"
    },
    {
      "id": "antalya-2",
      "name": "NAİL ECZANESİ",
      "address": "ŞARAMPOL CAD.CONTİNENTAL KARŞISI TRAMVAY YOLU ÜZERİ MURATPAŞA/ANTALYA",
      "phone": "02423217778",
      "district": "Antalya",
      "city": "Antalya",
      "latitude": 36.897820807394496,
      "longitude": 30.734317302703857,
      "dutyStart": "2026-02-28T08:00:00.000Z",
      "dutyEnd": "2026-03-01T08:00:00.000Z"
    },
    {
      "id": "antalya-3",
      "name": "DOĞUGARAJI SAĞLIK ECZANESİ",
      "address": "DOĞUYAKA MAH. 1216 SOK. NO:5/B MURATPAŞA.TERMESOS MİGROS ARKASI. DOĞU YAKA SAĞLIK OCAĞI KARŞISI.",
      "phone": "02423215491",
      "district": "Antalya",
      "city": "Antalya",
      "latitude": 36.889615807746466,
      "longitude": 30.71091502904892,
      "dutyStart": "2026-02-28T08:00:00.000Z",
      "dutyEnd": "2026-03-01T08:00:00.000Z"
    },
    {
      "id": "antalya-4",
      "name": "HATİCE MERVE ECZANESİ",
      "address": "YÜKSEKALAN MAH. FAHRETTİN ALTAY CAD. 1. BENLİOĞLU İŞHANI NO:8/B MURATPAŞA DOĞU GARAJI START OTEL YANI",
      "phone": "02422300007",
      "district": "Antalya",
      "city": "Antalya",
      "latitude": 36.8682188532004,
      "longitude": 30.721968266027737,
      "dutyStart": "2026-02-28T08:00:00.000Z",
      "dutyEnd": "2026-03-01T08:00:00.000Z"
    },
    {
      "id": "antalya-5",
      "name": "BAHÇELİEVLER ECZANESİ",
      "address": "YEŞİLBAHÇE MAHALLESİ.METİN KASAPOĞLU CADDESİ.MANCARLAR APT.NO:40/B MURATPAŞA(VARİSSON RADYOLOJİ YANI)",
      "phone": "02423160737",
      "district": "Antalya",
      "city": "Antalya",
      "latitude": 36.853357,
      "longitude": 30.751075,
      "dutyStart": "2026-02-28T08:00:00.000Z",
      "dutyEnd": "2026-03-01T08:00:00.000Z"
    },
    {
      "id": "antalya-6",
      "name": "ECE ECZANESİ",
      "address": "FENER MAH. TEKELİOĞLU CAD. NO 35/D MURATPAŞA/ANTALYA",
      "phone": "02423491122",
      "district": "Antalya",
      "city": "Antalya",
      "latitude": 36.85656136123156,
      "longitude": 30.789785887008176,
      "dutyStart": "2026-02-28T08:00:00.000Z",
      "dutyEnd": "2026-03-01T08:00:00.000Z"
    },
    {
      "id": "antalya-7",
      "name": "CERENSU ECZANESİ",
      "address": "GÜZELOBA MAH. 2118 SOK.ZEHRA HANIM APT GÜZELOBA PTT KARŞISINDAKİ ARÇELİKDEN ARA SOKAĞA GİRİNCE 100 MT.SONRA SAĞDA",
      "phone": "02423353560",
      "district": "Kepez",
      "city": "Antalya",
      "latitude": 36.91763105129216,
      "longitude": 30.674672449852512,
      "dutyStart": "2026-02-28T08:00:00.000Z",
      "dutyEnd": "2026-03-01T08:00:00.000Z"
    },
    {
      "id": "antalya-8",
      "name": "YURTPINAR UĞUR ECZANESİ",
      "address": "KANAL MAH.NAMIK KEMAL CAD.5.ÜNAL APT. NO:136/A KEPEZ VİTALE HASTANESİ ANTALYA TÜP BEBEK MERKEZİ YANI",
      "phone": "02423393344",
      "district": "Antalya",
      "city": "Antalya",
      "latitude": 36.91381667,
      "longitude": 30.71953333,
      "dutyStart": "2026-02-28T08:00:00.000Z",
      "dutyEnd": "2026-03-01T08:00:00.000Z"
    },
    {
      "id": "antalya-9",
      "name": "ŞEHİR ECZANESİ",
      "address": "GAZI BULV. TEOMANPASA MAH.SEMA YAZAR DEVLET HAST.YANI",
      "phone": "05402771700",
      "district": "Antalya",
      "city": "Antalya",
      "latitude": 36.95403616658656,
      "longitude": 30.664886981248856,
      "dutyStart": "2026-02-28T08:00:00.000Z",
      "dutyEnd": "2026-03-01T08:00:00.000Z"
    },
    {
      "id": "antalya-10",
      "name": "YİĞİTBAŞI ECZANESİ",
      "address": "GÖÇERLER MAH. 5383 SOK. A4 BLOK NO:2A KEPEZ/ANTALYA ŞEHİR HASTANESİ KARŞISI",
      "phone": "02423611412",
      "district": "Antalya",
      "city": "Antalya",
      "latitude": 36.9391940437,
      "longitude": 30.7238368649,
      "dutyStart": "2026-02-28T08:00:00.000Z",
      "dutyEnd": "2026-03-01T08:00:00.000Z"
    },
    {
      "id": "antalya-11",
      "name": "DEMİR ECZANESİ",
      "address": "SÜTÇÜLER CAD. DÜDEN SELALESI YOLU ÜZERI 11 NOLU ZEHRA KOZ SAGLIK OCAGI YANI",
      "phone": "02422216362",
      "district": "Antalya",
      "city": "Antalya",
      "latitude": 36.9240494361257,
      "longitude": 30.637457370758057,
      "dutyStart": "2026-02-28T08:00:00.000Z",
      "dutyEnd": "2026-03-01T08:00:00.000Z"
    },
    {
      "id": "antalya-12",
      "name": "GÜZEL ECZANESİ",
      "address": "AKDENİZ SANAYİ SİTESİ .CAMİ ARKASI AİLE HEKİMLİĞİ KARŞISI.ŞAFAK MAH. 5030 SOK.NO:14 KEPEZ",
      "phone": "02422595053",
      "district": "Antalya",
      "city": "Antalya",
      "latitude": 36.8592658644,
      "longitude": 30.6051868768,
      "dutyStart": "2026-02-28T08:00:00.000Z",
      "dutyEnd": "2026-03-01T08:00:00.000Z"
    },
    {
      "id": "antalya-13",
      "name": "ALİN ECZANESİ",
      "address": "HURMA MAH. BOGAÇAY CAD. NO:87/A-B (ESKI SEMAZEN) URFA SULTAN SOFRASI KARSISI",
      "phone": "02422283003",
      "district": "Antalya",
      "city": "Antalya",
      "latitude": 36.868845173674224,
      "longitude": 30.630022287368774,
      "dutyStart": "2026-02-28T08:00:00.000Z",
      "dutyEnd": "2026-03-01T08:00:00.000Z"
    },
    {
      "id": "antalya-14",
      "name": "YEŞİLBAYIR ECZANESİ",
      "address": "GÜRSU MAH. GAZİ MUSTAFA KEMAL BULV.NO:53/A KONYAALTI",
      "phone": "02424431560",
      "district": "Antalya",
      "city": "Antalya",
      "latitude": 36.9825895474,
      "longitude": 30.6063664716,
      "dutyStart": "2026-02-28T08:00:00.000Z",
      "dutyEnd": "2026-03-01T08:00:00.000Z"
    },
    {
      "id": "antalya-15",
      "name": "AURA ECZANESİ",
      "address": "HÜRRIYET MH.CUMHURIYET CD.HASANAKALIN SAGLIK OCAGI KRS",
      "phone": "02425031800",
      "district": "Aksu",
      "city": "Antalya",
      "latitude": 36.89438661659791,
      "longitude": 30.827557600266434,
      "dutyStart": "2026-02-28T08:00:00.000Z",
      "dutyEnd": "2026-03-01T08:00:00.000Z"
    },
    {
      "id": "antalya-16",
      "name": "BİLGE ECZANESİ",
      "address": "ALTINTAŞ MAH. 3110 CAD. B BLOK NO:20 /1C AKSU ANTALYA",
      "phone": "02425127544",
      "district": "Alanya",
      "city": "Antalya",
      "latitude": 36.54711935485395,
      "longitude": 31.993917524814606,
      "dutyStart": "2026-02-28T08:00:00.000Z",
      "dutyEnd": "2026-03-01T08:00:00.000Z"
    },
    {
      "id": "antalya-17",
      "name": "ÖZNUR ECZANESİ",
      "address": "SARAY MAH. BAŞKENT HASTANESİ YANI NO:15 ALANYA",
      "phone": "02425222627",
      "district": "Antalya",
      "city": "Antalya",
      "latitude": 36.55511330491561,
      "longitude": 31.990588100553197,
      "dutyStart": "2026-02-28T08:00:00.000Z",
      "dutyEnd": "2026-03-01T08:00:00.000Z"
    },
    {
      "id": "antalya-18",
      "name": "AYDOĞAN ECZANESİ",
      "address": "KADIPAŞA MH. STAD CAD. NO:76/A ALANYA/ANTALYA",
      "phone": "02425133626",
      "district": "Antalya",
      "city": "Antalya",
      "latitude": 36.533588185858065,
      "longitude": 32.046968936920166,
      "dutyStart": "2026-02-28T08:00:00.000Z",
      "dutyEnd": "2026-03-01T08:00:00.000Z"
    },
    {
      "id": "antalya-19",
      "name": "OĞUZHAN ÖZER ECZANESİ",
      "address": "OBA MAH. OBA BAŞKENT HAST. SEMT POLİKLİNİĞİ KARŞISI GÖÇMENTÜRK YANI",
      "phone": "02425284614",
      "district": "Antalya",
      "city": "Antalya",
      "latitude": 36.49526828130905,
      "longitude": 32.09298491477966,
      "dutyStart": "2026-02-28T08:00:00.000Z",
      "dutyEnd": "2026-03-01T08:00:00.000Z"
    },
    {
      "id": "antalya-20",
      "name": "ÖRS ECZANESİ",
      "address": "MAHMUTLAR MAH.VATAN CAD.12/D ALANYA",
      "phone": "02425651172",
      "district": "Manavgat",
      "city": "Antalya",
      "latitude": 36.78637637704974,
      "longitude": 31.45012378692627,
      "dutyStart": "2026-02-28T08:00:00.000Z",
      "dutyEnd": "2026-03-01T08:00:00.000Z"
    },
    {
      "id": "antalya-21",
      "name": "ÇAMLIK ECZANESİ",
      "address": "ASAGI PAZAR MAH. ATATÜRK CAD. 1092. SOK. NO:16 MANAVGAT",
      "phone": "02427432897",
      "district": "Antalya",
      "city": "Antalya",
      "latitude": 37.06814346182007,
      "longitude": 30.199280977249146,
      "dutyStart": "2026-02-28T08:00:00.000Z",
      "dutyEnd": "2026-03-01T08:00:00.000Z"
    },
    {
      "id": "antalya-22",
      "name": "DEMİRÖZ ECZANESİ",
      "address": "KIREMITLI MAH.M.AKIF ERSOY CAD.20/B",
      "phone": "02426184834",
      "district": "Antalya",
      "city": "Antalya",
      "latitude": 36.73837328808137,
      "longitude": 29.918716610773117,
      "dutyStart": "2026-02-28T08:00:00.000Z",
      "dutyEnd": "2026-03-01T08:00:00.000Z"
    },
    {
      "id": "antalya-23",
      "name": "HAYAT ECZANESİ",
      "address": "GÜNDOGAN MAH. DEMIREL BULV. NO:105",
      "phone": "02428364094",
      "district": "Kaş",
      "city": "Antalya",
      "latitude": 36.20170474081099,
      "longitude": 29.638798534870148,
      "dutyStart": "2026-02-28T08:00:00.000Z",
      "dutyEnd": "2026-03-01T08:00:00.000Z"
    },
    {
      "id": "antalya-24",
      "name": "DOĞA ECZANESİ",
      "address": "MERKEZ MH.ÇUKUKURBAGLILAR CD.YILMAZLAR APT. 54/A",
      "phone": "02428441138",
      "district": "Antalya",
      "city": "Antalya",
      "latitude": 36.2666521677,
      "longitude": 29.4135029171,
      "dutyStart": "2026-02-28T08:00:00.000Z",
      "dutyEnd": "2026-03-01T08:00:00.000Z"
    },
    {
      "id": "antalya-25",
      "name": "KAVUKLU (VERESELİ) ECZANESİ",
      "address": "MENTESE MH. SEHITLER CD. NO:35 KALKAN",
      "phone": "02428418484",
      "district": "Antalya",
      "city": "Antalya",
      "latitude": 36.31259873766676,
      "longitude": 29.32088024594725,
      "dutyStart": "2026-02-28T08:00:00.000Z",
      "dutyEnd": "2026-03-01T08:00:00.000Z"
    },
    {
      "id": "antalya-26",
      "name": "ÇETİNKAYA ECZANESİ",
      "address": "OVA MAH. ATATÜRK BUL. NO:4 KAŞ",
      "phone": "02428715856",
      "district": "Antalya",
      "city": "Antalya",
      "latitude": 36.24479493,
      "longitude": 29.9871305212,
      "dutyStart": "2026-02-28T08:00:00.000Z",
      "dutyEnd": "2026-03-01T08:00:00.000Z"
    },
    {
      "id": "antalya-27",
      "name": "DEMET ECZANESİ",
      "address": "GÖKYAZI MAH. NOEL BABA CAD.ÇNO:23/B DEMRE",
      "phone": "02428553606",
      "district": "Antalya",
      "city": "Antalya",
      "latitude": 36.30521735324553,
      "longitude": 30.14374852180481,
      "dutyStart": "2026-02-28T08:00:00.000Z",
      "dutyEnd": "2026-03-01T08:00:00.000Z"
    },
    {
      "id": "antalya-28",
      "name": "YAZAR ECZANESİ",
      "address": "YENI MH. 520 SK. KARDELEN AP. 1/C",
      "phone": "02428521543",
      "district": "Antalya",
      "city": "Antalya",
      "latitude": 36.35115800026078,
      "longitude": 30.13111573875705,
      "dutyStart": "2026-02-28T08:00:00.000Z",
      "dutyEnd": "2026-03-01T08:00:00.000Z"
    },
    {
      "id": "antalya-29",
      "name": "EMRE ECZANESİ",
      "address": "**(GECE SAAT 23.59'A KADAR AÇIK)**",
      "phone": "05303680780",
      "district": "Antalya",
      "city": "Antalya",
      "latitude": 36.33840391978616,
      "longitude": 30.213528624479277,
      "dutyStart": "2026-02-28T08:00:00.000Z",
      "dutyEnd": "2026-03-01T08:00:00.000Z"
    },
    {
      "id": "antalya-30",
      "name": "DEVA ECZANESİ",
      "address": "**(GECE SAAT 23.59'A KADAR AÇIK)**",
      "phone": "02428878388",
      "district": "Kumluca",
      "city": "Antalya",
      "latitude": 36.365939548,
      "longitude": 30.2897743882,
      "dutyStart": "2026-02-28T08:00:00.000Z",
      "dutyEnd": "2026-03-01T08:00:00.000Z"
    },
    {
      "id": "antalya-31",
      "name": "BEREN ELİS ECZANESİ",
      "address": "NARENCIYE MAH. ADNAN MENDERES BULVARI NO:5/C",
      "phone": "02428144650",
      "district": "Kemer",
      "city": "Antalya",
      "latitude": 36.602942529684555,
      "longitude": 30.56228292266871,
      "dutyStart": "2026-02-28T08:00:00.000Z",
      "dutyEnd": "2026-03-01T08:00:00.000Z"
    },
    {
      "id": "antalya-32",
      "name": "YİĞİTER ECZANESİ",
      "address": "MERKEZ MAH. ŞEHİT PİYADE ER İSMET SEVİNÇ CAD. NO:16/1 KEMER",
      "phone": "05325742259",
      "district": "Antalya",
      "city": "Antalya",
      "latitude": 36.91532197380444,
      "longitude": 31.088516626693732,
      "dutyStart": "2026-02-28T08:00:00.000Z",
      "dutyEnd": "2026-03-01T08:00:00.000Z"
    },
    {
      "id": "antalya-33",
      "name": "MECEK ECZANESİ",
      "address": "SERİK İLÇESİ ORTA MAH. 1008 SOK. NO:2/A KIZ MESLEK LİSESİ KARŞISI SERİK",
      "phone": "02427153400",
      "district": "Antalya",
      "city": "Antalya",
      "latitude": 36.86150190424264,
      "longitude": 31.057434305548668,
      "dutyStart": "2026-02-28T08:00:00.000Z",
      "dutyEnd": "2026-03-01T08:00:00.000Z"
    },
    {
      "id": "antalya-34",
      "name": "TUNCER ECZANESİ",
      "address": "*(GECE SAAT 02:00'A KADAR AÇIK)*",
      "phone": "02425721119",
      "district": "Antalya",
      "city": "Antalya",
      "latitude": 36.2688733413,
      "longitude": 32.3175479908,
      "dutyStart": "2026-02-28T08:00:00.000Z",
      "dutyEnd": "2026-03-01T08:00:00.000Z"
    },
    {
      "id": "antalya-35",
      "name": "MURTİÇİ ECZANESİ",
      "address": "RASIH KAPLAN CAD. ÖZÇELIK ISH NO:8/A",
      "phone": "02426781300",
      "district": "Akseki",
      "city": "Antalya",
      "latitude": 37.042264199329665,
      "longitude": 31.786279678344727,
      "dutyStart": "2026-02-28T08:00:00.000Z",
      "dutyEnd": "2026-03-01T08:00:00.000Z"
    },
    {
      "id": "antalya-36",
      "name": "0 242 311 03 29",
      "address": "HACI ILYAS MAH. ATATÜRK CAD. BAGKUR EVLERI I-BLOK NO.58/A",
      "phone": "02423110329",
      "district": "Antalya",
      "city": "Antalya",
      "latitude": 36.876696,
      "longitude": 30.735134,
      "dutyStart": "2026-02-28T08:00:00.000Z",
      "dutyEnd": "2026-03-01T08:00:00.000Z"
    }
  ]
}