{
  "city": "izmir",
  "cityName": "İzmir",
  "cityId": 35,
  "date": "2026-02-28",
  "updatedAt": "2026-02-28T16:30:03.636Z",
  "count": 73,
  "pharmacies": [
    {
      "id": "izmir-0-4",
      "name": "ECZANE EVREN ECZANESİ",
      "address": "SERİNTEPE MH. 4321 SK. NO:2/C",
      "phone": "02324691762",
      "district": "ALTINDAĞ",
      "city": "İzmir",
      "latitude": 38.422834,
      "longitude": 27.19537,
      "dutyStart": "2026-02-28T08:00:00.000Z",
      "dutyEnd": "2026-03-01T08:00:00.000Z"
    },
    {
      "id": "izmir-1-6",
      "name": "EGENUR ECZANESİ",
      "address": "FEVZİ ÇAKMAK MAH. ATA CAD. NO:152/A",
      "phone": "02322789581",
      "district": "BALÇOVA",
      "city": "İzmir",
      "latitude": 38.386703,
      "longitude": 27.058598,
      "dutyStart": "2026-02-28T08:00:00.000Z",
      "dutyEnd": "2026-03-01T08:00:00.000Z"
    },
    {
      "id": "izmir-2-7",
      "name": "AKÇABAY ECZANESİ",
      "address": "BASIN SİTESİ MAH. POLAT CAD. NO:90",
      "phone": "02329991281",
      "district": "BASIN SİTESİ",
      "city": "İzmir",
      "latitude": 38.396863,
      "longitude": 27.106148,
      "dutyStart": "2026-02-28T08:00:00.000Z",
      "dutyEnd": "2026-03-01T08:00:00.000Z"
    },
    {
      "id": "izmir-3-9",
      "name": "MURAT ECZANESİ",
      "address": "1620/1 SOK.NO:32/A ALPASLAN MAH. BAYRAKLI",
      "phone": "02323452069",
      "district": "BAYRAKLI",
      "city": "İzmir",
      "latitude": 38.46969,
      "longitude": 27.166626,
      "dutyStart": "2026-02-28T08:00:00.000Z",
      "dutyEnd": "2026-03-01T08:00:00.000Z"
    },
    {
      "id": "izmir-4-10",
      "name": "ÖZ  ECZANESİ",
      "address": "ERGENE MAH. 458 SOK. B BLOK NO:11B",
      "phone": "02327309214",
      "district": "BORNOVA 1",
      "city": "İzmir",
      "latitude": 38.468548,
      "longitude": 27.218936,
      "dutyStart": "2026-02-28T08:00:00.000Z",
      "dutyEnd": "2026-03-01T08:00:00.000Z"
    },
    {
      "id": "izmir-5-11",
      "name": "BORNOVA ORDU ECZANESİ",
      "address": "KAZIM DİRİK MAH. FATİH SULTAN MEHMET CAD. NO:3/A",
      "phone": "02323737449",
      "district": "BORNOVA 2",
      "city": "İzmir",
      "latitude": 38.464071,
      "longitude": 27.206464,
      "dutyStart": "2026-02-28T08:00:00.000Z",
      "dutyEnd": "2026-03-01T08:00:00.000Z"
    },
    {
      "id": "izmir-6-12",
      "name": "METİN ECZANESİ",
      "address": "MANAVKUYU MH. 234 SOK NO 6/D BAYRAKLI",
      "phone": "02323738771",
      "district": "BORNOVA 3",
      "city": "İzmir",
      "latitude": 38.461542,
      "longitude": 27.20164,
      "dutyStart": "2026-02-28T08:00:00.000Z",
      "dutyEnd": "2026-03-01T08:00:00.000Z"
    },
    {
      "id": "izmir-7-12",
      "name": "BELGİN ÖZTÜRK ECZANESİ",
      "address": "İNÖNÜ MAH. TURGUT REİS CAD. NO:61/A",
      "phone": "02323393920",
      "district": "BORNOVA 3",
      "city": "İzmir",
      "latitude": 38.483805,
      "longitude": 27.209671,
      "dutyStart": "2026-02-28T08:00:00.000Z",
      "dutyEnd": "2026-03-01T08:00:00.000Z"
    },
    {
      "id": "izmir-8-14",
      "name": "KALENDER ECZANESİ",
      "address": "BOZYAKA MAH. ESKİİZMİR CAD. NO:227",
      "phone": "02322625932",
      "district": "BOZYAKA",
      "city": "İzmir",
      "latitude": 38.390472,
      "longitude": 27.123196,
      "dutyStart": "2026-02-28T08:00:00.000Z",
      "dutyEnd": "2026-03-01T08:00:00.000Z"
    },
    {
      "id": "izmir-9-15",
      "name": "SERHAN  ECZANESİ",
      "address": "MENDERES MH.SEYFİ DEMİRSOY CD.NO:19/A ",
      "phone": "02324480238",
      "district": "BUCA 1",
      "city": "İzmir",
      "latitude": 38.392417,
      "longitude": 27.166258,
      "dutyStart": "2026-02-28T08:00:00.000Z",
      "dutyEnd": "2026-03-01T08:00:00.000Z"
    },
    {
      "id": "izmir-10-16",
      "name": "PROTEİN ECZANESİ",
      "address": "KAZIM DİRİK MH. 408 SK. NO:1",
      "phone": "02324616538",
      "district": "ÇAMDİBİ",
      "city": "İzmir",
      "latitude": 38.445591,
      "longitude": 27.181342,
      "dutyStart": "2026-02-28T08:00:00.000Z",
      "dutyEnd": "2026-03-01T08:00:00.000Z"
    },
    {
      "id": "izmir-11-17",
      "name": "GÜLGEZE ECZANESİ",
      "address": "ISTASYON ALTI MAH. 8010 SOK. NO: 6/F",
      "phone": "02323861515",
      "district": "ÇİĞLİ",
      "city": "İzmir",
      "latitude": 38.492132,
      "longitude": 27.061392,
      "dutyStart": "2026-02-28T08:00:00.000Z",
      "dutyEnd": "2026-03-01T08:00:00.000Z"
    },
    {
      "id": "izmir-12-17",
      "name": "YENİ MAHALLE ECZANESİ",
      "address": "8034 SK. NO:51/A",
      "phone": "02323766377",
      "district": "ÇİĞLİ",
      "city": "İzmir",
      "latitude": 38.495988,
      "longitude": 27.055858,
      "dutyStart": "2026-02-28T08:00:00.000Z",
      "dutyEnd": "2026-03-01T08:00:00.000Z"
    },
    {
      "id": "izmir-13-17",
      "name": "EYLÜL ECZANESİ",
      "address": "8809 SK. NO:141 P.19 EVKA 5",
      "phone": "02323841474",
      "district": "ÇİĞLİ",
      "city": "İzmir",
      "latitude": 38.518175,
      "longitude": 27.055593,
      "dutyStart": "2026-02-28T08:00:00.000Z",
      "dutyEnd": "2026-03-01T08:00:00.000Z"
    },
    {
      "id": "izmir-14-19",
      "name": "ALAÇATI   ECZANESİ",
      "address": "ALAÇATI MAH. 11003 SOK. NO:4/A",
      "phone": "02327167778",
      "district": "ÇEŞME",
      "city": "İzmir",
      "latitude": 38.283391,
      "longitude": 26.37522,
      "dutyStart": "2026-02-28T08:00:00.000Z",
      "dutyEnd": "2026-03-01T08:00:00.000Z"
    },
    {
      "id": "izmir-15-19",
      "name": "ATASOY ECZANESİ",
      "address": "İSMET İNÖNÜ MAH. 2001 SOK. NO:84/B",
      "phone": "02327121258",
      "district": "ÇEŞME",
      "city": "İzmir",
      "latitude": 38.325753,
      "longitude": 26.307831,
      "dutyStart": "2026-02-28T08:00:00.000Z",
      "dutyEnd": "2026-03-01T08:00:00.000Z"
    },
    {
      "id": "izmir-16-20",
      "name": "NİHAN ECZANESİ",
      "address": "GÜNEŞLİ MAH. 529/1 SOK. NO:20",
      "phone": "02322560637",
      "district": "EŞREFPAŞA ",
      "city": "İzmir",
      "latitude": 38.401687,
      "longitude": 27.126292,
      "dutyStart": "2026-02-28T08:00:00.000Z",
      "dutyEnd": "2026-03-01T08:00:00.000Z"
    },
    {
      "id": "izmir-17-22",
      "name": "GAZI ECZANESİ",
      "address": "ATIFBEY MAH. ÖNDER CD.28/E",
      "phone": "02322517088",
      "district": "GAZİEMİR",
      "city": "İzmir",
      "latitude": 38.322407,
      "longitude": 27.12951,
      "dutyStart": "2026-02-28T08:00:00.000Z",
      "dutyEnd": "2026-03-01T08:00:00.000Z"
    },
    {
      "id": "izmir-18-23",
      "name": "SENER ECZANESİ",
      "address": "649/7 SK. NO:30 GÖKSU MAH.",
      "phone": "02322752773",
      "district": "GEDİZ",
      "city": "İzmir",
      "latitude": 38.36825,
      "longitude": 27.14304,
      "dutyStart": "2026-02-28T08:00:00.000Z",
      "dutyEnd": "2026-03-01T08:00:00.000Z"
    },
    {
      "id": "izmir-19-25",
      "name": "IRMAK ECZANESİ",
      "address": "ZEYBEK MAH. 2388 SOK. NO:4/A",
      "phone": "02324578080",
      "district": "GÜLTEPE",
      "city": "İzmir",
      "latitude": 38.415934,
      "longitude": 27.172843,
      "dutyStart": "2026-02-28T08:00:00.000Z",
      "dutyEnd": "2026-03-01T08:00:00.000Z"
    },
    {
      "id": "izmir-20-26",
      "name": "ANIT ECZANESİ",
      "address": "ORG. NAFİZ GÜRMAN MAH. ATATÜRK CAD. NO:270/B",
      "phone": "02323631445",
      "district": "GÜMÜŞPALA",
      "city": "İzmir",
      "latitude": 38.477822,
      "longitude": 27.140901,
      "dutyStart": "2026-02-28T08:00:00.000Z",
      "dutyEnd": "2026-03-01T08:00:00.000Z"
    },
    {
      "id": "izmir-21-28",
      "name": "GÜZELBAHÇE SAGLIK ECZANESİ",
      "address": "YALI MAH. MITHATPASA CAD.NO:126/B GÜZELBAHÇE/IZMIR",
      "phone": "02322341713",
      "district": "GÜZELBAHÇE",
      "city": "İzmir",
      "latitude": 38.37792,
      "longitude": 26.890067,
      "dutyStart": "2026-02-28T08:00:00.000Z",
      "dutyEnd": "2026-03-01T08:00:00.000Z"
    },
    {
      "id": "izmir-22-31",
      "name": "AİLE ECZANESİ",
      "address": "KORUTÜRK MAH. MİTHATPAŞA CAD. NO:285/1A",
      "phone": "02322590208",
      "district": "İNCİRALTI",
      "city": "İzmir",
      "latitude": 38.39303,
      "longitude": 27.033796,
      "dutyStart": "2026-02-28T08:00:00.000Z",
      "dutyEnd": "2026-03-01T08:00:00.000Z"
    },
    {
      "id": "izmir-23-32",
      "name": "PORTAKAL ECZANESİ",
      "address": "GÜNALTAY MAH. 4811 SOK. NO:29",
      "phone": "02322106070",
      "district": "KARABAĞLAR",
      "city": "İzmir",
      "latitude": 38.375949,
      "longitude": 27.118549,
      "dutyStart": "2026-02-28T08:00:00.000Z",
      "dutyEnd": "2026-03-01T08:00:00.000Z"
    },
    {
      "id": "izmir-24-37",
      "name": "BAYRAM ECZANESİ",
      "address": "ÇAMTEPE MAH. MİTHATPAŞA CAD. NO:241/A",
      "phone": "02322394939",
      "district": "NARLIDERE",
      "city": "İzmir",
      "latitude": 38.394069,
      "longitude": 27.010639,
      "dutyStart": "2026-02-28T08:00:00.000Z",
      "dutyEnd": "2026-03-01T08:00:00.000Z"
    },
    {
      "id": "izmir-25-39",
      "name": "SIMA ECZANESİ",
      "address": "GÜRPINAR MH. 56/2 SK. NO:48/A",
      "phone": "02324795435",
      "district": "PINARBAŞI",
      "city": "İzmir",
      "latitude": 38.42899,
      "longitude": 27.274421,
      "dutyStart": "2026-02-28T08:00:00.000Z",
      "dutyEnd": "2026-03-01T08:00:00.000Z"
    },
    {
      "id": "izmir-26-42",
      "name": "PETUNYA ECZANESİ",
      "address": "ARAP HASAN MAH. 235 SOK. NO:116/A",
      "phone": "02322507182",
      "district": "ÜÇYOL",
      "city": "İzmir",
      "latitude": 38.401531,
      "longitude": 27.113293,
      "dutyStart": "2026-02-28T08:00:00.000Z",
      "dutyEnd": "2026-03-01T08:00:00.000Z"
    },
    {
      "id": "izmir-27-43",
      "name": "ÇARE ECZANESİ",
      "address": "GAZİLER CD. NO:406/A",
      "phone": "02324696419",
      "district": "YENİŞEHİR",
      "city": "İzmir",
      "latitude": 38.423229,
      "longitude": 27.161144,
      "dutyStart": "2026-02-28T08:00:00.000Z",
      "dutyEnd": "2026-03-01T08:00:00.000Z"
    },
    {
      "id": "izmir-28-44",
      "name": "İLKAY ECZANESİ",
      "address": "ALİ FUAT CEBESOY MAH. 9500 SOK. NO:5/B YEŞİLYURT",
      "phone": "02322260222",
      "district": "YEŞİLYURT",
      "city": "İzmir",
      "latitude": 38.383549,
      "longitude": 27.10974,
      "dutyStart": "2026-02-28T08:00:00.000Z",
      "dutyEnd": "2026-03-01T08:00:00.000Z"
    },
    {
      "id": "izmir-29-45",
      "name": "KERVAN ECZANESİ",
      "address": "ÇAMLIK MAH. 850 SOK. NO:29/B",
      "phone": "02324876626",
      "district": "EVKA 1",
      "city": "İzmir",
      "latitude": 38.402186,
      "longitude": 27.159691,
      "dutyStart": "2026-02-28T08:00:00.000Z",
      "dutyEnd": "2026-03-01T08:00:00.000Z"
    },
    {
      "id": "izmir-30-46",
      "name": "SERTAÇ ECZANESİ",
      "address": "ÇAMLIKULE MH. 220/57 SK. NO:2/A",
      "phone": "02324532867",
      "district": "BUCA 2",
      "city": "İzmir",
      "latitude": 38.366802,
      "longitude": 27.168809,
      "dutyStart": "2026-02-28T08:00:00.000Z",
      "dutyEnd": "2026-03-01T08:00:00.000Z"
    },
    {
      "id": "izmir-31-48",
      "name": "ÖZGÜR  ECZANESİ",
      "address": "ATATÜRK MH. 1045/1 SK. NO:5/1A",
      "phone": "02322811839",
      "district": "SARNIÇ",
      "city": "İzmir",
      "latitude": 38.29411,
      "longitude": 27.174643,
      "dutyStart": "2026-02-28T08:00:00.000Z",
      "dutyEnd": "2026-03-01T08:00:00.000Z"
    },
    {
      "id": "izmir-32-50",
      "name": "HAZAL ALKAN ECZANESİ",
      "address": "MENDERES CAD. NO:145/C",
      "phone": "02324873246",
      "district": "ŞİRİNYER",
      "city": "İzmir",
      "latitude": 38.39073,
      "longitude": 27.159443,
      "dutyStart": "2026-02-28T08:00:00.000Z",
      "dutyEnd": "2026-03-01T08:00:00.000Z"
    },
    {
      "id": "izmir-33-51",
      "name": "İREM ECZANESİ",
      "address": "ATATÜRK MAH. GÜNEŞ SOK. NO:6/B",
      "phone": "02326162699",
      "district": "ALİAĞA",
      "city": "İzmir",
      "latitude": 38.793653,
      "longitude": 26.971066,
      "dutyStart": "2026-02-28T08:00:00.000Z",
      "dutyEnd": "2026-03-01T08:00:00.000Z"
    },
    {
      "id": "izmir-34-52",
      "name": "ARTI ECZANESİ",
      "address": "INÖNÜ MAH. 129 SOKAK. NO:6/A",
      "phone": "02328548088",
      "district": "AYRANCILAR",
      "city": "İzmir",
      "latitude": 38.237697,
      "longitude": 27.279912,
      "dutyStart": "2026-02-28T08:00:00.000Z",
      "dutyEnd": "2026-03-01T08:00:00.000Z"
    },
    {
      "id": "izmir-35-53",
      "name": "SAĞLIK ECZANESİ",
      "address": "MİTHATPAŞA MAH. HASTANE CAD. NO:24/A",
      "phone": "02325813113",
      "district": "BAYINDIR",
      "city": "İzmir",
      "latitude": 38.221163,
      "longitude": 27.649522,
      "dutyStart": "2026-02-28T08:00:00.000Z",
      "dutyEnd": "2026-03-01T08:00:00.000Z"
    },
    {
      "id": "izmir-36-54",
      "name": "EMNİYET ECZANESİ",
      "address": "BARBAROS MAH. BANKALAR CAD. NO:3",
      "phone": "02326331573",
      "district": "BERGAMA",
      "city": "İzmir",
      "latitude": 39.11949,
      "longitude": 27.178467,
      "dutyStart": "2026-02-28T08:00:00.000Z",
      "dutyEnd": "2026-03-01T08:00:00.000Z"
    },
    {
      "id": "izmir-37-55",
      "name": "İNCİR ECZANESİ",
      "address": "ATATÜRK MAH. YUSUF DOĞAN CAD. NO:21",
      "phone": "02325929810",
      "district": "BEYDAĞ",
      "city": "İzmir",
      "latitude": 38.085168,
      "longitude": 28.209352,
      "dutyStart": "2026-02-28T08:00:00.000Z",
      "dutyEnd": "2026-03-01T08:00:00.000Z"
    },
    {
      "id": "izmir-38-58",
      "name": "YENI BALCI ECZANESİ",
      "address": "KEMALPASA MAH.HÜKÜMET CD.NO:7",
      "phone": "02327824093",
      "district": "MENDERES",
      "city": "İzmir",
      "latitude": 38.251786,
      "longitude": 27.133449,
      "dutyStart": "2026-02-28T08:00:00.000Z",
      "dutyEnd": "2026-03-01T08:00:00.000Z"
    },
    {
      "id": "izmir-39-61",
      "name": "BIRSEN ECZANESİ",
      "address": "ISMET PASA MAH S.SAMI AKBULUT CAD. NO:46/A   DIKILI/IZMIR",
      "phone": "02326713510",
      "district": "DİKİLİ",
      "city": "İzmir",
      "latitude": 39.070989,
      "longitude": 26.888162,
      "dutyStart": "2026-02-28T08:00:00.000Z",
      "dutyEnd": "2026-03-01T08:00:00.000Z"
    },
    {
      "id": "izmir-40-62",
      "name": "BEGÜM ECZANESİ",
      "address": "ATATÜRK MAH. 115 SOK. NO:32",
      "phone": "02328126035",
      "district": "ESKİ FOÇA",
      "city": "İzmir",
      "latitude": 38.668328,
      "longitude": 26.754356,
      "dutyStart": "2026-02-28T08:00:00.000Z",
      "dutyEnd": "2026-03-01T08:00:00.000Z"
    },
    {
      "id": "izmir-41-63",
      "name": "KIVANÇ ECZANESİ",
      "address": "GIRNE CAD. NO:18 YENİ FOÇA",
      "phone": "02328146031",
      "district": "YENİ FOÇA",
      "city": "İzmir",
      "latitude": 38.740882,
      "longitude": 26.837295,
      "dutyStart": "2026-02-28T08:00:00.000Z",
      "dutyEnd": "2026-03-01T08:00:00.000Z"
    },
    {
      "id": "izmir-42-64",
      "name": "SAADET ECZANESİ",
      "address": "İSKELE MH. KEPEZ CD. NO:19/A",
      "phone": "02327313397",
      "district": "KARABURUN",
      "city": "İzmir",
      "latitude": 38.634972,
      "longitude": 26.522727,
      "dutyStart": "2026-02-28T08:00:00.000Z",
      "dutyEnd": "2026-03-01T08:00:00.000Z"
    },
    {
      "id": "izmir-43-65",
      "name": "MORDOGAN EGE ECZANESİ",
      "address": "MORDOĞAN MH. FATİH CD. NO:10",
      "phone": "02327375520",
      "district": "MORDOĞAN",
      "city": "İzmir",
      "latitude": 38.517947,
      "longitude": 26.625422,
      "dutyStart": "2026-02-28T08:00:00.000Z",
      "dutyEnd": "2026-03-01T08:00:00.000Z"
    },
    {
      "id": "izmir-44-66",
      "name": "KEMALPAŞA  ECZANESİ",
      "address": "MEHMET AKİF ERSOY MH. ATATÜRK BULV. NO:9/D",
      "phone": "02328781060",
      "district": "KEMALPAŞA",
      "city": "İzmir",
      "latitude": 38.427806,
      "longitude": 27.416516,
      "dutyStart": "2026-02-28T08:00:00.000Z",
      "dutyEnd": "2026-03-01T08:00:00.000Z"
    },
    {
      "id": "izmir-45-67",
      "name": "ÖZÇIMENLI ECZANESİ",
      "address": "TÜRKCEDIT MAH. ATATÜRK CAD. NO:144/AKINIK/IZMIR",
      "phone": "02326874342",
      "district": "KINIK",
      "city": "İzmir",
      "latitude": 39.087112,
      "longitude": 27.383226,
      "dutyStart": "2026-02-28T08:00:00.000Z",
      "dutyEnd": "2026-03-01T08:00:00.000Z"
    },
    {
      "id": "izmir-46-68",
      "name": "YAŞAM ECZANESİ",
      "address": "u0130STu0130KLAL MAH. SABu0130T ARLI CAD. NO:69",
      "phone": "02325724430",
      "district": "KİRAZ",
      "city": "İzmir",
      "latitude": 38.231617,
      "longitude": 28.207707,
      "dutyStart": "2026-02-28T08:00:00.000Z",
      "dutyEnd": "2026-03-01T08:00:00.000Z"
    },
    {
      "id": "izmir-47-69",
      "name": "UTKU ECZANESİ",
      "address": "UĞUR MUMCU MAH. 1249 SK. NO:14/A",
      "phone": "02328321905",
      "district": "MENEMEN",
      "city": "İzmir",
      "latitude": 38.60667,
      "longitude": 27.087327,
      "dutyStart": "2026-02-28T08:00:00.000Z",
      "dutyEnd": "2026-03-01T08:00:00.000Z"
    },
    {
      "id": "izmir-48-70",
      "name": "ÖDEMIS ECZANESİ",
      "address": "ATATÜRK MAH. DENIZCIK SOKAK NO:2/B",
      "phone": "02325441844",
      "district": "ÖDEMİŞ",
      "city": "İzmir",
      "latitude": 38.232617,
      "longitude": 27.976385,
      "dutyStart": "2026-02-28T08:00:00.000Z",
      "dutyEnd": "2026-03-01T08:00:00.000Z"
    },
    {
      "id": "izmir-49-70",
      "name": "ORGANİK  ECZANESİ",
      "address": "ZAFER MH. ORTAÇ SK. NO:13/A",
      "phone": "02325450600",
      "district": "ÖDEMİŞ",
      "city": "İzmir",
      "latitude": 38.231907,
      "longitude": 27.987285,
      "dutyStart": "2026-02-28T08:00:00.000Z",
      "dutyEnd": "2026-03-01T08:00:00.000Z"
    },
    {
      "id": "izmir-50-71",
      "name": "LEVENT AŞÇIOĞLU  ECZANESİ",
      "address": "HIDIRLIK MAH. İNÖNÜ CAD. NO:14/A",
      "phone": "02327433737",
      "district": "SEFERİHİSAR",
      "city": "İzmir",
      "latitude": 38.193558,
      "longitude": 26.837887,
      "dutyStart": "2026-02-28T08:00:00.000Z",
      "dutyEnd": "2026-03-01T08:00:00.000Z"
    },
    {
      "id": "izmir-51-72",
      "name": "NAZAR ECZANESİ",
      "address": "ATATÜRK MAH. ESREF ARNA CAD. NO:24/A",
      "phone": "02328921898",
      "district": "SELÇUK",
      "city": "İzmir",
      "latitude": 37.943945,
      "longitude": 27.370194,
      "dutyStart": "2026-02-28T08:00:00.000Z",
      "dutyEnd": "2026-03-01T08:00:00.000Z"
    },
    {
      "id": "izmir-52-73",
      "name": "URLA PAZAR ECZANESİ",
      "address": "YAKA MAH. ERDOĞAN KER CAD. NO:128/B",
      "phone": "02327546434",
      "district": "URLA",
      "city": "İzmir",
      "latitude": 38.324981,
      "longitude": 26.752099,
      "dutyStart": "2026-02-28T08:00:00.000Z",
      "dutyEnd": "2026-03-01T08:00:00.000Z"
    },
    {
      "id": "izmir-53-74",
      "name": "IHLAMUR ECZANESİ",
      "address": "ATATÜRK MAH. MALTEPE CAD. NO:14/B",
      "phone": "02325110076",
      "district": "TİRE",
      "city": "İzmir",
      "latitude": 38.099886,
      "longitude": 27.724528,
      "dutyStart": "2026-02-28T08:00:00.000Z",
      "dutyEnd": "2026-03-01T08:00:00.000Z"
    },
    {
      "id": "izmir-54-75",
      "name": "ELİF ECZANESİ",
      "address": "ERTUGRUL MAH.TORBALI CAD.NO:10/B",
      "phone": "02328566260",
      "district": "TORBALI",
      "city": "İzmir",
      "latitude": 38.155804,
      "longitude": 27.361414,
      "dutyStart": "2026-02-28T08:00:00.000Z",
      "dutyEnd": "2026-03-01T08:00:00.000Z"
    },
    {
      "id": "izmir-55-75",
      "name": "CANSU ECZANESİ",
      "address": "TORBALI MH. METROPOLİS BULVARI NO:114-A",
      "phone": "02329993770",
      "district": "TORBALI",
      "city": "İzmir",
      "latitude": 38.179146,
      "longitude": 27.352332,
      "dutyStart": "2026-02-28T08:00:00.000Z",
      "dutyEnd": "2026-03-01T08:00:00.000Z"
    },
    {
      "id": "izmir-56-76",
      "name": "YAZAL ECZANESİ",
      "address": "SAYFIYE MAH. KAZIM DIRIK CAD.NO:58/AYENI SAKRAN-ALIAGA/IZMIR",
      "phone": "02326287143",
      "district": "YENİ ŞAKRAN",
      "city": "İzmir",
      "latitude": 38.889168,
      "longitude": 27.065746,
      "dutyStart": "2026-02-28T08:00:00.000Z",
      "dutyEnd": "2026-03-01T08:00:00.000Z"
    },
    {
      "id": "izmir-57-77",
      "name": "GEÇER ECZANESI ECZANESİ",
      "address": "ZÜBEYDE HANIM CAD.NO:81/C ALAYBEY",
      "phone": "02323665054",
      "district": "KARŞIYAKA 2",
      "city": "İzmir",
      "latitude": 38.463403,
      "longitude": 27.116117,
      "dutyStart": "2026-02-28T08:00:00.000Z",
      "dutyEnd": "2026-03-01T08:00:00.000Z"
    },
    {
      "id": "izmir-58-78",
      "name": "AYSAN ECZANESİ",
      "address": "BOSTANLI MAH. CEMAL BÜLBÜL SOK. NO:14/A",
      "phone": "02323365194",
      "district": "KARŞIYAKA 3",
      "city": "İzmir",
      "latitude": 38.458492,
      "longitude": 27.097591,
      "dutyStart": "2026-02-28T08:00:00.000Z",
      "dutyEnd": "2026-03-01T08:00:00.000Z"
    },
    {
      "id": "izmir-59-79",
      "name": "NERGİZ ECZANESİ",
      "address": "NERGIZ MAH. 1775/2 SOKAK NO:24/A",
      "phone": "02329641007",
      "district": "KARŞIYAKA 4",
      "city": "İzmir",
      "latitude": 38.461862,
      "longitude": 27.10621,
      "dutyStart": "2026-02-28T08:00:00.000Z",
      "dutyEnd": "2026-03-01T08:00:00.000Z"
    },
    {
      "id": "izmir-60-80",
      "name": "ÇAĞRI ECZANESİ",
      "address": "AKSOY MAH. 1767 SOK. NO:24/A ",
      "phone": "02323645911",
      "district": "KARŞIYAKA 1",
      "city": "İzmir",
      "latitude": 38.456815,
      "longitude": 27.110394,
      "dutyStart": "2026-02-28T08:00:00.000Z",
      "dutyEnd": "2026-03-01T08:00:00.000Z"
    },
    {
      "id": "izmir-61-83",
      "name": "KÖSE ECZANESİ",
      "address": "INÖNÜ CD.NO.522/A GÜZELYALI",
      "phone": "02322475895",
      "district": "HATAY",
      "city": "İzmir",
      "latitude": 38.393312,
      "longitude": 27.085555,
      "dutyStart": "2026-02-28T08:00:00.000Z",
      "dutyEnd": "2026-03-01T08:00:00.000Z"
    },
    {
      "id": "izmir-62-84",
      "name": "ECZANE NİLGE ECZANESİ",
      "address": "BARBAROS MH. MİTHATPAŞA CD. 333 SK. NO:2 KARATAŞ",
      "phone": "02324846272",
      "district": "MİTHATPAŞA",
      "city": "İzmir",
      "latitude": 38.411521,
      "longitude": 27.12205,
      "dutyStart": "2026-02-28T08:00:00.000Z",
      "dutyEnd": "2026-03-01T08:00:00.000Z"
    },
    {
      "id": "izmir-63-89",
      "name": "OKYANUS ECZANESİ",
      "address": "ÇANDARLI MH.BERGAMA CD. NO:1/C",
      "phone": "02326732026",
      "district": "ÇANDARLI",
      "city": "İzmir",
      "latitude": 38.93613,
      "longitude": 26.934701,
      "dutyStart": "2026-02-28T08:00:00.000Z",
      "dutyEnd": "2026-03-01T08:00:00.000Z"
    },
    {
      "id": "izmir-64-90",
      "name": "ORTAKÖY ECZANESİ",
      "address": "ORTA MH. MUSTAFA KEMAL PAŞA CD. NO:450/B",
      "phone": "02322855862",
      "district": "ÖZDERE",
      "city": "İzmir",
      "latitude": 38.050347,
      "longitude": 27.051814,
      "dutyStart": "2026-02-28T08:00:00.000Z",
      "dutyEnd": "2026-03-01T08:00:00.000Z"
    },
    {
      "id": "izmir-65-101",
      "name": "ÖZEPIK ECZANESİ",
      "address": "OSMANGAZI MAH. 597 SOK. NO:34/A",
      "phone": "02323713756",
      "district": "ATATÜRK",
      "city": "İzmir",
      "latitude": 38.471485,
      "longitude": 27.187549,
      "dutyStart": "2026-02-28T08:00:00.000Z",
      "dutyEnd": "2026-03-01T08:00:00.000Z"
    },
    {
      "id": "izmir-66-102",
      "name": "GÜNALTAY ECZANESİ",
      "address": "ESKİ İZMİR CD. NO:345/A",
      "phone": "02322652299",
      "district": "ESKİİZMİR-CENNETÇEŞME",
      "city": "İzmir",
      "latitude": 38.383106,
      "longitude": 27.113407,
      "dutyStart": "2026-02-28T08:00:00.000Z",
      "dutyEnd": "2026-03-01T08:00:00.000Z"
    },
    {
      "id": "izmir-67-103",
      "name": "DİNÇARSLAN ECZANESİ",
      "address": "ISMET KAPTAN MAH.SEZER DOĞAN SK. NO:22/B",
      "phone": "02324831893",
      "district": "ALSANCAK-BASMANE",
      "city": "İzmir",
      "latitude": 38.427142,
      "longitude": 27.138984,
      "dutyStart": "2026-02-28T08:00:00.000Z",
      "dutyEnd": "2026-03-01T08:00:00.000Z"
    },
    {
      "id": "izmir-68-106",
      "name": "BİLGİLİ ECZANESİ",
      "address": "MEVLANA MAH. 1754/1 SOK. NO:4/A ",
      "phone": "02323739585",
      "district": "BORNOVA 4",
      "city": "İzmir",
      "latitude": 38.447901,
      "longitude": 27.229714,
      "dutyStart": "2026-02-28T08:00:00.000Z",
      "dutyEnd": "2026-03-01T08:00:00.000Z"
    },
    {
      "id": "izmir-69-107",
      "name": "EGE SEYHAN ECZANESİ",
      "address": "30 AGUSTOS MAH. 7124 SOK NO:4/C/A",
      "phone": "02328383676",
      "district": "MENEMEN 2",
      "city": "İzmir",
      "latitude": 38.55254,
      "longitude": 27.049669,
      "dutyStart": "2026-02-28T08:00:00.000Z",
      "dutyEnd": "2026-03-01T08:00:00.000Z"
    },
    {
      "id": "izmir-70-108",
      "name": "UMUT ECZANESİ",
      "address": "DENİZLİ MAH. 113 SOK. NO:6/A",
      "phone": "02327554279",
      "district": "ÇEŞMEALTI",
      "city": "İzmir",
      "latitude": 38.390722,
      "longitude": 26.747033,
      "dutyStart": "2026-02-28T08:00:00.000Z",
      "dutyEnd": "2026-03-01T08:00:00.000Z"
    },
    {
      "id": "izmir-71-109",
      "name": "ZEYTİNALANI ECZANESİ",
      "address": "ISMET INÖNÜ CAD.NO:4/2 ZEYTINALANI MAH.",
      "phone": "02327664043",
      "district": "ZEYTİNALANI",
      "city": "İzmir",
      "latitude": 38.368004,
      "longitude": 26.836762,
      "dutyStart": "2026-02-28T08:00:00.000Z",
      "dutyEnd": "2026-03-01T08:00:00.000Z"
    },
    {
      "id": "izmir-72-112",
      "name": "SIĞACIK ATA ECZANESİ",
      "address": "SIĞACIK MAH. AKKUM CAD. NO:9/E",
      "phone": "02327433500",
      "district": "SEFERİHİSAR-SIĞACIK BÖLGESİ",
      "city": "İzmir",
      "latitude": 38.192572,
      "longitude": 26.785809,
      "dutyStart": "2026-02-28T08:00:00.000Z",
      "dutyEnd": "2026-03-01T08:00:00.000Z"
    }
  ]
}