{
  "city": "kocaeli",
  "cityName": "Kocaeli",
  "cityId": 41,
  "date": "2026-02-28",
  "updatedAt": "2026-02-27T21:30:09.147Z",
  "count": 20,
  "pharmacies": [
    {
      "id": "kocaeli-0",
      "name": "DEVA ECZANESİ",
      "address": "ÖMERAGA MAH. ABDURRAHMAN YÜKSEL CAD. BELSA SOK. NO: 3-4 İZMİT",
      "phone": "02623251335",
      "district": "İzmit",
      "city": "Kocaeli",
      "latitude": 40.765251,
      "longitude": 29.929698,
      "dutyStart": "2026-02-27T08:30:00.000Z",
      "dutyEnd": "2026-02-28T08:30:00.000Z"
    },
    {
      "id": "kocaeli-1",
      "name": "EGE ECZANESİ",
      "address": "CEDIT MAH.TURAN GÜNES CAD. NO: 39/B İZMİT",
      "phone": "02623210430",
      "district": "İzmit",
      "city": "Kocaeli",
      "latitude": 40.767601,
      "longitude": 29.936464,
      "dutyStart": "2026-02-27T08:30:00.000Z",
      "dutyEnd": "2026-02-28T08:30:00.000Z"
    },
    {
      "id": "kocaeli-2",
      "name": "EMİR YUSUF ECZANESİ",
      "address": "MEHMETALIPASA MAH. BAĞDAT CAD. NO:124/A İZMİT",
      "phone": "02623314495",
      "district": "İzmit",
      "city": "Kocaeli",
      "latitude": 40.767048,
      "longitude": 29.95213,
      "dutyStart": "2026-02-27T08:30:00.000Z",
      "dutyEnd": "2026-02-28T08:30:00.000Z"
    },
    {
      "id": "kocaeli-3",
      "name": "ŞİRİN ECZANESİ",
      "address": "ŞİRİNTEPE MAH.ŞİRİN SK.NO:3/A İZMİT",
      "phone": "05332005041",
      "district": "İzmit",
      "city": "Kocaeli",
      "latitude": 40.761156,
      "longitude": 29.861117,
      "dutyStart": "2026-02-27T08:30:00.000Z",
      "dutyEnd": "2026-02-28T08:30:00.000Z"
    },
    {
      "id": "kocaeli-4",
      "name": "GÜNDOĞDU ECZANESİ",
      "address": "AYAZMA MAH.17 AGUSTOS BULVARI NO:118/C İZMİT",
      "phone": "02623295121",
      "district": "İzmit",
      "city": "Kocaeli",
      "latitude": 40.801015,
      "longitude": 29.952323,
      "dutyStart": "2026-02-27T08:30:00.000Z",
      "dutyEnd": "2026-02-28T08:30:00.000Z"
    },
    {
      "id": "kocaeli-5",
      "name": "ÖZKAN ECZANESİ",
      "address": "SERDAR MAH.PASİNLER CAD.NO:49/A BAŞİSKELE",
      "phone": "02623467141",
      "district": "Başiskele",
      "city": "Kocaeli",
      "latitude": 40.712025,
      "longitude": 29.945995,
      "dutyStart": "2026-02-27T08:30:00.000Z",
      "dutyEnd": "2026-02-28T08:30:00.000Z"
    },
    {
      "id": "kocaeli-6",
      "name": "İLAYDA ECZANESİ",
      "address": "YENİ MAH.MENDERES CAD.NO:79/A ÇAYIROVA",
      "phone": "05389235825",
      "district": "Çayırova",
      "city": "Kocaeli",
      "latitude": 40.82498,
      "longitude": 29.369225,
      "dutyStart": "2026-02-27T08:30:00.000Z",
      "dutyEnd": "2026-02-28T08:30:00.000Z"
    },
    {
      "id": "kocaeli-7",
      "name": "MERVE ECZANESİ",
      "address": "ZİNCİRLİKUYU MAH.KARAASLAN CAD.NO:22/B",
      "phone": "02627453300",
      "district": "Darıca",
      "city": "Kocaeli",
      "latitude": 40.759106,
      "longitude": 29.384828,
      "dutyStart": "2026-02-27T08:30:00.000Z",
      "dutyEnd": "2026-02-28T08:30:00.000Z"
    },
    {
      "id": "kocaeli-8",
      "name": "NESRİN ECZANESİ",
      "address": "FEVZİ ÇAKMAK MAH. CENGİZ TOPEL CAD. BALKAN SOK. NO:31/1 DARICA",
      "phone": "02626560510",
      "district": "Dilovası",
      "city": "Kocaeli",
      "latitude": 40.776249,
      "longitude": 29.410217,
      "dutyStart": "2026-02-27T08:30:00.000Z",
      "dutyEnd": "2026-02-28T08:30:00.000Z"
    },
    {
      "id": "kocaeli-9",
      "name": "TAKIR ECZANESİ",
      "address": "CUMHURİYET MAH.BAĞDAT CAD.NO:52/B",
      "phone": "02627540032",
      "district": "Kartepe",
      "city": "Kocaeli",
      "latitude": 40.786286,
      "longitude": 29.536995,
      "dutyStart": "2026-02-27T08:30:00.000Z",
      "dutyEnd": "2026-02-28T08:30:00.000Z"
    },
    {
      "id": "kocaeli-10",
      "name": "PINAR ECZANESİ",
      "address": "ARSLANBEY MAH.KIŞLA CAD.NO:26/D KARTEPE/KOCAELİ",
      "phone": "02623513180",
      "district": "Kartepe",
      "city": "Kocaeli",
      "latitude": 40.690094,
      "longitude": 30.030718,
      "dutyStart": "2026-02-27T08:30:00.000Z",
      "dutyEnd": "2026-02-28T08:30:00.000Z"
    },
    {
      "id": "kocaeli-11",
      "name": "MİNE ECZANESİ",
      "address": "SULTANORHAN MAH. BAĞDAT CAD. 1122 SOK. NO: 9/A",
      "phone": "02626424204",
      "district": "Gebze",
      "city": "Kocaeli",
      "latitude": 40.801879,
      "longitude": 29.440742,
      "dutyStart": "2026-02-27T08:30:00.000Z",
      "dutyEnd": "2026-02-28T08:30:00.000Z"
    },
    {
      "id": "kocaeli-12",
      "name": "AÇELYA DEVA ECZANESİ",
      "address": "MEVLANA MAH.MUAMMER AKSOY CAD.NO:30/A",
      "phone": "02626411269",
      "district": "Gebze",
      "city": "Kocaeli",
      "latitude": 40.806993,
      "longitude": 29.428807,
      "dutyStart": "2026-02-27T08:30:00.000Z",
      "dutyEnd": "2026-02-28T08:30:00.000Z"
    },
    {
      "id": "kocaeli-13",
      "name": "ÜMİT ECZANESİ",
      "address": "KAVAKLI MAH. BURAKREIS CAD. NO:8 GÖLCÜK",
      "phone": "02624120816",
      "district": "Gölcük",
      "city": "Kocaeli",
      "latitude": 40.722187,
      "longitude": 29.836385,
      "dutyStart": "2026-02-27T08:30:00.000Z",
      "dutyEnd": "2026-02-28T08:30:00.000Z"
    },
    {
      "id": "kocaeli-14",
      "name": "HACETTEPE ECZANESİ",
      "address": "YÜZBAŞILAR MAH. AMİRAL KAYACAN CAD. NO:76/B GÖLCÜK",
      "phone": "05413994616",
      "district": "Gölcük",
      "city": "Kocaeli",
      "latitude": 40.720762,
      "longitude": 29.794937,
      "dutyStart": "2026-02-27T08:30:00.000Z",
      "dutyEnd": "2026-02-28T08:30:00.000Z"
    },
    {
      "id": "kocaeli-15",
      "name": "AKCAN ECZANESİ",
      "address": "ÇIFTLIK MAH.HASTANE YOLU CD.NO:1 GÖLCÜK",
      "phone": "02624358898",
      "district": "Gölcük",
      "city": "Kocaeli",
      "latitude": 40.706363,
      "longitude": 29.838733,
      "dutyStart": "2026-02-27T08:30:00.000Z",
      "dutyEnd": "2026-02-28T08:30:00.000Z"
    },
    {
      "id": "kocaeli-16",
      "name": "ÖMÜR ECZANESİ",
      "address": "AKDURAK MAH.AKÇAKOCA CAD. NO:41 KANDIRA",
      "phone": "02625513030",
      "district": "Kandıra",
      "city": "Kocaeli",
      "latitude": 41.069787,
      "longitude": 30.154045,
      "dutyStart": "2026-02-27T08:30:00.000Z",
      "dutyEnd": "2026-02-28T08:30:00.000Z"
    },
    {
      "id": "kocaeli-17",
      "name": "KARAMÜRSEL ECZANESİ",
      "address": "4 TEMMUZ MAH.CUMHURIYET CAD.NO:36 KARAMÜRSEL",
      "phone": "02624521164",
      "district": "Karamürsel",
      "city": "Kocaeli",
      "latitude": 40.693067,
      "longitude": 29.615882,
      "dutyStart": "2026-02-27T08:30:00.000Z",
      "dutyEnd": "2026-02-28T08:30:00.000Z"
    },
    {
      "id": "kocaeli-18",
      "name": "DERMAN ECZANESİ",
      "address": "YAVUZ SULTAN SELİM MAH. MEVLANA CAD. NO:34 KÖRFEZ",
      "phone": "02625262949",
      "district": "Körfez",
      "city": "Kocaeli",
      "latitude": 40.774874,
      "longitude": 29.782171,
      "dutyStart": "2026-02-27T08:30:00.000Z",
      "dutyEnd": "2026-02-28T08:30:00.000Z"
    },
    {
      "id": "kocaeli-19",
      "name": "TÜRKAN ECZANESİ",
      "address": "SIRRIPAŞA MAH.NURŞEN SOK.NO:2/A DERİNCE",
      "phone": "02622292928",
      "district": "Derince",
      "city": "Kocaeli",
      "latitude": 40.761386,
      "longitude": 29.820498,
      "dutyStart": "2026-02-27T08:30:00.000Z",
      "dutyEnd": "2026-02-28T08:30:00.000Z"
    }
  ]
}