{
  "city": "konya",
  "cityName": "Konya",
  "cityId": 42,
  "date": "2026-02-28",
  "updatedAt": "2026-02-28T16:30:03.636Z",
  "count": 34,
  "pharmacies": [
    {
      "id": "konya-0",
      "name": "GÜNAYDIN ECZANESİ",
      "address": "FERHUNİYE MAHALLESİ HASTANE CADDESİ NO:25E SELÇUKLU",
      "phone": "903323520653",
      "district": "Selçuklu",
      "city": "Konya",
      "latitude": 37.8778851,
      "longitude": 32.4904376,
      "dutyStart": "2026-02-28T09:00:00.000Z",
      "dutyEnd": "2026-03-01T09:00:00.000Z"
    },
    {
      "id": "konya-1",
      "name": "ÜLKÜ TOY ECZANESİ",
      "address": "SELÇUK MAHALLESİ HARZAMİ SOKAK NO:7C SELÇUKLU",
      "phone": "903325010500",
      "district": "Selçuklu",
      "city": "Konya",
      "latitude": 37.8784195,
      "longitude": 32.468792,
      "dutyStart": "2026-02-28T09:00:00.000Z",
      "dutyEnd": "2026-03-01T09:00:00.000Z"
    },
    {
      "id": "konya-2",
      "name": "ZEYNEP ECZANESİ",
      "address": "ALAVARDI MAHALLESİ BEYŞEHİR CADDESİ NO:185C MERAM",
      "phone": "903323232321",
      "district": "Meram",
      "city": "Konya",
      "latitude": 37.8796688,
      "longitude": 32.448092,
      "dutyStart": "2026-02-28T09:00:00.000Z",
      "dutyEnd": "2026-03-01T09:00:00.000Z"
    },
    {
      "id": "konya-3",
      "name": "UFUK ECZANESİ",
      "address": "ATEŞBAZ VELİ MAHALLESİ YEDEKIRMAK SOKAK NO:44A MERAM",
      "phone": "903323245164",
      "district": "Meram",
      "city": "Konya",
      "latitude": 37.8620543,
      "longitude": 32.4468324,
      "dutyStart": "2026-02-28T09:00:00.000Z",
      "dutyEnd": "2026-03-01T09:00:00.000Z"
    },
    {
      "id": "konya-4",
      "name": "HAYAT ECZANESİ",
      "address": "FERİTPAŞA MH. TELGIRAFCI HAMDİ BEY CAD. YENİCE SİT. A BLOK NO:5D SELÇUKLU",
      "phone": "903322387748",
      "district": "Karatay",
      "city": "Konya",
      "latitude": 37.88712,
      "longitude": 32.49643,
      "dutyStart": "2026-02-28T09:00:00.000Z",
      "dutyEnd": "2026-03-01T09:00:00.000Z"
    },
    {
      "id": "konya-5",
      "name": "ŞÖLEN ECZANESİ",
      "address": "KONEVİ MAHALLESİ FERİTPAŞA CADDESİ APAK APT. NO:34B MERAM",
      "phone": "903323330011",
      "district": "Meram",
      "city": "Konya",
      "latitude": 37.86715,
      "longitude": 32.48157,
      "dutyStart": "2026-02-28T09:00:00.000Z",
      "dutyEnd": "2026-03-01T09:00:00.000Z"
    },
    {
      "id": "konya-6",
      "name": "CUMHUR ECZANESİ",
      "address": "HACIVEYİSZADE MAHALLESİ FARABİ SOKAK NO:54E KARATAY",
      "phone": "903323555557",
      "district": "Karatay",
      "city": "Konya",
      "latitude": 37.8764447,
      "longitude": 32.5229777,
      "dutyStart": "2026-02-28T09:00:00.000Z",
      "dutyEnd": "2026-03-01T09:00:00.000Z"
    },
    {
      "id": "konya-7",
      "name": "UMUT ECZANESİ",
      "address": "HÜSAMETTİN ÇELEBİ MAHALLESİ AKABE CADDESİ NO:13C SELÇUKLU",
      "phone": "903322450466",
      "district": "Selçuklu",
      "city": "Konya",
      "latitude": 37.9118649,
      "longitude": 32.4911794,
      "dutyStart": "2026-02-28T09:00:00.000Z",
      "dutyEnd": "2026-03-01T09:00:00.000Z"
    },
    {
      "id": "konya-8",
      "name": "ELİT ECZANESİ",
      "address": "ŞEYH ŞAMİL MAHALLESİ DOÇ DR. HALİL ÜRÜN CADDESİ 1. KIZILKAYA İŞ MERKEZİ NO:23I SELÇUKLU",
      "phone": "903322654032",
      "district": "Selçuklu",
      "city": "Konya",
      "latitude": 37.9478,
      "longitude": 32.49767,
      "dutyStart": "2026-02-28T09:00:00.000Z",
      "dutyEnd": "2026-03-01T09:00:00.000Z"
    },
    {
      "id": "konya-9",
      "name": "YILMAZ ECZANESİ",
      "address": "YAZIR MAHALLESİ ŞEHİT ERKAN ÖZBALCI SOKAK NO:18D SELÇUKLU",
      "phone": "903322654230",
      "district": "Selçuklu",
      "city": "Konya",
      "latitude": 37.956916,
      "longitude": 32.5102055,
      "dutyStart": "2026-02-28T09:00:00.000Z",
      "dutyEnd": "2026-03-01T09:00:00.000Z"
    },
    {
      "id": "konya-10",
      "name": "ALSANCAK ECZANESİ",
      "address": "HOROZLUHAN MAHALLESİ DR. SADIK AHMET CADDESİ NO:98N SELÇUKLU",
      "phone": "903325027565",
      "district": "Selçuklu",
      "city": "Konya",
      "latitude": 37.94764,
      "longitude": 32.52094,
      "dutyStart": "2026-02-28T09:00:00.000Z",
      "dutyEnd": "2026-03-01T09:00:00.000Z"
    },
    {
      "id": "konya-11",
      "name": "ANNEM ECZANESİ",
      "address": "YENİŞEHİR MAHALLESİ GAZZE CADDESİ NO:47D MERAM",
      "phone": "903325032040",
      "district": "Karatay",
      "city": "Konya",
      "latitude": 37.8482345,
      "longitude": 32.472847,
      "dutyStart": "2026-02-28T09:00:00.000Z",
      "dutyEnd": "2026-03-01T09:00:00.000Z"
    },
    {
      "id": "konya-12",
      "name": "ÇETİN ECZANESİ",
      "address": "İSTASYON MAHALLESİ 30489. SOKAK NO:4J",
      "phone": "903328134044",
      "district": "Akşehi̇r",
      "city": "Konya",
      "latitude": 38.3657472,
      "longitude": 31.4321004,
      "dutyStart": "2026-02-28T09:00:00.000Z",
      "dutyEnd": "2026-03-01T09:00:00.000Z"
    },
    {
      "id": "konya-13",
      "name": "DİLEK ECZANESİ",
      "address": "ÖLMEZ MAHALLESİ MİLLET CADDESİ NO:4B",
      "phone": "903326312575",
      "district": "Altineki̇n",
      "city": "Konya",
      "latitude": 38.3072871,
      "longitude": 32.8636853,
      "dutyStart": "2026-02-28T09:00:00.000Z",
      "dutyEnd": "2026-03-01T09:00:00.000Z"
    },
    {
      "id": "konya-14",
      "name": "ELİF ECZANESİ",
      "address": "HAMİDİYE MAHALLESİ ALİ AKKANAT CADDESİ NO:37B",
      "phone": "903325125121",
      "district": "Beyşehi̇r",
      "city": "Konya",
      "latitude": 37.6755745,
      "longitude": 31.7298963,
      "dutyStart": "2026-02-28T09:00:00.000Z",
      "dutyEnd": "2026-03-01T09:00:00.000Z"
    },
    {
      "id": "konya-15",
      "name": "ATASEVEN ECZANESİ",
      "address": "YUKARI MAHALLE FEVZİ PAŞA CADDESİ NO:5A",
      "phone": "903324261297",
      "district": "Bozkir",
      "city": "Konya",
      "latitude": 37.1892336,
      "longitude": 32.2449391,
      "dutyStart": "2026-02-28T09:00:00.000Z",
      "dutyEnd": "2026-03-01T09:00:00.000Z"
    },
    {
      "id": "konya-16",
      "name": "KÖKER ECZANESİ",
      "address": "ATÇEKEN MAHALLESİ HASTANE CADDESİ NO:54D",
      "phone": "903326731121",
      "district": "Ci̇hanbeyli̇",
      "city": "Konya",
      "latitude": 38.6658383,
      "longitude": 32.9221421,
      "dutyStart": "2026-02-28T09:00:00.000Z",
      "dutyEnd": "2026-03-01T09:00:00.000Z"
    },
    {
      "id": "konya-17",
      "name": "YENİCEOBA ECZANESİ",
      "address": "YENİCEOBA MAHALLESİ YENİCEOBA CADDESİ NO:110A",
      "phone": "903326761074",
      "district": "Ci̇hanbeyli̇",
      "city": "Konya",
      "latitude": 38.8700849,
      "longitude": 32.7917438,
      "dutyStart": "2026-02-28T09:00:00.000Z",
      "dutyEnd": "2026-03-01T09:00:00.000Z"
    },
    {
      "id": "konya-18",
      "name": "FİDAN ECZANESİ",
      "address": "SELÇUK MAHALLESİ MEVLANA CADDESİ NO: 14B",
      "phone": "903328712021",
      "district": "Çelti̇k",
      "city": "Konya",
      "latitude": 38.2842145,
      "longitude": 31.8945928,
      "dutyStart": "2026-02-28T09:00:00.000Z",
      "dutyEnd": "2026-03-01T09:00:00.000Z"
    },
    {
      "id": "konya-19",
      "name": "DEVA ECZANESİ",
      "address": "İZZETBEY MAHALLESİ GAZİ CADDESİ NO:13A",
      "phone": "903324472848",
      "district": "Çumra",
      "city": "Konya",
      "latitude": 37.5717043,
      "longitude": 32.7804202,
      "dutyStart": "2026-02-28T09:00:00.000Z",
      "dutyEnd": "2026-03-01T09:00:00.000Z"
    },
    {
      "id": "konya-20",
      "name": "MERKEZ ECZANESİ",
      "address": "PAZAR MAHALLESİ 85005. SOKAK NO:13A",
      "phone": "903325561780",
      "district": "Doğanhi̇sar",
      "city": "Konya",
      "latitude": 38.1459887,
      "longitude": 31.6765907,
      "dutyStart": "2026-02-28T09:00:00.000Z",
      "dutyEnd": "2026-03-01T09:00:00.000Z"
    },
    {
      "id": "konya-21",
      "name": "HUZUR ECZANESİ",
      "address": "HACIMUTAHİR MAHALLESİ RASİM EREL CADDESİ HACI ADEM YERLİ KAYA İŞHANI NO:3B",
      "phone": "903327130143",
      "district": "Ereğli̇",
      "city": "Konya",
      "latitude": 37.511768,
      "longitude": 34.0489607,
      "dutyStart": "2026-02-28T09:00:00.000Z",
      "dutyEnd": "2026-03-01T09:00:00.000Z"
    },
    {
      "id": "konya-22",
      "name": "HACETTEPE ECZANESİ",
      "address": "HACIMUSTAFA MAHALLESİ 91114.SOKAK SÜMER APARTMANI NO:22A",
      "phone": "903327126067",
      "district": "Ereğli̇",
      "city": "Konya",
      "latitude": 37.5227065,
      "longitude": 34.0474229,
      "dutyStart": "2026-02-28T09:00:00.000Z",
      "dutyEnd": "2026-03-01T09:00:00.000Z"
    },
    {
      "id": "konya-23",
      "name": "ERCAN ECZANESİ",
      "address": "ETİ MAHALLESİ KÜSERE KÖPRÜ CADDESİ NO:53A",
      "phone": "903327102040",
      "district": "Ereğli̇",
      "city": "Konya",
      "latitude": 37.5087038,
      "longitude": 34.0579236,
      "dutyStart": "2026-02-28T09:00:00.000Z",
      "dutyEnd": "2026-03-01T09:00:00.000Z"
    },
    {
      "id": "konya-24",
      "name": "YENTÜRK ECZANESİ",
      "address": "TOROS MAHALLESİ ŞEHİT METİN DÜZGÜN CADDESİ NO:12A-12B",
      "phone": "903327101600",
      "district": "Ereğli̇",
      "city": "Konya",
      "latitude": 37.470697,
      "longitude": 34.0457071,
      "dutyStart": "2026-02-28T09:00:00.000Z",
      "dutyEnd": "2026-03-01T09:00:00.000Z"
    },
    {
      "id": "konya-25",
      "name": "ERGÜL ECZANESİ",
      "address": "BAHÇELİEVLER MAHALLESİ 110214. SOKAK NO:10A",
      "phone": "903325124447",
      "district": "Hüyük",
      "city": "Konya",
      "latitude": 37.9527782,
      "longitude": 31.5979867,
      "dutyStart": "2026-02-28T09:00:00.000Z",
      "dutyEnd": "2026-03-01T09:00:00.000Z"
    },
    {
      "id": "konya-26",
      "name": "ŞİFA ECZANESİ",
      "address": "FATİH MAHALLESİ DR. VEHBİ KÜTÜKÇÜ CADDESİ NO:15A",
      "phone": "903328816710",
      "district": "Ilgin",
      "city": "Konya",
      "latitude": 38.280173,
      "longitude": 31.9080586,
      "dutyStart": "2026-02-28T09:00:00.000Z",
      "dutyEnd": "2026-03-01T09:00:00.000Z"
    },
    {
      "id": "konya-27",
      "name": "BATUMAK ECZANESİ",
      "address": "TURGUTLU MAHALLESİ KONYA CADDESİ NO:175A",
      "phone": "903328342005",
      "district": "Kadinhani",
      "city": "Konya",
      "latitude": 38.2400385,
      "longitude": 32.2110813,
      "dutyStart": "2026-02-28T09:00:00.000Z",
      "dutyEnd": "2026-03-01T09:00:00.000Z"
    },
    {
      "id": "konya-28",
      "name": "BAŞAK ECZANESİ",
      "address": "HACI ÖMERLİ MAHALLESİ KONYA CADDESİ NO:21A",
      "phone": "903327551463",
      "district": "Karapinar",
      "city": "Konya",
      "latitude": 37.7148025,
      "longitude": 33.5447695,
      "dutyStart": "2026-02-28T09:00:00.000Z",
      "dutyEnd": "2026-03-01T09:00:00.000Z"
    },
    {
      "id": "konya-29",
      "name": "SIHHAT ECZANESİ",
      "address": "KEMALİYE MAHALLESİ 138243 SOKAK NO:14A",
      "phone": "905434744428",
      "district": "Kulu",
      "city": "Konya",
      "latitude": 39.0849,
      "longitude": 33.07709,
      "dutyStart": "2026-02-28T09:00:00.000Z",
      "dutyEnd": "2026-03-01T09:00:00.000Z"
    },
    {
      "id": "konya-30",
      "name": "ÖZŞAHİN ECZANESİ",
      "address": "DOĞU İSTASYON MAHALLESİ YALÇIN CADDESİ NO:12",
      "phone": "903326171175",
      "district": "Sarayönü",
      "city": "Konya",
      "latitude": 38.26076,
      "longitude": 32.40803,
      "dutyStart": "2026-02-28T09:00:00.000Z",
      "dutyEnd": "2026-03-01T09:00:00.000Z"
    },
    {
      "id": "konya-31",
      "name": "YAŞAM ECZANESİ",
      "address": "HACI SEYİT ALİ MAHALLESİ HÜRRİYET CADDESİ NO:23C",
      "phone": "903325823139",
      "district": "Seydi̇şehi̇r",
      "city": "Konya",
      "latitude": 37.4195927,
      "longitude": 31.8462982,
      "dutyStart": "2026-02-28T09:00:00.000Z",
      "dutyEnd": "2026-03-01T09:00:00.000Z"
    },
    {
      "id": "konya-32",
      "name": "TUZLUKÇU ECZANESİ",
      "address": "AŞAĞI MAHALLESİ AKŞEHİR CADDESİ NO:38",
      "phone": "903328612866",
      "district": "Tuzlukçu",
      "city": "Konya",
      "latitude": 38.4760048,
      "longitude": 31.6266913,
      "dutyStart": "2026-02-28T09:00:00.000Z",
      "dutyEnd": "2026-03-01T09:00:00.000Z"
    },
    {
      "id": "konya-33",
      "name": "BİZİM ECZANESİ",
      "address": "YENİ MAHALLE HÜKÜMET CADDESİ NO:73A",
      "phone": "903328512300",
      "district": "Yunak",
      "city": "Konya",
      "latitude": 38.8141731,
      "longitude": 31.7351409,
      "dutyStart": "2026-02-28T09:00:00.000Z",
      "dutyEnd": "2026-03-01T09:00:00.000Z"
    }
  ]
}