{
  "city": "mersin",
  "cityName": "Mersin",
  "cityId": 33,
  "date": "2026-02-28",
  "updatedAt": "2026-02-28T18:30:00.667Z",
  "count": 24,
  "pharmacies": [
    {
      "id": "mersin-0",
      "name": "ATLAS ECZANESİ",
      "address": "MENTEŞ MH.25161 SK. NO:27",
      "phone": "03243369980",
      "district": "Yeni̇şehi̇r",
      "city": "Mersin",
      "latitude": 36.79256,
      "longitude": 34.582573,
      "dutyStart": "2026-02-28T08:30:00.000Z",
      "dutyEnd": "2026-03-01T08:30:00.000Z"
    },
    {
      "id": "mersin-1",
      "name": "AYTAÇ ECZANESİ",
      "address": "YENI MAH.KELVELI CAD. ZIYA ÜNSAL APT.A BLOK ALTI. NO:3/D",
      "phone": "03243592200",
      "district": "Mezi̇tli̇",
      "city": "Mersin",
      "latitude": 36.756115,
      "longitude": 34.537696,
      "dutyStart": "2026-02-28T08:30:00.000Z",
      "dutyEnd": "2026-03-01T08:30:00.000Z"
    },
    {
      "id": "mersin-2",
      "name": "HATİ ECZANESİ",
      "address": "DENİZ MH. GAZİ PAŞA CD. NO:41/C",
      "phone": "03245033020",
      "district": "Mezi̇tli̇",
      "city": "Mersin",
      "latitude": 36.698383,
      "longitude": 34.452768,
      "dutyStart": "2026-02-28T08:30:00.000Z",
      "dutyEnd": "2026-03-01T08:30:00.000Z"
    },
    {
      "id": "mersin-3",
      "name": "JİYAN ECZANESİ",
      "address": "ŞEVKET SÜMER MAH. 5975 SOK. NO:59/A",
      "phone": "03242342078",
      "district": "Akdeni̇z",
      "city": "Mersin",
      "latitude": 36.825434,
      "longitude": 34.64218,
      "dutyStart": "2026-02-28T08:30:00.000Z",
      "dutyEnd": "2026-03-01T08:30:00.000Z"
    },
    {
      "id": "mersin-4",
      "name": "MAVİSU ECZANESİ",
      "address": "SAGLIK MAH.86019 SOK.ISTANBUL AP.ALTI NO:64/A-B",
      "phone": "03243208960",
      "district": "Toroslar",
      "city": "Mersin",
      "latitude": 36.813854,
      "longitude": 34.628332,
      "dutyStart": "2026-02-28T08:30:00.000Z",
      "dutyEnd": "2026-03-01T08:30:00.000Z"
    },
    {
      "id": "mersin-5",
      "name": "METİN ECZANESİ",
      "address": "İHSANİYE MH. KUVAİ MİLLİYE CD. NO:175/D",
      "phone": "03243362660",
      "district": "Akdeni̇z",
      "city": "Mersin",
      "latitude": 36.809282,
      "longitude": 34.620819,
      "dutyStart": "2026-02-28T08:30:00.000Z",
      "dutyEnd": "2026-03-01T08:30:00.000Z"
    },
    {
      "id": "mersin-6",
      "name": "OVALI ECZANESİ",
      "address": "YENİ MAH. 5328 SK. NO:5C",
      "phone": "03242311177",
      "district": "Akdeni̇z",
      "city": "Mersin",
      "latitude": 36.805267,
      "longitude": 34.633529,
      "dutyStart": "2026-02-28T08:30:00.000Z",
      "dutyEnd": "2026-03-01T08:30:00.000Z"
    },
    {
      "id": "mersin-7",
      "name": "ÖYKÜ ECZANESİ",
      "address": "GAZI MAH.1304.SOK.NO:12/A",
      "phone": "03243290585",
      "district": "Yeni̇şehi̇r",
      "city": "Mersin",
      "latitude": 36.78345,
      "longitude": 34.603897,
      "dutyStart": "2026-02-28T08:30:00.000Z",
      "dutyEnd": "2026-03-01T08:30:00.000Z"
    },
    {
      "id": "mersin-8",
      "name": "PAPATYA ECZANESİ",
      "address": "BATIKENT MH. İSTEMİHAN TALAY CD. LİFE COURT SİT. A BLOK NO:169 A/F",
      "phone": "03243363569",
      "district": "Yeni̇şehi̇r",
      "city": "Mersin",
      "latitude": 36.781125,
      "longitude": 34.554761,
      "dutyStart": "2026-02-28T08:30:00.000Z",
      "dutyEnd": "2026-03-01T08:30:00.000Z"
    },
    {
      "id": "mersin-9",
      "name": "TUNA ECZANESİ",
      "address": "KORUKENT MH. YAVUZ SULTAN SELİM BULV. NO:39CH",
      "phone": "03245039500",
      "district": "Toroslar",
      "city": "Mersin",
      "latitude": 36.854839,
      "longitude": 34.610211,
      "dutyStart": "2026-02-28T08:30:00.000Z",
      "dutyEnd": "2026-03-01T08:30:00.000Z"
    },
    {
      "id": "mersin-10",
      "name": "BEREKET ECZANESİ",
      "address": "ANIT MH.321 SK.NO:18/1A",
      "phone": "03246258400",
      "district": "Tarsus",
      "city": "Mersin",
      "latitude": 36.920517,
      "longitude": 34.877697,
      "dutyStart": "2026-02-28T08:30:00.000Z",
      "dutyEnd": "2026-03-01T08:30:00.000Z"
    },
    {
      "id": "mersin-11",
      "name": "HAYAT ECZANESİ",
      "address": "REŞADİYE MH. ALİ MENTEŞOĞLU BULV. NO:6/1B",
      "phone": "03246249693",
      "district": "Tarsus",
      "city": "Mersin",
      "latitude": 36.918354,
      "longitude": 34.896911,
      "dutyStart": "2026-02-28T08:30:00.000Z",
      "dutyEnd": "2026-03-01T08:30:00.000Z"
    },
    {
      "id": "mersin-12",
      "name": "SEKMEN ECZANESİ",
      "address": "ATATÜRK CAD.ELIYESIL APT.NO:68/C",
      "phone": "03246222108",
      "district": "Tarsus",
      "city": "Mersin",
      "latitude": 36.917635,
      "longitude": 34.886917,
      "dutyStart": "2026-02-28T08:30:00.000Z",
      "dutyEnd": "2026-03-01T08:30:00.000Z"
    },
    {
      "id": "mersin-13",
      "name": "UZUN ECZANESİ",
      "address": "82 EVLER MH. İBNİ SİNA BULV. No:10/A",
      "phone": "03246131581",
      "district": "Tarsus",
      "city": "Mersin",
      "latitude": 36.915629,
      "longitude": 34.915117,
      "dutyStart": "2026-02-28T08:30:00.000Z",
      "dutyEnd": "2026-03-01T08:30:00.000Z"
    },
    {
      "id": "mersin-14",
      "name": "ESRA ECZANESİ",
      "address": "GÖKSU MH. 67 SK. NO:11/D",
      "phone": "03247141433",
      "district": "Si̇li̇fke",
      "city": "Mersin",
      "latitude": 36.381266,
      "longitude": 33.930716,
      "dutyStart": "2026-02-28T08:30:00.000Z",
      "dutyEnd": "2026-03-01T08:30:00.000Z"
    },
    {
      "id": "mersin-15",
      "name": "SAĞINDA ECZANESİ",
      "address": "BURUNUCU MH. HASTANE CD. NO:6/C",
      "phone": "03247122280",
      "district": "Si̇li̇fke",
      "city": "Mersin",
      "latitude": 36.343463,
      "longitude": 33.918134,
      "dutyStart": "2026-02-28T08:30:00.000Z",
      "dutyEnd": "2026-03-01T08:30:00.000Z"
    },
    {
      "id": "mersin-16",
      "name": "SAĞLIK ECZANESİ",
      "address": "TAŞUCU MAH. İSMET İNÖNÜ CAD.NO:6/D",
      "phone": "03247414067",
      "district": "Si̇li̇fke",
      "city": "Mersin",
      "latitude": 36.319651,
      "longitude": 33.880229,
      "dutyStart": "2026-02-28T08:30:00.000Z",
      "dutyEnd": "2026-03-01T08:30:00.000Z"
    },
    {
      "id": "mersin-17",
      "name": "MUTLU ECZANESİ",
      "address": "ATATÜRK BULV. NO:39/B",
      "phone": "03247745888",
      "district": "Mut",
      "city": "Mersin",
      "latitude": 36.644304,
      "longitude": 33.438777,
      "dutyStart": "2026-02-28T08:30:00.000Z",
      "dutyEnd": "2026-03-01T08:30:00.000Z"
    },
    {
      "id": "mersin-18",
      "name": "YENİ ŞİFA ECZANESİ",
      "address": "SARAY MAH.AKKAVAK CAD. NO:12/ABC",
      "phone": "03247517062",
      "district": "Gülnar",
      "city": "Mersin",
      "latitude": 36.338405,
      "longitude": 33.40321,
      "dutyStart": "2026-02-28T08:30:00.000Z",
      "dutyEnd": "2026-03-01T08:30:00.000Z"
    },
    {
      "id": "mersin-19",
      "name": "GÖKÜŞ ECZANESİ",
      "address": "MERKEZ MAH. KAZIM KARABEKİR CAD.NO:84/C",
      "phone": "03245151242",
      "district": "Erdemli̇",
      "city": "Mersin",
      "latitude": 36.611077,
      "longitude": 34.302406,
      "dutyStart": "2026-02-28T08:30:00.000Z",
      "dutyEnd": "2026-03-01T08:30:00.000Z"
    },
    {
      "id": "mersin-20",
      "name": "HATİPOĞLU ECZANESİ",
      "address": "MERKEZ MAH.TURBE CAD.NO:3/A",
      "phone": "03245151343",
      "district": "Erdemli̇",
      "city": "Mersin",
      "latitude": 36.606597,
      "longitude": 34.309568,
      "dutyStart": "2026-02-28T08:30:00.000Z",
      "dutyEnd": "2026-03-01T08:30:00.000Z"
    },
    {
      "id": "mersin-21",
      "name": "SAĞLIK ECZANESİ",
      "address": "MERKEZ MAH SAĞLIK CAD.NO:1",
      "phone": "03248514969",
      "district": "Bozyazi",
      "city": "Mersin",
      "latitude": 36.105681,
      "longitude": 32.970258,
      "dutyStart": "2026-02-28T08:30:00.000Z",
      "dutyEnd": "2026-03-01T08:30:00.000Z"
    },
    {
      "id": "mersin-22",
      "name": "DEVA ECZANESİ",
      "address": "CUMHURIYET MAH. KENAN EVREN CD. NO:1/C",
      "phone": "03248412224",
      "district": "Aydincik",
      "city": "Mersin",
      "latitude": 36.152833,
      "longitude": 33.338789,
      "dutyStart": "2026-02-28T08:30:00.000Z",
      "dutyEnd": "2026-03-01T08:30:00.000Z"
    },
    {
      "id": "mersin-23",
      "name": "ERTÜRK ECZANESİ",
      "address": "SAGLIK MAH.DR.ABDULLAH ÇELIK CAD.NO:6/A",
      "phone": "03248149911",
      "district": "Anamur",
      "city": "Mersin",
      "latitude": 36.080592,
      "longitude": 32.840587,
      "dutyStart": "2026-02-28T08:30:00.000Z",
      "dutyEnd": "2026-03-01T08:30:00.000Z"
    }
  ]
}