{
  "city": "samsun",
  "cityName": "Samsun",
  "cityId": 55,
  "date": "2026-02-28",
  "updatedAt": "2026-02-28T03:00:03.415Z",
  "count": 20,
  "pharmacies": [
    {
      "id": "samsun-0",
      "name": "FULYA ECZANESİ",
      "address": "CEDİT MAH. EBUSUUD EFENDİ CAD. NO:115/A",
      "phone": "03624471150",
      "district": "İlkadım",
      "city": "Samsun",
      "latitude": 41.303843,
      "longitude": 36.328015,
      "dutyStart": "2026-02-28T08:30:00.000Z",
      "dutyEnd": "2026-03-01T08:30:00.000Z"
    },
    {
      "id": "samsun-1",
      "name": "DİLA ECZANESİ",
      "address": "BAHÇELİEVLER MAH.İSTİKLAL CADDESİ NO:132",
      "phone": "03622334300",
      "district": "İlkadım",
      "city": "Samsun",
      "latitude": 41.281825,
      "longitude": 36.338672,
      "dutyStart": "2026-02-28T08:30:00.000Z",
      "dutyEnd": "2026-03-01T08:30:00.000Z"
    },
    {
      "id": "samsun-2",
      "name": "UZUN ECZANESİ",
      "address": "ULUGAZİ MAH. 100.YIL BULVARI NO:118",
      "phone": "03624200372",
      "district": "İlkadım",
      "city": "Samsun",
      "latitude": 41.288992,
      "longitude": 36.328475,
      "dutyStart": "2026-02-28T08:30:00.000Z",
      "dutyEnd": "2026-03-01T08:30:00.000Z"
    },
    {
      "id": "samsun-3",
      "name": "SİNEM ECZANESİ",
      "address": "SOĞUKSU MAH. ŞEHİT BİRİNCİ CAD. NO:128",
      "phone": "03622285255",
      "district": "Canik",
      "city": "Samsun",
      "latitude": 41.264399,
      "longitude": 36.352114,
      "dutyStart": "2026-02-28T08:30:00.000Z",
      "dutyEnd": "2026-03-01T08:30:00.000Z"
    },
    {
      "id": "samsun-4",
      "name": "ÖYKÜ ECZANESİ",
      "address": "MEVLANA MAH. ABDULLAH GÜL BULVARI NO:27/B",
      "phone": "03629996958",
      "district": "Atakum",
      "city": "Samsun",
      "latitude": 41.325414,
      "longitude": 36.284832,
      "dutyStart": "2026-02-28T08:30:00.000Z",
      "dutyEnd": "2026-03-01T08:30:00.000Z"
    },
    {
      "id": "samsun-5",
      "name": "SİNEM ECZANESİ",
      "address": "YENİMAHALLE MAH. ATAKENT BULVARI NO:88",
      "phone": "03624280855",
      "district": "Atakum",
      "city": "Samsun",
      "latitude": 41.341773,
      "longitude": 36.243767,
      "dutyStart": "2026-02-28T08:30:00.000Z",
      "dutyEnd": "2026-03-01T08:30:00.000Z"
    },
    {
      "id": "samsun-6",
      "name": "FAZİLET ECZANESİ",
      "address": "19 MAYIS MAH. TEYFİK ÖZTÜRK CAD. NO:4-6/C",
      "phone": "03622560651",
      "district": "Tekkeköy",
      "city": "Samsun",
      "latitude": 41.212819,
      "longitude": 36.459526,
      "dutyStart": "2026-02-28T08:30:00.000Z",
      "dutyEnd": "2026-03-01T08:30:00.000Z"
    },
    {
      "id": "samsun-7",
      "name": "YAVUZ ECZANESİ",
      "address": "YENİCAMİ MAH. ATATÜRK CAD. NI:8/A",
      "phone": "03626213440",
      "district": "Alaçam",
      "city": "Samsun",
      "latitude": 41.60652,
      "longitude": 35.596016,
      "dutyStart": "2026-02-28T08:30:00.000Z",
      "dutyEnd": "2026-03-01T08:30:00.000Z"
    },
    {
      "id": "samsun-8",
      "name": "ASARCIK ECZANESİ",
      "address": "CUMHURİYET MEYDANI. NO:38/B",
      "phone": "03627912784",
      "district": "Asarcık",
      "city": "Samsun",
      "latitude": 41.036208,
      "longitude": 36.234064,
      "dutyStart": "2026-02-28T08:30:00.000Z",
      "dutyEnd": "2026-03-01T08:30:00.000Z"
    },
    {
      "id": "samsun-9",
      "name": "YİĞİT ECZANESİ",
      "address": "EYÜP SULTAN MAH. ŞEYH ŞAMİL SOK. NO:1AA",
      "phone": "03628132140",
      "district": "Ayvacık",
      "city": "Samsun",
      "latitude": 41.00293,
      "longitude": 36.630838,
      "dutyStart": "2026-02-28T08:30:00.000Z",
      "dutyEnd": "2026-03-01T08:30:00.000Z"
    },
    {
      "id": "samsun-10",
      "name": "YAŞAM ECZANESİ",
      "address": "EMİREFENDİ MAH. SÜLEYMAN TÜRK CAD. NO:13/B",
      "phone": "03625443322",
      "district": "Bafra",
      "city": "Samsun",
      "latitude": 41.559326,
      "longitude": 35.903985,
      "dutyStart": "2026-02-28T08:30:00.000Z",
      "dutyEnd": "2026-03-01T08:30:00.000Z"
    },
    {
      "id": "samsun-11",
      "name": "MEYDAN ECZANESİ",
      "address": "ORTA MAH. DR.TEVFIK TÜRKER CAD. NO:6",
      "phone": "03628331294",
      "district": "Çarşamba",
      "city": "Samsun",
      "latitude": 41.198422,
      "longitude": 36.726646,
      "dutyStart": "2026-02-28T08:30:00.000Z",
      "dutyEnd": "2026-03-01T08:30:00.000Z"
    },
    {
      "id": "samsun-12",
      "name": "25 MAYIS ECZANESİ",
      "address": "25 MAYIS MAH. J. ER ZEKERİYA YÜKSEL SOK. NO:15/1",
      "phone": "03627142555",
      "district": "Havza",
      "city": "Samsun",
      "latitude": 40.968809,
      "longitude": 35.666547,
      "dutyStart": "2026-02-28T08:30:00.000Z",
      "dutyEnd": "2026-03-01T08:30:00.000Z"
    },
    {
      "id": "samsun-13",
      "name": "GÜLTER  ECZANESİ",
      "address": "YAŞARDOĞU MAH. ADNAN MENDERES CAD. NO:102",
      "phone": "03627414561",
      "district": "Kavak",
      "city": "Samsun",
      "latitude": 41.073722,
      "longitude": 36.035511,
      "dutyStart": "2026-02-28T08:30:00.000Z",
      "dutyEnd": "2026-03-01T08:30:00.000Z"
    },
    {
      "id": "samsun-14",
      "name": "LADİK MUTLU ECZANESİ",
      "address": "BAHŞİ MAH. GAZİLER CAD.NO:36/C",
      "phone": "03627714534",
      "district": "Ladik",
      "city": "Samsun",
      "latitude": 40.909756,
      "longitude": 35.894448,
      "dutyStart": "2026-02-28T08:30:00.000Z",
      "dutyEnd": "2026-03-01T08:30:00.000Z"
    },
    {
      "id": "samsun-15",
      "name": "DEVA ECZANESİ",
      "address": "PAZAR MAH.FATİH CAD. NO:51",
      "phone": "03625115051",
      "district": "Ondokuzmayıs",
      "city": "Samsun",
      "latitude": 41.492839,
      "longitude": 36.074831,
      "dutyStart": "2026-02-28T08:30:00.000Z",
      "dutyEnd": "2026-03-01T08:30:00.000Z"
    },
    {
      "id": "samsun-16",
      "name": "YILDIZ ECZANESİ",
      "address": "GÖKÇELİ MAH:15 TEMMUZ ŞEHİTLER MEYDANI 13/D",
      "phone": "03628212479",
      "district": "Salıpazarı",
      "city": "Samsun",
      "latitude": 41.080836,
      "longitude": 36.827575,
      "dutyStart": "2026-02-28T08:30:00.000Z",
      "dutyEnd": "2026-03-01T08:30:00.000Z"
    },
    {
      "id": "samsun-17",
      "name": "SABUNCU ECZANESİ",
      "address": "CUMHURİYET MAH.KEMER CAD.NO:5",
      "phone": "03628762436",
      "district": "Terme",
      "city": "Samsun",
      "latitude": 41.213257,
      "longitude": 36.95527,
      "dutyStart": "2026-02-28T08:30:00.000Z",
      "dutyEnd": "2026-03-01T08:30:00.000Z"
    },
    {
      "id": "samsun-18",
      "name": "ŞEN ECZANESİ",
      "address": "FAZIL AHMET PAŞA MAH: 107. SOK:1-3/3-2",
      "phone": "03626472146",
      "district": "Vezirköprü",
      "city": "Samsun",
      "latitude": 41.14372,
      "longitude": 35.460932,
      "dutyStart": "2026-02-28T08:30:00.000Z",
      "dutyEnd": "2026-03-01T08:30:00.000Z"
    },
    {
      "id": "samsun-25",
      "name": "TÜRKELİ ECZANESİ",
      "address": "GÜZELYURT MAH. OSMAN GAZİ SOK. NO:9/B",
      "phone": "03686712420",
      "district": "Türkeli",
      "city": "Samsun",
      "latitude": 41.94604,
      "longitude": 34.337565,
      "dutyStart": "2026-02-28T08:30:00.000Z",
      "dutyEnd": "2026-03-01T08:30:00.000Z"
    }
  ]
}