{
  "city": "izmir",
  "cityName": "İzmir",
  "cityId": 35,
  "date": "2026-02-19",
  "updatedAt": "2026-02-18T21:00:52.111Z",
  "count": 72,
  "pharmacies": [
    {
      "id": "izmir-0-4",
      "name": "ECE SARI ECZANESİ",
      "address": "BİRLİK MH. 4202/2 SK. NO:58/A ALTINDAĞ",
      "phone": "02324337033",
      "district": "ALTINDAĞ",
      "city": "İzmir",
      "latitude": 38.42927,
      "longitude": 27.195993,
      "dutyStart": "2026-02-18T08:00:00.000Z",
      "dutyEnd": "2026-02-19T08:00:00.000Z"
    },
    {
      "id": "izmir-1-6",
      "name": "SAKARYA ECZANESİ",
      "address": "TELEFERİK MAH. SAKARYA CAD. NO:39/A",
      "phone": "02322785996",
      "district": "BALÇOVA",
      "city": "İzmir",
      "latitude": 38.385308,
      "longitude": 27.055593,
      "dutyStart": "2026-02-18T08:00:00.000Z",
      "dutyEnd": "2026-02-19T08:00:00.000Z"
    },
    {
      "id": "izmir-2-7",
      "name": "ECEM  ECZANESİ",
      "address": "BASINSİTESİ MAH. GAZETECİ HASAN TAHSİN CAD. NO:186/A ",
      "phone": "02322438777",
      "district": "BASIN SİTESİ",
      "city": "İzmir",
      "latitude": 38.398627,
      "longitude": 27.102296,
      "dutyStart": "2026-02-18T08:00:00.000Z",
      "dutyEnd": "2026-02-19T08:00:00.000Z"
    },
    {
      "id": "izmir-3-9",
      "name": "BARIS SAHIN ECZANESİ",
      "address": "ALPARSLAN MH. 1620/15 SK. NO:9",
      "phone": "02323458485",
      "district": "BAYRAKLI",
      "city": "İzmir",
      "latitude": 38.470098,
      "longitude": 27.166675,
      "dutyStart": "2026-02-18T08:00:00.000Z",
      "dutyEnd": "2026-02-19T08:00:00.000Z"
    },
    {
      "id": "izmir-4-10",
      "name": "NATURA ECZANESİ",
      "address": "ERZENE MH. KAZIM KARABEKİR CD. NO:5/B",
      "phone": "02323513335",
      "district": "BORNOVA 1",
      "city": "İzmir",
      "latitude": 38.466067,
      "longitude": 27.220215,
      "dutyStart": "2026-02-18T08:00:00.000Z",
      "dutyEnd": "2026-02-19T08:00:00.000Z"
    },
    {
      "id": "izmir-5-11",
      "name": "PLATİN ECZANESİ",
      "address": "KAZIM DİRİK MH. 367/7 SK. NO:14/I",
      "phone": "02324633737",
      "district": "BORNOVA 2",
      "city": "İzmir",
      "latitude": 38.447317,
      "longitude": 27.205741,
      "dutyStart": "2026-02-18T08:00:00.000Z",
      "dutyEnd": "2026-02-19T08:00:00.000Z"
    },
    {
      "id": "izmir-6-12",
      "name": "KÖSE ECZANESİ",
      "address": "MANSUROĞLU MAH. HAŞİM İŞCAN CAD. NO:7/A",
      "phone": "02320919788",
      "district": "BORNOVA 3",
      "city": "İzmir",
      "latitude": 38.456235,
      "longitude": 27.199596,
      "dutyStart": "2026-02-18T08:00:00.000Z",
      "dutyEnd": "2026-02-19T08:00:00.000Z"
    },
    {
      "id": "izmir-7-14",
      "name": "BURÇAK ECZANESİ",
      "address": "BAHÇELİEVLER MH. SAİM ÇIKRIKÇI CD. NO:104 BOZYAKA",
      "phone": "02322621058",
      "district": "BOZYAKA",
      "city": "İzmir",
      "latitude": 38.398303,
      "longitude": 27.123366,
      "dutyStart": "2026-02-18T08:00:00.000Z",
      "dutyEnd": "2026-02-19T08:00:00.000Z"
    },
    {
      "id": "izmir-8-16",
      "name": "ELÇIN ECZANESİ",
      "address": "5401/2 SOK. NO:7/A ÇAMDIBI",
      "phone": "02324863566",
      "district": "ÇAMDİBİ",
      "city": "İzmir",
      "latitude": 38.435089,
      "longitude": 27.181087,
      "dutyStart": "2026-02-18T08:00:00.000Z",
      "dutyEnd": "2026-02-19T08:00:00.000Z"
    },
    {
      "id": "izmir-9-17",
      "name": "CEM ECZANESİ",
      "address": "YENİMAHALLE MAH. ÖĞRETMEN EMEL SUBAŞI AY SOK. NO:65/A",
      "phone": "02323294344",
      "district": "ÇİĞLİ",
      "city": "İzmir",
      "latitude": 38.496415,
      "longitude": 27.055229,
      "dutyStart": "2026-02-18T08:00:00.000Z",
      "dutyEnd": "2026-02-19T08:00:00.000Z"
    },
    {
      "id": "izmir-10-17",
      "name": "GÜMÜSIGNE ECZANESİ",
      "address": "KÖYIÇI MAH. DERE CAD. NO:16  ÇIGLI-IZMIR",
      "phone": "02323861337",
      "district": "ÇİĞLİ",
      "city": "İzmir",
      "latitude": 38.492768,
      "longitude": 27.065505,
      "dutyStart": "2026-02-18T08:00:00.000Z",
      "dutyEnd": "2026-02-19T08:00:00.000Z"
    },
    {
      "id": "izmir-11-17",
      "name": "SU ECZANESİ",
      "address": "EVKA-5 MAH. 8930 SOK NO 5/A(MİGROS YANI)",
      "phone": "02323841515",
      "district": "ÇİĞLİ",
      "city": "İzmir",
      "latitude": 38.518209,
      "longitude": 27.055973,
      "dutyStart": "2026-02-18T08:00:00.000Z",
      "dutyEnd": "2026-02-19T08:00:00.000Z"
    },
    {
      "id": "izmir-12-19",
      "name": "KARABİNA ECZANESİ",
      "address": "ALAÇATI MH. ATATÜRK CD. NO:27/AB",
      "phone": "02327167494",
      "district": "ÇEŞME",
      "city": "İzmir",
      "latitude": 38.288434,
      "longitude": 26.376097,
      "dutyStart": "2026-02-18T08:00:00.000Z",
      "dutyEnd": "2026-02-19T08:00:00.000Z"
    },
    {
      "id": "izmir-13-19",
      "name": "ÖZKAN  ECZANESİ",
      "address": "MUSALLA MAH. 2122 SOK. NO:88/B",
      "phone": "02327120071",
      "district": "ÇEŞME",
      "city": "İzmir",
      "latitude": 38.31647,
      "longitude": 26.305751,
      "dutyStart": "2026-02-18T08:00:00.000Z",
      "dutyEnd": "2026-02-19T08:00:00.000Z"
    },
    {
      "id": "izmir-14-20",
      "name": "YAREN ECZANESİ",
      "address": "GÜNEŞLİ MAH. 526 SOK. NO:21/A",
      "phone": "02322627777",
      "district": "EŞREFPAŞA ",
      "city": "İzmir",
      "latitude": 38.400901,
      "longitude": 27.127746,
      "dutyStart": "2026-02-18T08:00:00.000Z",
      "dutyEnd": "2026-02-19T08:00:00.000Z"
    },
    {
      "id": "izmir-15-22",
      "name": "GÜNEŞ ECZANESİ",
      "address": "GAZİ MAH. ÖNDER CAD. NO:97/1A",
      "phone": "02322510990",
      "district": "GAZİEMİR",
      "city": "İzmir",
      "latitude": 38.325214,
      "longitude": 27.135661,
      "dutyStart": "2026-02-18T08:00:00.000Z",
      "dutyEnd": "2026-02-19T08:00:00.000Z"
    },
    {
      "id": "izmir-16-23",
      "name": "GÜLÜM ECZANESİ",
      "address": "FIRAT MH. 647/8 SK. NO:24/A",
      "phone": "02329660115",
      "district": "GEDİZ",
      "city": "İzmir",
      "latitude": 38.372618,
      "longitude": 27.15069,
      "dutyStart": "2026-02-18T08:00:00.000Z",
      "dutyEnd": "2026-02-19T08:00:00.000Z"
    },
    {
      "id": "izmir-17-25",
      "name": "IRMAK ECZANESİ",
      "address": "ZEYBEK MAH. 2388 SOK. NO:4/A",
      "phone": "02324578080",
      "district": "GÜLTEPE",
      "city": "İzmir",
      "latitude": 38.415934,
      "longitude": 27.172843,
      "dutyStart": "2026-02-18T08:00:00.000Z",
      "dutyEnd": "2026-02-19T08:00:00.000Z"
    },
    {
      "id": "izmir-18-26",
      "name": "CANAN AÇIK ECZANESİ",
      "address": "SOĞUKKUYU MH. 1847/26 SK. NO:5/B ",
      "phone": "02323630065",
      "district": "GÜMÜŞPALA",
      "city": "İzmir",
      "latitude": 38.478778,
      "longitude": 27.118783,
      "dutyStart": "2026-02-18T08:00:00.000Z",
      "dutyEnd": "2026-02-19T08:00:00.000Z"
    },
    {
      "id": "izmir-19-28",
      "name": "MAYIS ECZANESİ",
      "address": "YALI MAH. İSTİKBAL CAD. NO:10/B",
      "phone": "02322342230",
      "district": "GÜZELBAHÇE",
      "city": "İzmir",
      "latitude": 38.377515,
      "longitude": 26.892092,
      "dutyStart": "2026-02-18T08:00:00.000Z",
      "dutyEnd": "2026-02-19T08:00:00.000Z"
    },
    {
      "id": "izmir-20-31",
      "name": "DERİN MAVİ ECZANESİ",
      "address": "KORUTÜRK MAH. VALİ HÜSEYİN ÖĞÜTÇEN CAD. NO:55/A-3",
      "phone": "02322782884",
      "district": "İNCİRALTI",
      "city": "İzmir",
      "latitude": 38.390228,
      "longitude": 27.038226,
      "dutyStart": "2026-02-18T08:00:00.000Z",
      "dutyEnd": "2026-02-19T08:00:00.000Z"
    },
    {
      "id": "izmir-21-32",
      "name": "UTKU NAZ  ECZANESİ",
      "address": "AYDIN MH. 4270 SK. NO:77/A ",
      "phone": "02322077701",
      "district": "KARABAĞLAR",
      "city": "İzmir",
      "latitude": 38.368131,
      "longitude": 27.131985,
      "dutyStart": "2026-02-18T08:00:00.000Z",
      "dutyEnd": "2026-02-19T08:00:00.000Z"
    },
    {
      "id": "izmir-22-37",
      "name": "NARLIDERE ECZANESİ",
      "address": "ÇATALKAYA MH.MITHATPASA CD.NO:423/B",
      "phone": "02322382500",
      "district": "NARLIDERE",
      "city": "İzmir",
      "latitude": 38.39588,
      "longitude": 26.998382,
      "dutyStart": "2026-02-18T08:00:00.000Z",
      "dutyEnd": "2026-02-19T08:00:00.000Z"
    },
    {
      "id": "izmir-23-39",
      "name": "YILMAZ ECZANESİ",
      "address": "PINARBASI MEYD. NO:8/A",
      "phone": "02324790022",
      "district": "PINARBAŞI",
      "city": "İzmir",
      "latitude": 38.427995,
      "longitude": 27.266125,
      "dutyStart": "2026-02-18T08:00:00.000Z",
      "dutyEnd": "2026-02-19T08:00:00.000Z"
    },
    {
      "id": "izmir-24-42",
      "name": "YENI YESIM ECZANESİ",
      "address": "KILIÇREİS MH. ŞÜKRÜ SARAÇOĞLU CD NO:47",
      "phone": "02322507985",
      "district": "ÜÇYOL",
      "city": "İzmir",
      "latitude": 38.406062,
      "longitude": 27.117835,
      "dutyStart": "2026-02-18T08:00:00.000Z",
      "dutyEnd": "2026-02-19T08:00:00.000Z"
    },
    {
      "id": "izmir-25-43",
      "name": "SEÇİL ECZANESİ",
      "address": "GÜNEY MAH. GAZİLER CAD. NO:448",
      "phone": "02324583321",
      "district": "YENİŞEHİR",
      "city": "İzmir",
      "latitude": 38.423142,
      "longitude": 27.162524,
      "dutyStart": "2026-02-18T08:00:00.000Z",
      "dutyEnd": "2026-02-19T08:00:00.000Z"
    },
    {
      "id": "izmir-26-44",
      "name": "TAŞ ECZANESİ",
      "address": "ESENLİK MAH. ANT CAD. NO:23/A YEŞİLYURT",
      "phone": "02322624757",
      "district": "YEŞİLYURT",
      "city": "İzmir",
      "latitude": 38.396404,
      "longitude": 27.113345,
      "dutyStart": "2026-02-18T08:00:00.000Z",
      "dutyEnd": "2026-02-19T08:00:00.000Z"
    },
    {
      "id": "izmir-27-45",
      "name": "MEHTAP ECZANESİ",
      "address": "YEDİGÖLLER İŞ MERKEZİ TANSAŞ ÜSTÜ NO:125/1",
      "phone": "02324405305",
      "district": "EVKA 1",
      "city": "İzmir",
      "latitude": 38.399517,
      "longitude": 27.192506,
      "dutyStart": "2026-02-18T08:00:00.000Z",
      "dutyEnd": "2026-02-19T08:00:00.000Z"
    },
    {
      "id": "izmir-28-45",
      "name": "NAZ ECZANESİ",
      "address": "MENDERES MAH. GAZİ OSMAN PAŞA CAD. NO:3/A",
      "phone": "02324520149",
      "district": "EVKA 1",
      "city": "İzmir",
      "latitude": 38.3949,
      "longitude": 27.169011,
      "dutyStart": "2026-02-18T08:00:00.000Z",
      "dutyEnd": "2026-02-19T08:00:00.000Z"
    },
    {
      "id": "izmir-29-46",
      "name": "SULTAN ECZANESİ",
      "address": "AHMET PIRISTINA BLV.NO.70/A-B",
      "phone": "02324540676",
      "district": "BUCA 2",
      "city": "İzmir",
      "latitude": 38.369867,
      "longitude": 27.194005,
      "dutyStart": "2026-02-18T08:00:00.000Z",
      "dutyEnd": "2026-02-19T08:00:00.000Z"
    },
    {
      "id": "izmir-30-48",
      "name": "NESRİN ECZANESİ",
      "address": "FATİH MAH. 1099 SOK. NO:70/B SARNIÇ",
      "phone": "02322813808",
      "district": "SARNIÇ",
      "city": "İzmir",
      "latitude": 38.302093,
      "longitude": 27.173455,
      "dutyStart": "2026-02-18T08:00:00.000Z",
      "dutyEnd": "2026-02-19T08:00:00.000Z"
    },
    {
      "id": "izmir-31-50",
      "name": "HÜRRİYET  ECZANESİ",
      "address": "HÜRRİYET MH.435 SK. NO:6/A",
      "phone": "02324383822",
      "district": "ŞİRİNYER",
      "city": "İzmir",
      "latitude": 38.400119,
      "longitude": 27.148779,
      "dutyStart": "2026-02-18T08:00:00.000Z",
      "dutyEnd": "2026-02-19T08:00:00.000Z"
    },
    {
      "id": "izmir-32-51",
      "name": "ASLIHAN ECZANESİ",
      "address": "KÜLTÜR MAH. FEVZİ PAŞA CAD. NO:58/C",
      "phone": "02325813909",
      "district": "ALİAĞA",
      "city": "İzmir",
      "latitude": 38.80079,
      "longitude": 26.9748,
      "dutyStart": "2026-02-18T08:00:00.000Z",
      "dutyEnd": "2026-02-19T08:00:00.000Z"
    },
    {
      "id": "izmir-33-52",
      "name": "BAHRİYE ECZANESİ",
      "address": "AYRANCILAR MH. 83 SK. NO:24/A",
      "phone": "02328540607",
      "district": "AYRANCILAR",
      "city": "İzmir",
      "latitude": 38.243643,
      "longitude": 27.276732,
      "dutyStart": "2026-02-18T08:00:00.000Z",
      "dutyEnd": "2026-02-19T08:00:00.000Z"
    },
    {
      "id": "izmir-34-53",
      "name": "UMUT ECZANESİ",
      "address": "MITHATPASA MAH.PARK GEu00c7IDI CAD.NO:16/C BAYINDIR",
      "phone": "02325813782",
      "district": "BAYINDIR",
      "city": "İzmir",
      "latitude": 38.221795,
      "longitude": 27.649446,
      "dutyStart": "2026-02-18T08:00:00.000Z",
      "dutyEnd": "2026-02-19T08:00:00.000Z"
    },
    {
      "id": "izmir-35-54",
      "name": "ALPER ECZANESİ",
      "address": "MALTEPE MAH. 418 SOK. NO:2/A",
      "phone": "02326320001",
      "district": "BERGAMA",
      "city": "İzmir",
      "latitude": 39.110277,
      "longitude": 27.172429,
      "dutyStart": "2026-02-18T08:00:00.000Z",
      "dutyEnd": "2026-02-19T08:00:00.000Z"
    },
    {
      "id": "izmir-36-55",
      "name": "AKTEPE ECZANESİ",
      "address": "CUMHURIYET MAH.ULUS MEYDANI NO:20/A BEYDAG",
      "phone": "02325927649",
      "district": "BEYDAĞ",
      "city": "İzmir",
      "latitude": 38.085323,
      "longitude": 28.208369,
      "dutyStart": "2026-02-18T08:00:00.000Z",
      "dutyEnd": "2026-02-19T08:00:00.000Z"
    },
    {
      "id": "izmir-37-58",
      "name": "ÖZGÜLER ECZANESİ",
      "address": "KASIMPAŞA MH. ATATÜRK CAD. NO:91-93B ",
      "phone": "02327824041",
      "district": "MENDERES",
      "city": "İzmir",
      "latitude": 38.256825,
      "longitude": 27.130668,
      "dutyStart": "2026-02-18T08:00:00.000Z",
      "dutyEnd": "2026-02-19T08:00:00.000Z"
    },
    {
      "id": "izmir-38-61",
      "name": "BADEMLİ ECZANESİ",
      "address": "ISMETPASA MAH. 13.SOKAK NO:43",
      "phone": "02326719396",
      "district": "DİKİLİ",
      "city": "İzmir",
      "latitude": 39.071014,
      "longitude": 26.888399,
      "dutyStart": "2026-02-18T08:00:00.000Z",
      "dutyEnd": "2026-02-19T08:00:00.000Z"
    },
    {
      "id": "izmir-39-62",
      "name": "SUDE ECZANESİ",
      "address": "ATATÜRK MAH. REHA MIDILLI CAD. NO:17/A FOÇA",
      "phone": "02328127219",
      "district": "ESKİ FOÇA",
      "city": "İzmir",
      "latitude": 38.667541,
      "longitude": 26.754681,
      "dutyStart": "2026-02-18T08:00:00.000Z",
      "dutyEnd": "2026-02-19T08:00:00.000Z"
    },
    {
      "id": "izmir-40-63",
      "name": "YAGMUR ECZANESİ",
      "address": "ATATÜRK MAH. IZMIR CAD. NO:87/D",
      "phone": "02328148615",
      "district": "YENİ FOÇA",
      "city": "İzmir",
      "latitude": 38.738804,
      "longitude": 26.838447,
      "dutyStart": "2026-02-18T08:00:00.000Z",
      "dutyEnd": "2026-02-19T08:00:00.000Z"
    },
    {
      "id": "izmir-41-64",
      "name": "SAADET ECZANESİ",
      "address": "İSKELE MH. KEPEZ CD. NO:19/A",
      "phone": "02327313397",
      "district": "KARABURUN",
      "city": "İzmir",
      "latitude": 38.634972,
      "longitude": 26.522727,
      "dutyStart": "2026-02-18T08:00:00.000Z",
      "dutyEnd": "2026-02-19T08:00:00.000Z"
    },
    {
      "id": "izmir-42-65",
      "name": "MORDOGAN EGE ECZANESİ",
      "address": "MORDOĞAN MH. FATİH CD. NO:10",
      "phone": "02327375520",
      "district": "MORDOĞAN",
      "city": "İzmir",
      "latitude": 38.517947,
      "longitude": 26.625422,
      "dutyStart": "2026-02-18T08:00:00.000Z",
      "dutyEnd": "2026-02-19T08:00:00.000Z"
    },
    {
      "id": "izmir-43-66",
      "name": "TEZER ECZANESİ",
      "address": "8 EYLÜL MAH. 135 SOK. NO:6/A",
      "phone": "02328787848",
      "district": "KEMALPAŞA",
      "city": "İzmir",
      "latitude": 38.42982,
      "longitude": 27.413719,
      "dutyStart": "2026-02-18T08:00:00.000Z",
      "dutyEnd": "2026-02-19T08:00:00.000Z"
    },
    {
      "id": "izmir-44-67",
      "name": "KINIK ECZANESİ",
      "address": "CUMHURIYET CAD. NO:1/G KINIK",
      "phone": "02326871073",
      "district": "KINIK",
      "city": "İzmir",
      "latitude": 39.08691,
      "longitude": 27.382753,
      "dutyStart": "2026-02-18T08:00:00.000Z",
      "dutyEnd": "2026-02-19T08:00:00.000Z"
    },
    {
      "id": "izmir-45-68",
      "name": "DEVA ECZANESİ",
      "address": "HOCA IBRAHIM CD.3",
      "phone": "02325723162",
      "district": "KİRAZ",
      "city": "İzmir",
      "latitude": 38.231748,
      "longitude": 28.207751,
      "dutyStart": "2026-02-18T08:00:00.000Z",
      "dutyEnd": "2026-02-19T08:00:00.000Z"
    },
    {
      "id": "izmir-46-69",
      "name": "ALTINBILEK ECZANESİ",
      "address": "ESATPASA MAH. ATATÜRK CAD. NO:100/B",
      "phone": "02328320220",
      "district": "MENEMEN",
      "city": "İzmir",
      "latitude": 38.605321,
      "longitude": 27.074233,
      "dutyStart": "2026-02-18T08:00:00.000Z",
      "dutyEnd": "2026-02-19T08:00:00.000Z"
    },
    {
      "id": "izmir-47-70",
      "name": "YASAM ECZANESİ",
      "address": "AKINCILAR MH. HÜRRIYET CD.58",
      "phone": "02325453532",
      "district": "ÖDEMİŞ",
      "city": "İzmir",
      "latitude": 38.229416,
      "longitude": 27.97116,
      "dutyStart": "2026-02-18T08:00:00.000Z",
      "dutyEnd": "2026-02-19T08:00:00.000Z"
    },
    {
      "id": "izmir-48-70",
      "name": "BALIKÇIOGLU ECZANESİ",
      "address": "AKINCILAR MH.MUSTAFA BEY CAD.NO:26/B",
      "phone": "02325450077",
      "district": "ÖDEMİŞ",
      "city": "İzmir",
      "latitude": 38.228767,
      "longitude": 27.970486,
      "dutyStart": "2026-02-18T08:00:00.000Z",
      "dutyEnd": "2026-02-19T08:00:00.000Z"
    },
    {
      "id": "izmir-49-71",
      "name": "ASLI ECZANESİ",
      "address": "HIDIRLIK MAH.ATATÜRK CD.41/A",
      "phone": "02327433747",
      "district": "SEFERİHİSAR",
      "city": "İzmir",
      "latitude": 38.194902,
      "longitude": 26.836549,
      "dutyStart": "2026-02-18T08:00:00.000Z",
      "dutyEnd": "2026-02-19T08:00:00.000Z"
    },
    {
      "id": "izmir-50-72",
      "name": "BERAY ECZANESİ",
      "address": "ATATÜRK MAH. TAHSIN BASARAN CAD. 1005 SOKAK NO:2",
      "phone": "02328926620",
      "district": "SELÇUK",
      "city": "İzmir",
      "latitude": 37.947883,
      "longitude": 27.370941,
      "dutyStart": "2026-02-18T08:00:00.000Z",
      "dutyEnd": "2026-02-19T08:00:00.000Z"
    },
    {
      "id": "izmir-51-74",
      "name": "GÜLBİN ECZANESİ",
      "address": "HÜRRIYET MAH. FAIK TOKLUOGLU BULV.NO:10/A",
      "phone": "02325110102",
      "district": "TİRE",
      "city": "İzmir",
      "latitude": 38.095852,
      "longitude": 27.728659,
      "dutyStart": "2026-02-18T08:00:00.000Z",
      "dutyEnd": "2026-02-19T08:00:00.000Z"
    },
    {
      "id": "izmir-52-75",
      "name": "BULVAR ECZANESİ",
      "address": "ALP KENT MH. CEMALİ TUNCER CD. NO:22/A",
      "phone": "02328560112",
      "district": "TORBALI",
      "city": "İzmir",
      "latitude": 38.164885,
      "longitude": 27.35621,
      "dutyStart": "2026-02-18T08:00:00.000Z",
      "dutyEnd": "2026-02-19T08:00:00.000Z"
    },
    {
      "id": "izmir-53-75",
      "name": "BERKE ECZANESİ",
      "address": "MURATBEY MAH. ATİLLA SUNAR CAD. NO:47",
      "phone": "02328569375",
      "district": "TORBALI",
      "city": "İzmir",
      "latitude": 38.150007,
      "longitude": 27.354301,
      "dutyStart": "2026-02-18T08:00:00.000Z",
      "dutyEnd": "2026-02-19T08:00:00.000Z"
    },
    {
      "id": "izmir-54-76",
      "name": "YENİ ŞAKRAN ECZANESİ",
      "address": "SAYFIYE MAH. N.KEMAL CAD. NO:79/B",
      "phone": "02326288828",
      "district": "YENİ ŞAKRAN",
      "city": "İzmir",
      "latitude": 38.888971,
      "longitude": 27.065727,
      "dutyStart": "2026-02-18T08:00:00.000Z",
      "dutyEnd": "2026-02-19T08:00:00.000Z"
    },
    {
      "id": "izmir-55-77",
      "name": "SERDAROGLU ECZANESİ",
      "address": "BAHARIYE MAH. YAŞAR AKSOY SOKAK NO:18/A",
      "phone": "02323828339",
      "district": "KARŞIYAKA 2",
      "city": "İzmir",
      "latitude": 38.462086,
      "longitude": 27.118875,
      "dutyStart": "2026-02-18T08:00:00.000Z",
      "dutyEnd": "2026-02-19T08:00:00.000Z"
    },
    {
      "id": "izmir-56-78",
      "name": "SELİN ECZANESİ",
      "address": "YALI MH. 6471/5 SK. NO:8/A",
      "phone": "02329999508",
      "district": "KARŞIYAKA 3",
      "city": "İzmir",
      "latitude": 38.47181,
      "longitude": 27.085833,
      "dutyStart": "2026-02-18T08:00:00.000Z",
      "dutyEnd": "2026-02-19T08:00:00.000Z"
    },
    {
      "id": "izmir-57-79",
      "name": "KARACA ECZANESİ",
      "address": "1775 SOKAK NO:171/B NERGIS",
      "phone": "02323642523",
      "district": "KARŞIYAKA 4",
      "city": "İzmir",
      "latitude": 38.461203,
      "longitude": 27.105374,
      "dutyStart": "2026-02-18T08:00:00.000Z",
      "dutyEnd": "2026-02-19T08:00:00.000Z"
    },
    {
      "id": "izmir-58-80",
      "name": "BERRA ECZANESİ",
      "address": "KARŞIYAKA TERSANE MAHALLESİ 1671 SOKAK NO:21/B",
      "phone": "02323674150",
      "district": "KARŞIYAKA 1",
      "city": "İzmir",
      "latitude": 38.462588,
      "longitude": 27.125225,
      "dutyStart": "2026-02-18T08:00:00.000Z",
      "dutyEnd": "2026-02-19T08:00:00.000Z"
    },
    {
      "id": "izmir-59-82",
      "name": "SİBEL ATLAS ECZANESİ",
      "address": "İSMET KAPTAN MAH. SEZER DOĞAN SOK. NO:8/B",
      "phone": "02323881335",
      "district": "ALSANCAK",
      "city": "İzmir",
      "latitude": 38.425606,
      "longitude": 27.137442,
      "dutyStart": "2026-02-18T08:00:00.000Z",
      "dutyEnd": "2026-02-19T08:00:00.000Z"
    },
    {
      "id": "izmir-60-82",
      "name": "DÜNYA ECZANESİ",
      "address": "KÜLTÜR MAH. ŞAİR EŞREF BULVARI NO:55/D",
      "phone": "02321839335",
      "district": "ALSANCAK",
      "city": "İzmir",
      "latitude": 38.432563,
      "longitude": 27.143503,
      "dutyStart": "2026-02-18T08:00:00.000Z",
      "dutyEnd": "2026-02-19T08:00:00.000Z"
    },
    {
      "id": "izmir-61-83",
      "name": "DEGERLI ECZANESİ",
      "address": "156 SOK. NO:15 HATAY",
      "phone": "02322430037",
      "district": "HATAY",
      "city": "İzmir",
      "latitude": 38.402917,
      "longitude": 27.106001,
      "dutyStart": "2026-02-18T08:00:00.000Z",
      "dutyEnd": "2026-02-19T08:00:00.000Z"
    },
    {
      "id": "izmir-62-84",
      "name": "ÖZPINAR ECZANESİ",
      "address": "34 SOK. NO:10/B GÜZELYALI",
      "phone": "02322245681",
      "district": "MİTHATPAŞA",
      "city": "İzmir",
      "latitude": 38.398113,
      "longitude": 27.079328,
      "dutyStart": "2026-02-18T08:00:00.000Z",
      "dutyEnd": "2026-02-19T08:00:00.000Z"
    },
    {
      "id": "izmir-63-89",
      "name": "FATİH  ECZANESİ",
      "address": "ÇANDARLI MAH. NAMIK KEMAL CAD. NO:10/A",
      "phone": "02326732676",
      "district": "ÇANDARLI",
      "city": "İzmir",
      "latitude": 38.936379,
      "longitude": 26.934386,
      "dutyStart": "2026-02-18T08:00:00.000Z",
      "dutyEnd": "2026-02-19T08:00:00.000Z"
    },
    {
      "id": "izmir-64-90",
      "name": "ORTAKÖY ECZANESİ",
      "address": "ORTA MH. MUSTAFA KEMAL PAŞA CD. NO:450/B",
      "phone": "02322855862",
      "district": "ÖZDERE",
      "city": "İzmir",
      "latitude": 38.050347,
      "longitude": 27.051814,
      "dutyStart": "2026-02-18T08:00:00.000Z",
      "dutyEnd": "2026-02-19T08:00:00.000Z"
    },
    {
      "id": "izmir-65-101",
      "name": "HAKAN BİLGİLİ ECZANESİ",
      "address": "ATATÜRK MAH. SÜLEYMANİYE CAD. NO:87/A",
      "phone": "02321676967",
      "district": "ATATÜRK",
      "city": "İzmir",
      "latitude": 38.481029,
      "longitude": 27.193975,
      "dutyStart": "2026-02-18T08:00:00.000Z",
      "dutyEnd": "2026-02-19T08:00:00.000Z"
    },
    {
      "id": "izmir-66-102",
      "name": "ECZANE YENİ ECZANESİ",
      "address": "GAZİ MH. ESKİİZMİR CD. NO:662/A ESKİİZMİR",
      "phone": "02322711099",
      "district": "ESKİİZMİR-CENNETÇEŞME",
      "city": "İzmir",
      "latitude": 38.370849,
      "longitude": 27.107644,
      "dutyStart": "2026-02-18T08:00:00.000Z",
      "dutyEnd": "2026-02-19T08:00:00.000Z"
    },
    {
      "id": "izmir-67-106",
      "name": "DOĞANLAR ECZANESİ",
      "address": "DOĞANLAR MAH. 1454/1 SOK. NO:1",
      "phone": "02324781403",
      "district": "BORNOVA 4",
      "city": "İzmir",
      "latitude": 38.452856,
      "longitude": 27.250367,
      "dutyStart": "2026-02-18T08:00:00.000Z",
      "dutyEnd": "2026-02-19T08:00:00.000Z"
    },
    {
      "id": "izmir-68-107",
      "name": "SELMA YILMAZ ECZANESİ",
      "address": "30 AĞUSTOS MAH. 7124 SOK. C4 BLOK NO:2/AA",
      "phone": "02326401594",
      "district": "MENEMEN 2",
      "city": "İzmir",
      "latitude": 38.552222,
      "longitude": 27.049646,
      "dutyStart": "2026-02-18T08:00:00.000Z",
      "dutyEnd": "2026-02-19T08:00:00.000Z"
    },
    {
      "id": "izmir-69-109",
      "name": "URLA BASAR ECZANESİ",
      "address": "M.FEVZI ÇAKMAK MAH. N. KEMAL BULV. NO:27/13",
      "phone": "02327663516",
      "district": "ZEYTİNALANI",
      "city": "İzmir",
      "latitude": 38.368106,
      "longitude": 26.837361,
      "dutyStart": "2026-02-18T08:00:00.000Z",
      "dutyEnd": "2026-02-19T08:00:00.000Z"
    },
    {
      "id": "izmir-70-110",
      "name": "URLA ÖZLEM ECZANESİ",
      "address": "İSKELE MAH. 2124 SOK. NO:1/A",
      "phone": "02327523636",
      "district": "İSKELE",
      "city": "İzmir",
      "latitude": 38.362531,
      "longitude": 26.772419,
      "dutyStart": "2026-02-18T08:00:00.000Z",
      "dutyEnd": "2026-02-19T08:00:00.000Z"
    },
    {
      "id": "izmir-71-112",
      "name": "SIĞACIK ECZANESİ",
      "address": "SIĞACIK MAH. AKKUM CAD. NO:9/C",
      "phone": "02327432233",
      "district": "SEFERİHİSAR-SIĞACIK BÖLGESİ",
      "city": "İzmir",
      "latitude": 38.192633,
      "longitude": 26.785834,
      "dutyStart": "2026-02-18T08:00:00.000Z",
      "dutyEnd": "2026-02-19T08:00:00.000Z"
    }
  ]
}