{
  "city": "mersin",
  "cityName": "Mersin",
  "cityId": 33,
  "date": "2026-02-19",
  "updatedAt": "2026-02-18T23:30:40.669Z",
  "count": 19,
  "pharmacies": [
    {
      "id": "mersin-0",
      "name": "ANADOLU ECZANESİ",
      "address": "NUSRATIYE MAH.5021 SOK.NO:38",
      "phone": "03243371421",
      "district": "Akdeni̇z",
      "city": "Mersin",
      "latitude": 36.810667,
      "longitude": 34.624398,
      "dutyStart": "2026-02-18T08:30:00.000Z",
      "dutyEnd": "2026-02-19T08:30:00.000Z"
    },
    {
      "id": "mersin-1",
      "name": "ASENA ECZANESİ",
      "address": "BAHÇE MAH.SOĞUKSU 124 CAD.NO:125/D",
      "phone": "03243371353",
      "district": "Akdeni̇z",
      "city": "Mersin",
      "latitude": 36.799974,
      "longitude": 34.620029,
      "dutyStart": "2026-02-18T08:30:00.000Z",
      "dutyEnd": "2026-02-19T08:30:00.000Z"
    },
    {
      "id": "mersin-2",
      "name": "BULUT ECZANESİ",
      "address": "YALINAYAK MH. MAREŞAL FEVZİ ÇAKMAK CD. NO:106A",
      "phone": "05418224388",
      "district": "Toroslar",
      "city": "Mersin",
      "latitude": 36.846291,
      "longitude": 34.633235,
      "dutyStart": "2026-02-18T08:30:00.000Z",
      "dutyEnd": "2026-02-19T08:30:00.000Z"
    },
    {
      "id": "mersin-3",
      "name": "DEĞİRMENCİ ECZANESİ",
      "address": "ATATÜRK MH. VALİ ŞENOL ENGİN CD. NO:12A",
      "phone": "03243583433",
      "district": "Mezi̇tli̇",
      "city": "Mersin",
      "latitude": 36.76393,
      "longitude": 34.547325,
      "dutyStart": "2026-02-18T08:30:00.000Z",
      "dutyEnd": "2026-02-19T08:30:00.000Z"
    },
    {
      "id": "mersin-4",
      "name": "DURU ECZANESİ",
      "address": "GÜVENEVLER MH. 1908 SK. NO: 8/A",
      "phone": "03243597755",
      "district": "Yeni̇şehi̇r",
      "city": "Mersin",
      "latitude": 36.783191,
      "longitude": 34.592233,
      "dutyStart": "2026-02-18T08:30:00.000Z",
      "dutyEnd": "2026-02-19T08:30:00.000Z"
    },
    {
      "id": "mersin-5",
      "name": "ELMAS ECZANESİ",
      "address": "YENİ MAH. 5334 SK. NO:10/1A",
      "phone": "03242381004",
      "district": "Akdeni̇z",
      "city": "Mersin",
      "latitude": 36.804955,
      "longitude": 34.632287,
      "dutyStart": "2026-02-18T08:30:00.000Z",
      "dutyEnd": "2026-02-19T08:30:00.000Z"
    },
    {
      "id": "mersin-6",
      "name": "EREN ECZANESİ",
      "address": "VİRANŞEHİR MH. CENGİZ TOPEL CD. NO:17CA",
      "phone": "05530761803",
      "district": "Mezi̇tli̇",
      "city": "Mersin",
      "latitude": 36.750476,
      "longitude": 34.542027,
      "dutyStart": "2026-02-18T08:30:00.000Z",
      "dutyEnd": "2026-02-19T08:30:00.000Z"
    },
    {
      "id": "mersin-7",
      "name": "GÖKÇE ECZANESİ",
      "address": "BAHÇELİEVLER MH. HÜSEYİN OKAN MERZECİ BULV. 466/B",
      "phone": "03243312120",
      "district": "Yeni̇şehi̇r",
      "city": "Mersin",
      "latitude": 36.792981,
      "longitude": 34.594004,
      "dutyStart": "2026-02-18T08:30:00.000Z",
      "dutyEnd": "2026-02-19T08:30:00.000Z"
    },
    {
      "id": "mersin-8",
      "name": "OKYANUS ECZANESİ",
      "address": "50.YIL MAH. 27143 SOK. NO:4/A",
      "phone": "03243284282",
      "district": "Yeni̇şehi̇r",
      "city": "Mersin",
      "latitude": 36.798235,
      "longitude": 34.571399,
      "dutyStart": "2026-02-18T08:30:00.000Z",
      "dutyEnd": "2026-02-19T08:30:00.000Z"
    },
    {
      "id": "mersin-9",
      "name": "TOLGA ECZANESİ",
      "address": "KURDALİ MAH. 100041 SOK. NO:6/A",
      "phone": "03243370084",
      "district": "Toroslar",
      "city": "Mersin",
      "latitude": 36.826084,
      "longitude": 34.625227,
      "dutyStart": "2026-02-18T08:30:00.000Z",
      "dutyEnd": "2026-02-19T08:30:00.000Z"
    },
    {
      "id": "mersin-10",
      "name": "LOTUS ECZANESİ",
      "address": "ÖĞRETMENLER MH. DUMLUPINAR BULV. NO:2/1E",
      "phone": "03245042114",
      "district": "Tarsus",
      "city": "Mersin",
      "latitude": 36.909174,
      "longitude": 34.88317,
      "dutyStart": "2026-02-18T08:30:00.000Z",
      "dutyEnd": "2026-02-19T08:30:00.000Z"
    },
    {
      "id": "mersin-11",
      "name": "UZUN ECZANESİ",
      "address": "82 EVLER MH. İBNİ SİNA BULV. No:10/A",
      "phone": "03246131581",
      "district": "Tarsus",
      "city": "Mersin",
      "latitude": 36.915629,
      "longitude": 34.915117,
      "dutyStart": "2026-02-18T08:30:00.000Z",
      "dutyEnd": "2026-02-19T08:30:00.000Z"
    },
    {
      "id": "mersin-12",
      "name": "ÜNLÜ ECZANESİ",
      "address": "GÖKSU MH. 72 SK. NO:4D",
      "phone": "03247143377",
      "district": "Si̇li̇fke",
      "city": "Mersin",
      "latitude": 36.380452,
      "longitude": 33.93654,
      "dutyStart": "2026-02-18T08:30:00.000Z",
      "dutyEnd": "2026-02-19T08:30:00.000Z"
    },
    {
      "id": "mersin-13",
      "name": "TUNAHAN ECZANESİ",
      "address": "KARŞIYAKA MH. DONATIM CD. NO:5/A",
      "phone": "03247743536",
      "district": "Mut",
      "city": "Mersin",
      "latitude": 36.650345,
      "longitude": 33.433938,
      "dutyStart": "2026-02-18T08:30:00.000Z",
      "dutyEnd": "2026-02-19T08:30:00.000Z"
    },
    {
      "id": "mersin-14",
      "name": "ATEŞ ECZANESİ",
      "address": "SARAY MAH.AKKAVAK SOK.NO:12",
      "phone": "03247517170",
      "district": "Gülnar",
      "city": "Mersin",
      "latitude": 36.338433,
      "longitude": 33.403276,
      "dutyStart": "2026-02-18T08:30:00.000Z",
      "dutyEnd": "2026-02-19T08:30:00.000Z"
    },
    {
      "id": "mersin-15",
      "name": "KÜBRA ECZANESİ",
      "address": "MERKEZ MAH. KAZIM KARABEKİR CAD. NO:86/E",
      "phone": "03245160333",
      "district": "Erdemli̇",
      "city": "Mersin",
      "latitude": 36.611313,
      "longitude": 34.302266,
      "dutyStart": "2026-02-18T08:30:00.000Z",
      "dutyEnd": "2026-02-19T08:30:00.000Z"
    },
    {
      "id": "mersin-16",
      "name": "NİL ECZANESİ",
      "address": "MERKEZ MH. SAĞLIK SK. NO:8/7",
      "phone": "03248516988",
      "district": "Bozyazi",
      "city": "Mersin",
      "latitude": 36.106045,
      "longitude": 32.970603,
      "dutyStart": "2026-02-18T08:30:00.000Z",
      "dutyEnd": "2026-02-19T08:30:00.000Z"
    },
    {
      "id": "mersin-17",
      "name": "AYDINCIK ECZANESİ",
      "address": "CUMHURİYET MH. HASTANE CD. NO:7/A",
      "phone": "03248414112",
      "district": "Aydincik",
      "city": "Mersin",
      "latitude": 36.152857,
      "longitude": 33.339241,
      "dutyStart": "2026-02-18T08:30:00.000Z",
      "dutyEnd": "2026-02-19T08:30:00.000Z"
    },
    {
      "id": "mersin-18",
      "name": "EFSUN ECZANESİ",
      "address": "AKARCA MH. PROF. AHMET TANER KISLALI CD. NO:2/2",
      "phone": "03248148400",
      "district": "Anamur",
      "city": "Mersin",
      "latitude": 36.074994,
      "longitude": 32.827335,
      "dutyStart": "2026-02-18T08:30:00.000Z",
      "dutyEnd": "2026-02-19T08:30:00.000Z"
    }
  ]
}