{
  "city": "samsun",
  "cityName": "Samsun",
  "cityId": 55,
  "date": "2026-02-19",
  "updatedAt": "2026-02-19T01:30:42.480Z",
  "count": 20,
  "pharmacies": [
    {
      "id": "samsun-0",
      "name": "AKA ECZANESİ",
      "address": "KALE MAH. BAĞDAT CAD.NO:3",
      "phone": "03624310284",
      "district": "İlkadım",
      "city": "Samsun",
      "latitude": 41.291677,
      "longitude": 36.330486,
      "dutyStart": "2026-02-19T08:30:00.000Z",
      "dutyEnd": "2026-02-20T08:30:00.000Z"
    },
    {
      "id": "samsun-1",
      "name": "ANNELER PARKI ECZANESİ",
      "address": "RASATHANE MAH. HAMİDİYE SOK. NO:4/A",
      "phone": "03622316816",
      "district": "İlkadım",
      "city": "Samsun",
      "latitude": 41.282765,
      "longitude": 36.33096,
      "dutyStart": "2026-02-19T08:30:00.000Z",
      "dutyEnd": "2026-02-20T08:30:00.000Z"
    },
    {
      "id": "samsun-2",
      "name": "YAŞAR DOĞU ECZANESİ",
      "address": "YAŞARDOĞU MAH. KAYHAN SOK. NO:14",
      "phone": "03622367010",
      "district": "İlkadım",
      "city": "Samsun",
      "latitude": 41.271528,
      "longitude": 36.321126,
      "dutyStart": "2026-02-19T08:30:00.000Z",
      "dutyEnd": "2026-02-20T08:30:00.000Z"
    },
    {
      "id": "samsun-3",
      "name": "NEVİN ECZANESİ",
      "address": "YAVUZ SELIM MAH. GONDOL SOK. NO:58",
      "phone": "03622385547",
      "district": "Canik",
      "city": "Samsun",
      "latitude": 41.256637,
      "longitude": 36.34391,
      "dutyStart": "2026-02-19T08:30:00.000Z",
      "dutyEnd": "2026-02-20T08:30:00.000Z"
    },
    {
      "id": "samsun-4",
      "name": "AYKANAT ECZANESİ",
      "address": "CUMHURİYET MAH. ALPARSLAN BUL. NO:24",
      "phone": "03624383798",
      "district": "Atakum",
      "city": "Samsun",
      "latitude": 41.334198,
      "longitude": 36.271266,
      "dutyStart": "2026-02-19T08:30:00.000Z",
      "dutyEnd": "2026-02-20T08:30:00.000Z"
    },
    {
      "id": "samsun-5",
      "name": "VURAL ECZANESİ",
      "address": "YENİMAHALLE MAH. ATATÜRK 3. KISIM BUL. NO:131/A",
      "phone": "03624377728",
      "district": "Atakum",
      "city": "Samsun",
      "latitude": 41.351028,
      "longitude": 36.241823,
      "dutyStart": "2026-02-19T08:30:00.000Z",
      "dutyEnd": "2026-02-20T08:30:00.000Z"
    },
    {
      "id": "samsun-6",
      "name": "SANCAR ECZANESİ",
      "address": "19 MAYIS MAH. HACI ALİ EKİNCİ BULVARI 7/C",
      "phone": "03622560909",
      "district": "Tekkeköy",
      "city": "Samsun",
      "latitude": 41.220477,
      "longitude": 36.453554,
      "dutyStart": "2026-02-19T08:30:00.000Z",
      "dutyEnd": "2026-02-20T08:30:00.000Z"
    },
    {
      "id": "samsun-7",
      "name": "ALAÇAM ECZANESİ",
      "address": "YENİ CAMİ MAH. BAFRA CAD. NO:16/A",
      "phone": "03626220110",
      "district": "Alaçam",
      "city": "Samsun",
      "latitude": 41.607546,
      "longitude": 35.597291,
      "dutyStart": "2026-02-19T08:30:00.000Z",
      "dutyEnd": "2026-02-20T08:30:00.000Z"
    },
    {
      "id": "samsun-8",
      "name": "CEDİT ECZANESİ",
      "address": "BİÇİMCİK MAH.ESEN SOK.NO:11",
      "phone": "03627913256",
      "district": "Asarcık",
      "city": "Samsun",
      "latitude": 41.036344,
      "longitude": 36.225344,
      "dutyStart": "2026-02-19T08:30:00.000Z",
      "dutyEnd": "2026-02-20T08:30:00.000Z"
    },
    {
      "id": "samsun-9",
      "name": "YENİ AYVACIK ECZANESİ",
      "address": "EYÜP SULTAN MAH. MUSTAFA GÜLER SOK. NO:6/A",
      "phone": "03628132125",
      "district": "Ayvacık",
      "city": "Samsun",
      "latitude": 41.002581,
      "longitude": 36.629581,
      "dutyStart": "2026-02-19T08:30:00.000Z",
      "dutyEnd": "2026-02-20T08:30:00.000Z"
    },
    {
      "id": "samsun-10",
      "name": "GÜNDAY  ECZANESİ",
      "address": "EMİREFENDİ MAH. SÜLEYMAN TÜRK CAD.SERAP SOK. NO:25",
      "phone": "03625433574",
      "district": "Bafra",
      "city": "Samsun",
      "latitude": 41.559628,
      "longitude": 35.902646,
      "dutyStart": "2026-02-19T08:30:00.000Z",
      "dutyEnd": "2026-02-20T08:30:00.000Z"
    },
    {
      "id": "samsun-11",
      "name": "ECE KOÇER  ECZANESİ",
      "address": "SUNGURLU MAH.SUNGURLU CAD. NO:20/B",
      "phone": "03628341834",
      "district": "Çarşamba",
      "city": "Samsun",
      "latitude": 41.201891,
      "longitude": 36.722777,
      "dutyStart": "2026-02-19T08:30:00.000Z",
      "dutyEnd": "2026-02-20T08:30:00.000Z"
    },
    {
      "id": "samsun-12",
      "name": "KAPLICALAR ECZANESİ",
      "address": "MEDRESE MAH. ATATÜRK SK. NO:11/A",
      "phone": "03627141601",
      "district": "Havza",
      "city": "Samsun",
      "latitude": 40.970494,
      "longitude": 35.659544,
      "dutyStart": "2026-02-19T08:30:00.000Z",
      "dutyEnd": "2026-02-20T08:30:00.000Z"
    },
    {
      "id": "samsun-13",
      "name": "KAVAK ECZANESİ",
      "address": "19 MAYIS MAH. ADNAN MENDERES CAD. NO:73/A",
      "phone": "03627412412",
      "district": "Kavak",
      "city": "Samsun",
      "latitude": 41.073886,
      "longitude": 36.036413,
      "dutyStart": "2026-02-19T08:30:00.000Z",
      "dutyEnd": "2026-02-20T08:30:00.000Z"
    },
    {
      "id": "samsun-14",
      "name": "LADİK ELİF ECZANESİ",
      "address": "BAHŞİ MAH.GAZİ CAD.NO:56/A",
      "phone": "03627713091",
      "district": "Ladik",
      "city": "Samsun",
      "latitude": 40.911071,
      "longitude": 35.894904,
      "dutyStart": "2026-02-19T08:30:00.000Z",
      "dutyEnd": "2026-02-20T08:30:00.000Z"
    },
    {
      "id": "samsun-15",
      "name": "ENGİZ ECZANESİ",
      "address": "PAZAR MAH. FATİH CAD. NO:3",
      "phone": "03625112888",
      "district": "Ondokuzmayıs",
      "city": "Samsun",
      "latitude": 41.494216,
      "longitude": 36.078044,
      "dutyStart": "2026-02-19T08:30:00.000Z",
      "dutyEnd": "2026-02-20T08:30:00.000Z"
    },
    {
      "id": "samsun-16",
      "name": "YAMAN ECZANESİ",
      "address": "BEREKET MAH.ŞEHİT ORHAN ERDOĞAN CAD.NO:9/A",
      "phone": "03628212277",
      "district": "Salıpazarı",
      "city": "Samsun",
      "latitude": 41.08233,
      "longitude": 36.825309,
      "dutyStart": "2026-02-19T08:30:00.000Z",
      "dutyEnd": "2026-02-20T08:30:00.000Z"
    },
    {
      "id": "samsun-17",
      "name": "KARADENİZ ECZANESİ",
      "address": "FENK MAH. HASTANE SOK.NO:5/B",
      "phone": "03628769986",
      "district": "Terme",
      "city": "Samsun",
      "latitude": 41.210118,
      "longitude": 36.974221,
      "dutyStart": "2026-02-19T08:30:00.000Z",
      "dutyEnd": "2026-02-20T08:30:00.000Z"
    },
    {
      "id": "samsun-18",
      "name": "SAĞLIK ECZANESİ",
      "address": "CUMHURİYET MAH.1.ZİRAAT SOKAK NO:17/B",
      "phone": "03626474078",
      "district": "Vezirköprü",
      "city": "Samsun",
      "latitude": 41.142612,
      "longitude": 35.467605,
      "dutyStart": "2026-02-19T08:30:00.000Z",
      "dutyEnd": "2026-02-20T08:30:00.000Z"
    },
    {
      "id": "samsun-25",
      "name": "YAŞAM  ECZANESİ",
      "address": "GÜZELYURT MAH.OSMAN GAZİ SOK.NO.3/A",
      "phone": "03686712276",
      "district": "Türkeli",
      "city": "Samsun",
      "latitude": 41.946452,
      "longitude": 34.337364,
      "dutyStart": "2026-02-19T08:30:00.000Z",
      "dutyEnd": "2026-02-20T08:30:00.000Z"
    }
  ]
}