{
  "city": "sinop",
  "cityName": "Sinop",
  "cityId": 57,
  "date": "2026-02-19",
  "updatedAt": "2026-02-19T06:30:45.679Z",
  "count": 6,
  "pharmacies": [
    {
      "id": "sinop-20",
      "name": "MERKEZ  ECZANESİ",
      "address": "SAKARYA CAD.GÜNDOĞDU PASAJI NO:19",
      "phone": "03682617863",
      "district": "Merkez",
      "city": "Sinop",
      "latitude": 42.026096,
      "longitude": 35.148616,
      "dutyStart": "2026-02-19T08:30:00.000Z",
      "dutyEnd": "2026-02-20T08:30:00.000Z"
    },
    {
      "id": "sinop-21",
      "name": "MERVE ECZANESİ",
      "address": "YALI MAH.ATATÜRK CAD.NO:28/A",
      "phone": "03686134188",
      "district": "Ayancık",
      "city": "Sinop",
      "latitude": 41.943482,
      "longitude": 34.588267,
      "dutyStart": "2026-02-19T08:30:00.000Z",
      "dutyEnd": "2026-02-20T08:30:00.000Z"
    },
    {
      "id": "sinop-22",
      "name": "ELİF ECZANESİ",
      "address": "ÇAMLICA MAH.EROL DEMIRKOL CAD NO:3/F",
      "phone": "03683155882",
      "district": "Boyabat",
      "city": "Sinop",
      "latitude": 41.463346,
      "longitude": 34.783536,
      "dutyStart": "2026-02-19T08:30:00.000Z",
      "dutyEnd": "2026-02-20T08:30:00.000Z"
    },
    {
      "id": "sinop-23",
      "name": "TEK ECZANESİ",
      "address": "MERKEZ MAH. YUSUF KEMAL TENGİRŞEK CAD. NO:28/A",
      "phone": "03684161152",
      "district": "Durağan",
      "city": "Sinop",
      "latitude": 41.419541,
      "longitude": 35.053398,
      "dutyStart": "2026-02-19T08:30:00.000Z",
      "dutyEnd": "2026-02-20T08:30:00.000Z"
    },
    {
      "id": "sinop-24",
      "name": "ŞİFA ECZANESİ",
      "address": "MERKEZ MAH. CUMHURİYET CAD. NO:2",
      "phone": "03685112115",
      "district": "Erfelek",
      "city": "Sinop",
      "latitude": 41.879563,
      "longitude": 34.907843,
      "dutyStart": "2026-02-19T08:30:00.000Z",
      "dutyEnd": "2026-02-20T08:30:00.000Z"
    },
    {
      "id": "sinop-25",
      "name": "GÜÇLÜ  ECZANESİ",
      "address": "YENİ MAH. FATİH CADDESİ NO:57",
      "phone": "03687181778",
      "district": "Gerze",
      "city": "Sinop",
      "latitude": 41.803697,
      "longitude": 35.173405,
      "dutyStart": "2026-02-19T08:30:00.000Z",
      "dutyEnd": "2026-02-20T08:30:00.000Z"
    }
  ]
}