{
  "city": "antalya",
  "cityName": "Antalya",
  "cityId": 7,
  "date": "2026-03-01",
  "updatedAt": "2026-03-01T18:30:10.144Z",
  "count": 39,
  "pharmacies": [
    {
      "id": "antalya-0",
      "name": "AYTAR ECZANESİ",
      "address": "",
      "phone": "05010633435",
      "district": "Muratpaşa",
      "city": "Antalya",
      "latitude": 36.88980458627822,
      "longitude": 30.679979771375656,
      "dutyStart": "2026-03-01T08:00:00.000Z",
      "dutyEnd": "2026-03-02T08:00:00.000Z"
    },
    {
      "id": "antalya-1",
      "name": "ÇİMEN ECZANESİ",
      "address": "VARLIK MAH. KAZIM KARABEKİR CADDESİ. NO:32/ B MURATPAŞA (EĞİTİM ARAŞTIRMA HASTANESİ ACİL KARŞISI)",
      "phone": "02423454693",
      "district": "Antalya",
      "city": "Antalya",
      "latitude": 36.895448419710306,
      "longitude": 30.6918203830719,
      "dutyStart": "2026-03-01T08:00:00.000Z",
      "dutyEnd": "2026-03-02T08:00:00.000Z"
    },
    {
      "id": "antalya-2",
      "name": "BULVAR ECZANESİ",
      "address": "MEMUREVLERİ MAH. ANAFARTALAR CAD. NO:111/C MURATPAŞA(ATATÜRK DEVLET HASTANESİNDEN 300 MT AŞAĞIDA .BİRİM AVM ÇAPRAZI)",
      "phone": "02423445306",
      "district": "Antalya",
      "city": "Antalya",
      "latitude": 36.90036923868552,
      "longitude": 30.70929631640907,
      "dutyStart": "2026-03-01T08:00:00.000Z",
      "dutyEnd": "2026-03-02T08:00:00.000Z"
    },
    {
      "id": "antalya-3",
      "name": "ŞEYMA ECZANESİ",
      "address": "ETİLER MAH.882 SK.NO:19/A MURATPAŞA (MEVLANA LOKANTISI ARKASI ÖZEL MEDİPLEKS TIP MERKEZİ KARŞISI)",
      "phone": "02423210744",
      "district": "Antalya",
      "city": "Antalya",
      "latitude": 36.886219,
      "longitude": 30.727144,
      "dutyStart": "2026-03-01T08:00:00.000Z",
      "dutyEnd": "2026-03-02T08:00:00.000Z"
    },
    {
      "id": "antalya-4",
      "name": "ANADOLU ECZANESİ",
      "address": "ÇAYBAŞI MAH. DEĞİMENÖNÜ CAD. 125B MURATPAŞA ANTALYA ( HACI DUDU MEHMET GEBİZLİ İMAM HATİP LİSESİ KARŞISI )",
      "phone": "02423163026",
      "district": "Antalya",
      "city": "Antalya",
      "latitude": 36.8671411939,
      "longitude": 30.7359204122,
      "dutyStart": "2026-03-01T08:00:00.000Z",
      "dutyEnd": "2026-03-02T08:00:00.000Z"
    },
    {
      "id": "antalya-5",
      "name": "SELEN ECZANESİ",
      "address": "SIRINYALI MAH. 1515 SOKAK KIRCAMI CİVİL MAĞAZASI ARKASI SIRINYALI AILE SAGLIGI MERKEZI KARSISI",
      "phone": "02429660897",
      "district": "Antalya",
      "city": "Antalya",
      "latitude": 36.857658173583225,
      "longitude": 30.761185689780177,
      "dutyStart": "2026-03-01T08:00:00.000Z",
      "dutyEnd": "2026-03-02T08:00:00.000Z"
    },
    {
      "id": "antalya-6",
      "name": "ÖRNEKKÖY ECZANESİ",
      "address": "FENER MAH. BÜLENT ECEVİT BULVARI.ÖZGÜRLÜK BULVARINDA KARATAŞ FIRINI GEÇİNCE NUR PASTANESİ YANI",
      "phone": "02423493528",
      "district": "Antalya",
      "city": "Antalya",
      "latitude": 36.85052,
      "longitude": 30.805621,
      "dutyStart": "2026-03-01T08:00:00.000Z",
      "dutyEnd": "2026-03-02T08:00:00.000Z"
    },
    {
      "id": "antalya-7",
      "name": "ÇÖZEN ECZANESİ",
      "address": "GÜZELOBA MAH. LARA CAD. NO:196/A MURATPAŞA/ANTALYA 0501 081 51 07",
      "phone": "02423466252",
      "district": "Kepez",
      "city": "Antalya",
      "latitude": 36.917135698,
      "longitude": 30.6854421897,
      "dutyStart": "2026-03-01T08:00:00.000Z",
      "dutyEnd": "2026-03-02T08:00:00.000Z"
    },
    {
      "id": "antalya-8",
      "name": "LEVENT ECZANESİ",
      "address": "BARIS TAKSI KARSISI MITHAT PASA CADDESI NO: 118/A DOKUMA-KEPEZ",
      "phone": "02423393139",
      "district": "Antalya",
      "city": "Antalya",
      "latitude": 36.9175891915,
      "longitude": 30.7340645334,
      "dutyStart": "2026-03-01T08:00:00.000Z",
      "dutyEnd": "2026-03-02T08:00:00.000Z"
    },
    {
      "id": "antalya-9",
      "name": "KUZEYYAKA ECZANESİ",
      "address": "DÜDENBASI MAH.2354 SOKAK GÜNESEVLER SIT. A BLOK NO:5 DEMİRGÜL İLKÖĞRETİM OKULU KARŞISI",
      "phone": "02423250333",
      "district": "Antalya",
      "city": "Antalya",
      "latitude": 36.93486952777466,
      "longitude": 30.70736053660903,
      "dutyStart": "2026-03-01T08:00:00.000Z",
      "dutyEnd": "2026-03-02T08:00:00.000Z"
    },
    {
      "id": "antalya-10",
      "name": "DERMAN ECZANESİ",
      "address": "KUZEYYAKA MAH. GÖKSU CAD. NO:70/A GOLD DÜĞÜN SALONUNUN 600 M KUZEYİ KUZEYYAKA SAĞLIK OCAĞININ 100 M İLERİSİ KEPEZ",
      "phone": "02429994429",
      "district": "Antalya",
      "city": "Antalya",
      "latitude": 36.93111199882626,
      "longitude": 30.726026032206732,
      "dutyStart": "2026-03-01T08:00:00.000Z",
      "dutyEnd": "2026-03-02T08:00:00.000Z"
    },
    {
      "id": "antalya-11",
      "name": "ÇAĞLAYAN ECZANESİ",
      "address": "GÜNEŞ MAH.ŞEHİT AST.ÖMER HALİS DEMİR CAD. NO:42/11 KEPEZ DEVLET HASTANESİ YANI KEPEZ / ANTALYA",
      "phone": "02422279850",
      "district": "Antalya",
      "city": "Antalya",
      "latitude": 36.9011070085,
      "longitude": 30.6602955767,
      "dutyStart": "2026-03-01T08:00:00.000Z",
      "dutyEnd": "2026-03-02T08:00:00.000Z"
    },
    {
      "id": "antalya-12",
      "name": "BOĞAÇAY ECZANESİ",
      "address": "KÜLTÜR MAH.TIP FAKÜLTESI OTOPARK ÇIKISI KARSISI YENI ÇAKIRLAR YOLU",
      "phone": "02422596066",
      "district": "Antalya",
      "city": "Antalya",
      "latitude": 36.85981349093976,
      "longitude": 30.605066435079152,
      "dutyStart": "2026-03-01T08:00:00.000Z",
      "dutyEnd": "2026-03-02T08:00:00.000Z"
    },
    {
      "id": "antalya-13",
      "name": "PELİN ECZANESİ",
      "address": "HURMA MAHALLESİ.BOĞAÇAY CADDESİ.NO:88/A KONYALTI/ANTALYA",
      "phone": "02422284228",
      "district": "Antalya",
      "city": "Antalya",
      "latitude": 36.86547933464047,
      "longitude": 30.633447224435127,
      "dutyStart": "2026-03-01T08:00:00.000Z",
      "dutyEnd": "2026-03-02T08:00:00.000Z"
    },
    {
      "id": "antalya-14",
      "name": "BAHÇEYAKA ECZANESİ",
      "address": "ALTINKUM MAH.GAZİ MUSTAFA KEMAL BULVARI NO:26/A KONYAALTI TÜRKAY OTEL YANI",
      "phone": "02424212140",
      "district": "Antalya",
      "city": "Antalya",
      "latitude": 37.02078,
      "longitude": 30.596054,
      "dutyStart": "2026-03-01T08:00:00.000Z",
      "dutyEnd": "2026-03-02T08:00:00.000Z"
    },
    {
      "id": "antalya-15",
      "name": "BİLGE ECZANESİ",
      "address": "BAHÇEYAKA MAH. KIRKGÖZ CADDESİ. NO:142/9 BAHÇEYAKA ASM YANI DÖŞEMEALTI /ANTALYA",
      "phone": "02424262042",
      "district": "Aksu",
      "city": "Antalya",
      "latitude": 36.94668501602373,
      "longitude": 30.849003195762634,
      "dutyStart": "2026-03-01T08:00:00.000Z",
      "dutyEnd": "2026-03-02T08:00:00.000Z"
    },
    {
      "id": "antalya-16",
      "name": "TUĞBA ECZANESİ",
      "address": "ÇALKAYA MAH. 109 SOK. NO:2/13 SEMT POLİKLİNİĞİ KARŞISI AKSU",
      "phone": "02425133349",
      "district": "Alanya",
      "city": "Antalya",
      "latitude": 36.5474808167,
      "longitude": 31.9942393444,
      "dutyStart": "2026-03-01T08:00:00.000Z",
      "dutyEnd": "2026-03-02T08:00:00.000Z"
    },
    {
      "id": "antalya-17",
      "name": "TUNA ECZANESİ",
      "address": "SARAY MH. YUNUS EMRE CD. BASKENT HASTANESI KARSISI",
      "phone": "02425190311",
      "district": "Antalya",
      "city": "Antalya",
      "latitude": 36.55297587752114,
      "longitude": 31.995902359485626,
      "dutyStart": "2026-03-01T08:00:00.000Z",
      "dutyEnd": "2026-03-02T08:00:00.000Z"
    },
    {
      "id": "antalya-18",
      "name": "SARE ECZANESİ",
      "address": "KADIPAŞA MAH. TEL SOK. 2. NOLU SAĞLIK OCAĞI KARŞISI",
      "phone": "02425388100",
      "district": "Antalya",
      "city": "Antalya",
      "latitude": 36.541984297523484,
      "longitude": 32.04405069351196,
      "dutyStart": "2026-03-01T08:00:00.000Z",
      "dutyEnd": "2026-03-02T08:00:00.000Z"
    },
    {
      "id": "antalya-19",
      "name": "AKSOY ECZANESİ",
      "address": "YENİ DEVLET HASTANESİ ACİL ÇIKIŞ YANI",
      "phone": "02425286873",
      "district": "Antalya",
      "city": "Antalya",
      "latitude": 36.48438279736997,
      "longitude": 32.10038244724274,
      "dutyStart": "2026-03-01T08:00:00.000Z",
      "dutyEnd": "2026-03-02T08:00:00.000Z"
    },
    {
      "id": "antalya-20",
      "name": "YENİ MEVLANA ECZANESİ",
      "address": "BARBAROS CAD. MUSTAFA ŞAHİN PARK KARŞISI MİGROS MARKET DOĞUSU NO:9/A",
      "phone": "02425653600",
      "district": "Antalya",
      "city": "Antalya",
      "latitude": 36.59060174026097,
      "longitude": 31.864149570465088,
      "dutyStart": "2026-03-01T08:00:00.000Z",
      "dutyEnd": "2026-03-02T08:00:00.000Z"
    },
    {
      "id": "antalya-21",
      "name": "NURSEN ECZANESİ",
      "address": "KALE MAH. ALAADDIN KEYKUBAT BULVARI NO6/B KONAKLI",
      "phone": "02427468707",
      "district": "Manavgat",
      "city": "Antalya",
      "latitude": 36.78912805767678,
      "longitude": 31.44203156232834,
      "dutyStart": "2026-03-01T08:00:00.000Z",
      "dutyEnd": "2026-03-02T08:00:00.000Z"
    },
    {
      "id": "antalya-22",
      "name": "DOĞA ECZANESİ",
      "address": "YUKARI HISAR MH.HASTANE CAD.NO:22/A",
      "phone": "02427429914",
      "district": "Antalya",
      "city": "Antalya",
      "latitude": 36.787141421338454,
      "longitude": 31.45069926894019,
      "dutyStart": "2026-03-01T08:00:00.000Z",
      "dutyEnd": "2026-03-02T08:00:00.000Z"
    },
    {
      "id": "antalya-23",
      "name": "CENNET ECZANESİ",
      "address": "AŞAĞI PAZARCI MAH. ATATÜRK CAD. 1003 SK. NO:11 MANAVGAT",
      "phone": "02426431838",
      "district": "Antalya",
      "city": "Antalya",
      "latitude": 37.0667592768,
      "longitude": 30.198166869,
      "dutyStart": "2026-03-01T08:00:00.000Z",
      "dutyEnd": "2026-03-02T08:00:00.000Z"
    },
    {
      "id": "antalya-24",
      "name": "EKİCİ ECZANESİ",
      "address": "KİREMİTLİ MAH. ŞEHİT BİNBAŞI CENGİZ TOYTUNÇ CADDESİ NO :16/A",
      "phone": "02426182626",
      "district": "Antalya",
      "city": "Antalya",
      "latitude": 36.7282422828678,
      "longitude": 29.92849612786813,
      "dutyStart": "2026-03-01T08:00:00.000Z",
      "dutyEnd": "2026-03-02T08:00:00.000Z"
    },
    {
      "id": "antalya-25",
      "name": "DOĞA ECZANESİ",
      "address": "YENI MAH. ANTALYA CAD. NO :67/B (DÖNER KAVSAK) ELMALI",
      "phone": "02428441138",
      "district": "Kaş",
      "city": "Antalya",
      "latitude": 36.2666521677,
      "longitude": 29.4135029171,
      "dutyStart": "2026-03-01T08:00:00.000Z",
      "dutyEnd": "2026-03-02T08:00:00.000Z"
    },
    {
      "id": "antalya-26",
      "name": "OVA ECZANESİ",
      "address": "MENTESE MH. SEHITLER CD. NO:35 KALKAN",
      "phone": "02428418389",
      "district": "Antalya",
      "city": "Antalya",
      "latitude": 36.306457189630535,
      "longitude": 29.329155504968874,
      "dutyStart": "2026-03-01T08:00:00.000Z",
      "dutyEnd": "2026-03-02T08:00:00.000Z"
    },
    {
      "id": "antalya-27",
      "name": "VERESELİ KAŞ ECZANESİ",
      "address": "OVA MAH.KAŞ",
      "phone": "02428361070",
      "district": "Antalya",
      "city": "Antalya",
      "latitude": 36.19936121344528,
      "longitude": 29.63962934911251,
      "dutyStart": "2026-03-01T08:00:00.000Z",
      "dutyEnd": "2026-03-02T08:00:00.000Z"
    },
    {
      "id": "antalya-28",
      "name": "BEYMELEK ECZANESİ",
      "address": "HASTANE CAD. NO:5 KAŞ ANTALYA",
      "phone": "02428716434",
      "district": "Antalya",
      "city": "Antalya",
      "latitude": 36.242248761115405,
      "longitude": 29.987794191374633,
      "dutyStart": "2026-03-01T08:00:00.000Z",
      "dutyEnd": "2026-03-02T08:00:00.000Z"
    },
    {
      "id": "antalya-29",
      "name": "ŞİFA ECZANESİ",
      "address": "ILKOKUL CD. CANER AP. 18/F",
      "phone": "02428555063",
      "district": "Antalya",
      "city": "Antalya",
      "latitude": 36.30589606867114,
      "longitude": 30.151666402816772,
      "dutyStart": "2026-03-01T08:00:00.000Z",
      "dutyEnd": "2026-03-02T08:00:00.000Z"
    },
    {
      "id": "antalya-30",
      "name": "ŞANLI ECZANESİ",
      "address": "KUM MAH. İNÖNÜ CAD. 10BB FİNİKE / ANTALYA",
      "phone": "02428521415",
      "district": "Antalya",
      "city": "Antalya",
      "latitude": 36.35169239001412,
      "longitude": 30.134147105971696,
      "dutyStart": "2026-03-01T08:00:00.000Z",
      "dutyEnd": "2026-03-02T08:00:00.000Z"
    },
    {
      "id": "antalya-31",
      "name": "HASYURT ECZANESİ",
      "address": "**(GECE SAAT 23.59'A KADAR AÇIK)**",
      "phone": "02428657810",
      "district": "Antalya",
      "city": "Antalya",
      "latitude": 36.337875454424115,
      "longitude": 30.214805603027344,
      "dutyStart": "2026-03-01T08:00:00.000Z",
      "dutyEnd": "2026-03-02T08:00:00.000Z"
    },
    {
      "id": "antalya-32",
      "name": "KARACA ECZANESİ",
      "address": "**(GECE SAAT 23.59'A KADAR AÇIK)**",
      "phone": "02425039292",
      "district": "Kumluca",
      "city": "Antalya",
      "latitude": 36.37149776180612,
      "longitude": 30.298662829914065,
      "dutyStart": "2026-03-01T08:00:00.000Z",
      "dutyEnd": "2026-03-02T08:00:00.000Z"
    },
    {
      "id": "antalya-33",
      "name": "ŞEN ECZANESİ",
      "address": "KASAPÇAYIRI MAH. KANUNİ SOK. NO:7/10 KUMLUCA",
      "phone": "02428248044",
      "district": "Kemer",
      "city": "Antalya",
      "latitude": 36.60039563038189,
      "longitude": 30.561137795448303,
      "dutyStart": "2026-03-01T08:00:00.000Z",
      "dutyEnd": "2026-03-02T08:00:00.000Z"
    },
    {
      "id": "antalya-34",
      "name": "ÖZYUVA ECZANESİ",
      "address": "MERKEZ MAH.ATATÜRK CAD. NO:13/AB KEMER",
      "phone": "02428214496",
      "district": "Antalya",
      "city": "Antalya",
      "latitude": 36.915947,
      "longitude": 31.1027773,
      "dutyStart": "2026-03-01T08:00:00.000Z",
      "dutyEnd": "2026-03-02T08:00:00.000Z"
    },
    {
      "id": "antalya-35",
      "name": "MECEK ECZANESİ",
      "address": "YENI MAH.YASAR UÇAR CAD.NO:21 DEFACTO MAĞAZA KARŞISI",
      "phone": "02427153400",
      "district": "Antalya",
      "city": "Antalya",
      "latitude": 36.86150190424264,
      "longitude": 31.057434305548668,
      "dutyStart": "2026-03-01T08:00:00.000Z",
      "dutyEnd": "2026-03-02T08:00:00.000Z"
    },
    {
      "id": "antalya-36",
      "name": "ÇİĞDEM ECZANESİ",
      "address": "*(GECE SAAT 02:00'A KADAR AÇIK)*",
      "phone": "02425727237",
      "district": "Antalya",
      "city": "Antalya",
      "latitude": 36.2725981128,
      "longitude": 32.3134467321,
      "dutyStart": "2026-03-01T08:00:00.000Z",
      "dutyEnd": "2026-03-02T08:00:00.000Z"
    },
    {
      "id": "antalya-37",
      "name": "MURTİÇİ ECZANESİ",
      "address": "GAZI MAH. M.FAHRI LEYLEK CD. 19/A",
      "phone": "02426781300",
      "district": "Akseki",
      "city": "Antalya",
      "latitude": 37.042264199329665,
      "longitude": 31.786279678344727,
      "dutyStart": "2026-03-01T08:00:00.000Z",
      "dutyEnd": "2026-03-02T08:00:00.000Z"
    },
    {
      "id": "antalya-38",
      "name": "0 242 311 03 29",
      "address": "HACI ILYAS MAH. ATATÜRK CAD. BAGKUR EVLERI I-BLOK NO.58/A",
      "phone": "02423110329",
      "district": "Antalya",
      "city": "Antalya",
      "latitude": 36.876696,
      "longitude": 30.735134,
      "dutyStart": "2026-03-01T08:00:00.000Z",
      "dutyEnd": "2026-03-02T08:00:00.000Z"
    }
  ]
}