{
  "city": "istanbul",
  "cityName": "İstanbul",
  "cityId": 34,
  "date": "2026-03-01",
  "updatedAt": "2026-03-01T16:00:07.132Z",
  "count": 145,
  "pharmacies": [
    {
      "id": "istanbul-26558",
      "name": "24. BÖLGE ECZANESİ",
      "address": "Kayabaşı Mahallesi, Gökçeada Caddesi, R24 Blok No:3AKA",
      "phone": "+902128909098",
      "district": "BAŞAKŞEHİR",
      "city": "İstanbul",
      "latitude": 41.133314678896824,
      "longitude": 28.777353363926995,
      "dutyStart": "2026-02-28T21:00:00.000Z",
      "dutyEnd": "2026-03-01T20:59:59.000Z"
    },
    {
      "id": "istanbul-14184",
      "name": "3.CADDE ECZANESİ",
      "address": "Bahçeşehir 2.  Kısım Mahallesi, Şehit Polis Gaffar Okkan Caddesi, 20/C",
      "phone": "+902126080026",
      "district": "BAŞAKŞEHİR",
      "city": "İstanbul",
      "latitude": 41.06282297647088,
      "longitude": 28.682565540056963,
      "dutyStart": "2026-02-28T21:00:00.000Z",
      "dutyEnd": "2026-03-01T20:59:59.000Z"
    },
    {
      "id": "istanbul-26512",
      "name": "ADA ECZANESİ",
      "address": "Soğanlık Yeni Mahallesi, Mimar Sinan Caddesi, 40A",
      "phone": "+902163771122",
      "district": "KARTAL",
      "city": "İstanbul",
      "latitude": 40.917062914057084,
      "longitude": 29.19186472842384,
      "dutyStart": "2026-02-28T21:00:00.000Z",
      "dutyEnd": "2026-03-01T20:59:59.000Z"
    },
    {
      "id": "istanbul-22320",
      "name": "AKASYA ECZANESİ",
      "address": "Kavaklı Mahallesi, İbrahim Müteferrika Caddesi, 35B",
      "phone": "+902128767936",
      "district": "BEYLİKDÜZÜ",
      "city": "İstanbul",
      "latitude": 40.98515199961337,
      "longitude": 28.660128999474573,
      "dutyStart": "2026-02-28T21:00:00.000Z",
      "dutyEnd": "2026-03-01T20:59:59.000Z"
    },
    {
      "id": "istanbul-13218",
      "name": "AKVARYUM ECZANESİ",
      "address": "Şenlikköy Mahallesi, Eski Halkalı Caddesi, 33",
      "phone": "+902125742420",
      "district": "BAKIRKÖY",
      "city": "İstanbul",
      "latitude": 40.965589305422185,
      "longitude": 28.79822041043667,
      "dutyStart": "2026-02-28T21:00:00.000Z",
      "dutyEnd": "2026-03-01T20:59:59.000Z"
    },
    {
      "id": "istanbul-3520",
      "name": "ATAKÖY ECZANESİ",
      "address": "Ataköy 3-4-11.  Kısım Mahallesi, Adnan Kahveci Bulvarı, 2",
      "phone": "+902125608560",
      "district": "BAKIRKÖY",
      "city": "İstanbul",
      "latitude": 40.98554859430013,
      "longitude": 28.855049054414515,
      "dutyStart": "2026-02-28T21:00:00.000Z",
      "dutyEnd": "2026-03-01T20:59:59.000Z"
    },
    {
      "id": "istanbul-19156",
      "name": "ATAŞEHİR PLUS ECZANESİ",
      "address": "Küçükbakkalköy Mahallesi Vedat Günyol Caddesi 32/B",
      "phone": "+902165774600",
      "district": "ATAŞEHİR",
      "city": "İstanbul",
      "latitude": 40.98487147076314,
      "longitude": 29.107518892398637,
      "dutyStart": "2026-02-28T21:00:00.000Z",
      "dutyEnd": "2026-03-01T20:59:59.000Z"
    },
    {
      "id": "istanbul-27544",
      "name": "ATLAS ECZANESİ",
      "address": "Sahrayıcedit Mahallesi, İnönü Caddesi, 14/A",
      "phone": "+902167711012",
      "district": "KADIKÖY",
      "city": "İstanbul",
      "latitude": 40.97964399955295,
      "longitude": 29.08131299974944,
      "dutyStart": "2026-02-28T21:00:00.000Z",
      "dutyEnd": "2026-03-01T20:59:59.000Z"
    },
    {
      "id": "istanbul-11502",
      "name": "ATİKALİ ECZANESİ",
      "address": "Atikali Mahallesi, Çarşamba Değirmeni Sokak, 7/A",
      "phone": "+902125317729",
      "district": "FATİH",
      "city": "İstanbul",
      "latitude": 41.02685909627819,
      "longitude": 28.946311616896836,
      "dutyStart": "2026-02-28T21:00:00.000Z",
      "dutyEnd": "2026-03-01T20:59:59.000Z"
    },
    {
      "id": "istanbul-28910",
      "name": "AYBÜKE İREM ECZANESİ",
      "address": "Feneryolu Mahallesi, Fahrettin Kerim Gökay Caddesi, 138/A",
      "phone": "+905385299049",
      "district": "KADIKÖY",
      "city": "İstanbul",
      "latitude": 40.98433499994286,
      "longitude": 29.056439000396573,
      "dutyStart": "2026-02-28T21:00:00.000Z",
      "dutyEnd": "2026-03-01T20:59:59.000Z"
    },
    {
      "id": "istanbul-31698",
      "name": "AYDA ECZANESİ",
      "address": "Bulgurlu Mahallesi, Özilhan Sokak, 9/A",
      "phone": "+902166508192",
      "district": "ÜSKÜDAR",
      "city": "İstanbul",
      "latitude": 41.01657300028362,
      "longitude": 29.07929200016185,
      "dutyStart": "2026-02-28T21:00:00.000Z",
      "dutyEnd": "2026-03-01T20:59:59.000Z"
    },
    {
      "id": "istanbul-6122",
      "name": "AYDIN ECZANESİ",
      "address": "Paşabahçe Mahallesi, Beyaz Erguvan Caddesi, 64",
      "phone": "+902166800062",
      "district": "BEYKOZ",
      "city": "İstanbul",
      "latitude": 41.116551198715705,
      "longitude": 29.098555786152524,
      "dutyStart": "2026-02-28T21:00:00.000Z",
      "dutyEnd": "2026-03-01T20:59:59.000Z"
    },
    {
      "id": "istanbul-22446",
      "name": "AYLİN ECZANESİ (V)",
      "address": "Kazım Karabekir Paşa Mahallesi, Gülbağlar Caddesi, 5/A",
      "phone": "+902122717265",
      "district": "SARIYER",
      "city": "İstanbul",
      "latitude": 41.16025512425035,
      "longitude": 29.02660303921981,
      "dutyStart": "2026-02-28T21:00:00.000Z",
      "dutyEnd": "2026-03-01T20:59:59.000Z"
    },
    {
      "id": "istanbul-20088",
      "name": "AYNALI ÇARŞI ECZANESİ",
      "address": "Maslak Mahallesi, Taşyoncası Sokak, (Maslak 1453 sitesi D Blok) No:1 AC İç Kapı No:1",
      "phone": "+902128039090",
      "district": "ADALAR",
      "city": "İstanbul",
      "latitude": 40.881130320206495,
      "longitude": 29.07005220698589,
      "dutyStart": "2026-02-28T21:00:00.000Z",
      "dutyEnd": "2026-03-01T20:59:59.000Z"
    },
    {
      "id": "istanbul-26514",
      "name": "AYTEN ECZANESİ",
      "address": "Avcılar Merkez Mahallesi, Fırın Sokak, 21C",
      "phone": "+902129842616",
      "district": "AVCILAR",
      "city": "İstanbul",
      "latitude": 40.98075712453762,
      "longitude": 28.719552352294734,
      "dutyStart": "2026-02-28T21:00:00.000Z",
      "dutyEnd": "2026-03-01T20:59:59.000Z"
    },
    {
      "id": "istanbul-17632",
      "name": "AİLE ECZANESİ",
      "address": "50. Yıl Mahallesi, O Caddesi, 84/A-B",
      "phone": "+902126686668",
      "district": "SULTANGAZİ",
      "city": "İstanbul",
      "latitude": 41.09246679224944,
      "longitude": 28.870227072948023,
      "dutyStart": "2026-02-28T21:00:00.000Z",
      "dutyEnd": "2026-03-01T20:59:59.000Z"
    },
    {
      "id": "istanbul-5790",
      "name": "BAHARİYE ECZANESİ",
      "address": "Caferağa Mahallesi, Sakızgülü Sokak, 31",
      "phone": "+902163367405",
      "district": "KADIKÖY",
      "city": "İstanbul",
      "latitude": 40.98739213516175,
      "longitude": 29.02798645215851,
      "dutyStart": "2026-02-28T21:00:00.000Z",
      "dutyEnd": "2026-03-01T20:59:59.000Z"
    },
    {
      "id": "istanbul-28176",
      "name": "BAL ECZANESİ",
      "address": "Gökevler Mahallesi, 564, 3C",
      "phone": "+902128779747",
      "district": "ESENYURT",
      "city": "İstanbul",
      "latitude": 41.02350818300879,
      "longitude": 28.63599319352116,
      "dutyStart": "2026-02-28T21:00:00.000Z",
      "dutyEnd": "2026-03-01T20:59:59.000Z"
    },
    {
      "id": "istanbul-30168",
      "name": "BARIŞ ECZANESİ",
      "address": "Esenevler Mahallesi, Cengiz Topel Caddesi, 133/A",
      "phone": "+902165218456",
      "district": "ÜMRANİYE",
      "city": "İstanbul",
      "latitude": 41.01214399983525,
      "longitude": 29.093899000095366,
      "dutyStart": "2026-02-28T21:00:00.000Z",
      "dutyEnd": "2026-03-01T20:59:59.000Z"
    },
    {
      "id": "istanbul-21702",
      "name": "BEŞEVLER ECZANESİ",
      "address": "Çubuklu Mahallesi, Nazım Tur Caddesi, No:102/A",
      "phone": "+902163221014",
      "district": "BEYKOZ",
      "city": "İstanbul",
      "latitude": 41.10015400043778,
      "longitude": 29.09254199986842,
      "dutyStart": "2026-02-28T21:00:00.000Z",
      "dutyEnd": "2026-03-01T20:59:59.000Z"
    },
    {
      "id": "istanbul-31662",
      "name": "BOĞAZİÇİ ECZANESİ",
      "address": "Rumelihisarı Mahallesi, Hisarüstü Nispetiye Caddesi, 15/A",
      "phone": "+902122656035",
      "district": "SARIYER",
      "city": "İstanbul",
      "latitude": 41.08543399967126,
      "longitude": 29.046333000096038,
      "dutyStart": "2026-02-28T21:00:00.000Z",
      "dutyEnd": "2026-03-01T20:59:59.000Z"
    },
    {
      "id": "istanbul-20050",
      "name": "BOĞAZİÇİ ECZANESİ",
      "address": "Altayçeşme Mahallesi, Atatürk Caddesi, 81/C",
      "phone": "+902164571188",
      "district": "MALTEPE",
      "city": "İstanbul",
      "latitude": 40.93013488217623,
      "longitude": 29.134401070241097,
      "dutyStart": "2026-02-28T21:00:00.000Z",
      "dutyEnd": "2026-03-01T20:59:59.000Z"
    },
    {
      "id": "istanbul-15456",
      "name": "BULVAR ECZANESİ",
      "address": "İsmetpaşa Mahallesi, 48/1. Sokak, 4/B",
      "phone": "+902125948637",
      "district": "SULTANGAZİ",
      "city": "İstanbul",
      "latitude": 41.10595699960623,
      "longitude": 28.86001299975292,
      "dutyStart": "2026-02-28T21:00:00.000Z",
      "dutyEnd": "2026-03-01T20:59:59.000Z"
    },
    {
      "id": "istanbul-2338",
      "name": "BURGAZADA ECZANESİ",
      "address": "Burgazadası Mahallesi, Çınarlık Sokak, 3",
      "phone": "+902163812112",
      "district": "ADALAR",
      "city": "İstanbul",
      "latitude": 40.87998754997831,
      "longitude": 29.06919493887321,
      "dutyStart": "2026-02-28T21:00:00.000Z",
      "dutyEnd": "2026-03-01T20:59:59.000Z"
    },
    {
      "id": "istanbul-5672",
      "name": "BÜYÜKADA ECZANESİ",
      "address": "Maden Mahallesi, Çınar Caddesi, 4/A",
      "phone": "+902163826756",
      "district": "ADALAR",
      "city": "İstanbul",
      "latitude": 40.873184910454206,
      "longitude": 29.12787094624563,
      "dutyStart": "2026-02-28T21:00:00.000Z",
      "dutyEnd": "2026-03-01T20:59:59.000Z"
    },
    {
      "id": "istanbul-29738",
      "name": "BİZİM MAHALLE ECZANESİ",
      "address": "Halkalı Merkez Mahallesi, 1438. Sokak, Emlak Konut Bizim Mahalle Sitesi 1.Etap 1.Kısım D Blok No:93",
      "phone": "+902125998199",
      "district": "KÜÇÜKÇEKMECE",
      "city": "İstanbul",
      "latitude": 41.02665323707578,
      "longitude": 28.779092642614568,
      "dutyStart": "2026-02-28T21:00:00.000Z",
      "dutyEnd": "2026-03-01T20:59:59.000Z"
    },
    {
      "id": "istanbul-24176",
      "name": "CADDE ECZANESİ",
      "address": "Bağlarbaşı Mahallesi, Bağlarbaşı Caddesi, 20/B",
      "phone": "+902126169304",
      "district": "GAZİOSMANPAŞA",
      "city": "İstanbul",
      "latitude": 41.05990699993054,
      "longitude": 28.91380500020329,
      "dutyStart": "2026-02-28T21:00:00.000Z",
      "dutyEnd": "2026-03-01T20:59:59.000Z"
    },
    {
      "id": "istanbul-15842",
      "name": "CAN ECZANESİ",
      "address": "Hürriyet Mahallesi, 255. Sokak, 14/1",
      "phone": "+902124180304",
      "district": "GAZİOSMANPAŞA",
      "city": "İstanbul",
      "latitude": 41.065750907802176,
      "longitude": 28.900165256953674,
      "dutyStart": "2026-02-28T21:00:00.000Z",
      "dutyEnd": "2026-03-01T20:59:59.000Z"
    },
    {
      "id": "istanbul-3666",
      "name": "CEM ECZANESİ",
      "address": "Bebek Mahallesi, Cevdet Paşa Sokak, 43/A",
      "phone": "+902122633072",
      "district": "BEŞİKTAŞ",
      "city": "İstanbul",
      "latitude": 41.07597583126172,
      "longitude": 29.04294725380835,
      "dutyStart": "2026-02-28T21:00:00.000Z",
      "dutyEnd": "2026-03-01T20:59:59.000Z"
    },
    {
      "id": "istanbul-30692",
      "name": "CUMHURİYET ECZANESİ",
      "address": "Çavuş Mahallesi, Cumhuriyet Caddesi, No:57/F",
      "phone": "+902167121012",
      "district": "ŞİLE",
      "city": "İstanbul",
      "latitude": 41.17319582797621,
      "longitude": 29.609625141422754,
      "dutyStart": "2026-02-28T21:00:00.000Z",
      "dutyEnd": "2026-03-01T20:59:59.000Z"
    },
    {
      "id": "istanbul-24708",
      "name": "DEFNE ECZANESİ",
      "address": "Yeni Mahallesi, Salih Tamcı Sokak, 20/D",
      "phone": "+905526063334",
      "district": "KÜÇÜKÇEKMECE",
      "city": "İstanbul",
      "latitude": 40.99493300028877,
      "longitude": 28.777539000322207,
      "dutyStart": "2026-02-28T21:00:00.000Z",
      "dutyEnd": "2026-03-01T20:59:59.000Z"
    },
    {
      "id": "istanbul-23318",
      "name": "DENİZ ECZANESİ",
      "address": "Topçular Mahallesi Eyüp Sultan Bulvarı 67/A",
      "phone": "+902125011850",
      "district": "EYÜPSULTAN",
      "city": "İstanbul",
      "latitude": 41.03965784418653,
      "longitude": 28.92661889167026,
      "dutyStart": "2026-02-28T21:00:00.000Z",
      "dutyEnd": "2026-03-01T20:59:59.000Z"
    },
    {
      "id": "istanbul-6638",
      "name": "DENİZ ECZANESİ",
      "address": "Kınalıada Mahallesi, İskele Sokak, 3/B",
      "phone": "+902163815181",
      "district": "ADALAR",
      "city": "İstanbul",
      "latitude": 40.91038290210339,
      "longitude": 29.05476093340845,
      "dutyStart": "2026-02-28T21:00:00.000Z",
      "dutyEnd": "2026-03-01T20:59:59.000Z"
    },
    {
      "id": "istanbul-25096",
      "name": "DERYA ECZANESİ",
      "address": "Çınar Mahallesi, 7/2b Sokak, 1/1",
      "phone": "+902126343007",
      "district": "BAĞCILAR",
      "city": "İstanbul",
      "latitude": 41.0358322256207,
      "longitude": 28.860141188375867,
      "dutyStart": "2026-02-28T21:00:00.000Z",
      "dutyEnd": "2026-03-01T20:59:59.000Z"
    },
    {
      "id": "istanbul-26024",
      "name": "DEVA ECZANESİ",
      "address": "Çırpıcı Mahallesi, Şener Sokak, 21B",
      "phone": "+902125820465",
      "district": "ZEYTİNBURNU",
      "city": "İstanbul",
      "latitude": 40.99969159284434,
      "longitude": 28.896266519858912,
      "dutyStart": "2026-02-28T21:00:00.000Z",
      "dutyEnd": "2026-03-01T20:59:59.000Z"
    },
    {
      "id": "istanbul-20522",
      "name": "DOĞAN ECZANESİ",
      "address": "Akpınar Mahallesi, Hasan Basri Caddesi, Yiğitler Sokak, 5/A",
      "phone": "+902165617373",
      "district": "SANCAKTEPE",
      "city": "İstanbul",
      "latitude": 40.97147793120463,
      "longitude": 29.231439015195296,
      "dutyStart": "2026-02-28T21:00:00.000Z",
      "dutyEnd": "2026-03-01T20:59:59.000Z"
    },
    {
      "id": "istanbul-20784",
      "name": "DOĞANAY ECZANESİ",
      "address": "Haraççı Merkez Mahallesi, Hazal Sokak, 33C",
      "phone": "+902126830050",
      "district": "ARNAVUTKÖY",
      "city": "İstanbul",
      "latitude": 41.179206132541836,
      "longitude": 28.709559644605086,
      "dutyStart": "2026-02-28T21:00:00.000Z",
      "dutyEnd": "2026-03-01T20:59:59.000Z"
    },
    {
      "id": "istanbul-28320",
      "name": "DİDEM ECZANESİ",
      "address": "75. Yıl Mahallesi, 1335. Sokak, 44/A",
      "phone": "+902125365045",
      "district": "SULTANGAZİ",
      "city": "İstanbul",
      "latitude": 41.098923999693845,
      "longitude": 28.90017699994503,
      "dutyStart": "2026-02-28T21:00:00.000Z",
      "dutyEnd": "2026-03-01T20:59:59.000Z"
    },
    {
      "id": "istanbul-19138",
      "name": "DİLA ECZANESİ",
      "address": "Şifa Mahallesi, Emiroğlu Caddesi, 133",
      "phone": "+902164235226",
      "district": "TUZLA",
      "city": "İstanbul",
      "latitude": 40.83691791666359,
      "longitude": 29.360457258554668,
      "dutyStart": "2026-02-28T21:00:00.000Z",
      "dutyEnd": "2026-03-01T20:59:59.000Z"
    },
    {
      "id": "istanbul-11412",
      "name": "DİLEM ECZANESİ",
      "address": "Ulus Mahallesi, Atatürk Caddesi, 24/A",
      "phone": "+902128610622",
      "district": "BÜYÜKÇEKMECE",
      "city": "İstanbul",
      "latitude": 41.030270175553184,
      "longitude": 28.55205968562679,
      "dutyStart": "2026-02-28T21:00:00.000Z",
      "dutyEnd": "2026-03-01T20:59:59.000Z"
    },
    {
      "id": "istanbul-26130",
      "name": "DİVAN ECZANESİ",
      "address": "Çamçeşme Mahallesi, Aydınlı Caddesi, 59A",
      "phone": "+902162511321",
      "district": "PENDİK",
      "city": "İstanbul",
      "latitude": 40.87057087955276,
      "longitude": 29.273657023512694,
      "dutyStart": "2026-02-28T21:00:00.000Z",
      "dutyEnd": "2026-03-01T20:59:59.000Z"
    },
    {
      "id": "istanbul-29754",
      "name": "EBRAR ECZANESİ",
      "address": "Koza Mahallesi, 1655. Sokak, NO:119-2F",
      "phone": "+902126980007",
      "district": "ESENYURT",
      "city": "İstanbul",
      "latitude": 41.05875634556751,
      "longitude": 28.66892300337805,
      "dutyStart": "2026-02-28T21:00:00.000Z",
      "dutyEnd": "2026-03-01T20:59:59.000Z"
    },
    {
      "id": "istanbul-28492",
      "name": "ECZANE ANIL",
      "address": "Zeytinlik Mahallesi, Cumhuriyetçi Sokak, 17A",
      "phone": "+902125612138",
      "district": "BAKIRKÖY",
      "city": "İstanbul",
      "latitude": 40.97916800037156,
      "longitude": 28.87080200024416,
      "dutyStart": "2026-02-28T21:00:00.000Z",
      "dutyEnd": "2026-03-01T20:59:59.000Z"
    },
    {
      "id": "istanbul-16748",
      "name": "ECZANE CADDE 24",
      "address": "Halkalı Merkez Mahallesi, 1. Posta Sokak, 12G/17",
      "phone": "+905313754245",
      "district": "KÜÇÜKÇEKMECE",
      "city": "İstanbul",
      "latitude": 41.03648856369682,
      "longitude": 28.784354515283994,
      "dutyStart": "2026-02-28T21:00:00.000Z",
      "dutyEnd": "2026-03-01T20:59:59.000Z"
    },
    {
      "id": "istanbul-26862",
      "name": "ECZANE LEVENT",
      "address": "İnönü Mahallesi, Aşık Veysel Caddesi, 11/A",
      "phone": "+905449770930",
      "district": "SANCAKTEPE",
      "city": "İstanbul",
      "latitude": 41.01115699976218,
      "longitude": 29.211973000064244,
      "dutyStart": "2026-02-28T21:00:00.000Z",
      "dutyEnd": "2026-03-01T20:59:59.000Z"
    },
    {
      "id": "istanbul-18866",
      "name": "EFE ECZANESİ",
      "address": "Sümer Mahallesi, Şehit Piyade Er Yaşar Yeşilkır Sokak, 15/B",
      "phone": "+902124154560",
      "district": "ZEYTİNBURNU",
      "city": "İstanbul",
      "latitude": 40.986142789631,
      "longitude": 28.89641360490077,
      "dutyStart": "2026-02-28T21:00:00.000Z",
      "dutyEnd": "2026-03-01T20:59:59.000Z"
    },
    {
      "id": "istanbul-26124",
      "name": "EFEOĞLU ECZANESİ",
      "address": "Kağıthane Merkez Mahallesi, Cendere Caddesi, 16/1 ",
      "phone": "+902128431110",
      "district": "KAĞITHANE",
      "city": "İstanbul",
      "latitude": 41.083870000392665,
      "longitude": 28.977620999409318,
      "dutyStart": "2026-02-28T21:00:00.000Z",
      "dutyEnd": "2026-03-01T20:59:59.000Z"
    },
    {
      "id": "istanbul-29422",
      "name": "EFSUN ECZANESİ",
      "address": "Örnek Mahallesi, Yunus Emre Caddesi, 62/B",
      "phone": "+902163246231",
      "district": "ATAŞEHİR",
      "city": "İstanbul",
      "latitude": 40.99863500040204,
      "longitude": 29.08057700028814,
      "dutyStart": "2026-02-28T21:00:00.000Z",
      "dutyEnd": "2026-03-01T20:59:59.000Z"
    },
    {
      "id": "istanbul-15462",
      "name": "EGE ECZANESİ",
      "address": "Çatalmeşe Mahallesi, Reşadiye Caddesi, 58/1A",
      "phone": "+902166417853",
      "district": "ÇEKMEKÖY",
      "city": "İstanbul",
      "latitude": 41.05224299982914,
      "longitude": 29.23999199957352,
      "dutyStart": "2026-02-28T21:00:00.000Z",
      "dutyEnd": "2026-03-01T20:59:59.000Z"
    },
    {
      "id": "istanbul-25906",
      "name": "ELİT ECZANESİ",
      "address": "Göztepe Mahallesi, Bağdat Caddesi, 209A",
      "phone": "+905465961256",
      "district": "KADIKÖY",
      "city": "İstanbul",
      "latitude": 40.973733631235525,
      "longitude": 29.056149820489907,
      "dutyStart": "2026-02-28T21:00:00.000Z",
      "dutyEnd": "2026-03-01T20:59:59.000Z"
    },
    {
      "id": "istanbul-15804",
      "name": "EMEK ECZANESİ",
      "address": "Cumhuriyet Mahallesi, Şehit Raif Esmertaş Sokak, 7",
      "phone": "+902128721999",
      "district": "BEYLİKDÜZÜ",
      "city": "İstanbul",
      "latitude": 41.007209835905414,
      "longitude": 28.64290511989848,
      "dutyStart": "2026-02-28T21:00:00.000Z",
      "dutyEnd": "2026-03-01T20:59:59.000Z"
    },
    {
      "id": "istanbul-17082",
      "name": "EMİN ECZANESİ",
      "address": "Cumhuriyet Mahallesi, Bilgiç Sokak, 1",
      "phone": "+902123439637",
      "district": "ŞİŞLİ",
      "city": "İstanbul",
      "latitude": 41.05376478481181,
      "longitude": 28.982765000979175,
      "dutyStart": "2026-02-28T21:00:00.000Z",
      "dutyEnd": "2026-03-01T20:59:59.000Z"
    },
    {
      "id": "istanbul-20904",
      "name": "EYLÜL ECZANESİ",
      "address": "Hasanpaşa Mahallesi, F. Kerim Gökay Caddesi, 61/A",
      "phone": "+902165507175",
      "district": "KADIKÖY",
      "city": "İstanbul",
      "latitude": 40.99220784960385,
      "longitude": 29.039146793854822,
      "dutyStart": "2026-02-28T21:00:00.000Z",
      "dutyEnd": "2026-03-01T20:59:59.000Z"
    },
    {
      "id": "istanbul-25474",
      "name": "EZGİ ECZANESİ",
      "address": "Gültepe Mahallesi, 1012. Sokak, 4-6C2",
      "phone": "+902125412424",
      "district": "KÜÇÜKÇEKMECE",
      "city": "İstanbul",
      "latitude": 40.98848981416055,
      "longitude": 28.790633082048007,
      "dutyStart": "2026-02-28T21:00:00.000Z",
      "dutyEnd": "2026-03-01T20:59:59.000Z"
    },
    {
      "id": "istanbul-25616",
      "name": "FATİH ECZANESİ",
      "address": "Söğütlüçeşme Mahallesi, Celildağ Caddesi, 9/1",
      "phone": "+902126962427",
      "district": "KÜÇÜKÇEKMECE",
      "city": "İstanbul",
      "latitude": 41.0219653172337,
      "longitude": 28.789389233462725,
      "dutyStart": "2026-02-28T21:00:00.000Z",
      "dutyEnd": "2026-03-01T20:59:59.000Z"
    },
    {
      "id": "istanbul-25288",
      "name": "FATİH ECZANESİ",
      "address": "Hadımköy Mahallesi, Şebeke Caddesi, 1",
      "phone": "+902127801570",
      "district": "ARNAVUTKÖY",
      "city": "İstanbul",
      "latitude": 41.18114612408587,
      "longitude": 28.61046910313059,
      "dutyStart": "2026-02-28T21:00:00.000Z",
      "dutyEnd": "2026-03-01T20:59:59.000Z"
    },
    {
      "id": "istanbul-18216",
      "name": "FINDIKZADE ECZANESİ",
      "address": "Haseki Sultan Mahallesi, Turgut Özal Millet Caddesi, 57",
      "phone": "+902125896343",
      "district": "FATİH",
      "city": "İstanbul",
      "latitude": 41.011675820154586,
      "longitude": 28.939665010349664,
      "dutyStart": "2026-02-28T21:00:00.000Z",
      "dutyEnd": "2026-03-01T20:59:59.000Z"
    },
    {
      "id": "istanbul-15202",
      "name": "FULYA ECZANESİ",
      "address": "Kurtköy Mahallesi, Ankara Caddesi, 1/A",
      "phone": "+902165952302",
      "district": "PENDİK",
      "city": "İstanbul",
      "latitude": 40.914148562972805,
      "longitude": 29.300681616024427,
      "dutyStart": "2026-02-28T21:00:00.000Z",
      "dutyEnd": "2026-03-01T20:59:59.000Z"
    },
    {
      "id": "istanbul-19450",
      "name": "GENÇ ECZANE",
      "address": "Karayolları Mahallesi, 621. Sokak, 40",
      "phone": "+902124792244",
      "district": "GAZİOSMANPAŞA",
      "city": "İstanbul",
      "latitude": 41.08769708735077,
      "longitude": 28.89822944676934,
      "dutyStart": "2026-02-28T21:00:00.000Z",
      "dutyEnd": "2026-03-01T20:59:59.000Z"
    },
    {
      "id": "istanbul-15474",
      "name": "GÖKHAN ECZANESİ",
      "address": "Kurtköy Mahallesi, Bakü Caddesi, 3/AF",
      "phone": "+902163905251",
      "district": "PENDİK",
      "city": "İstanbul",
      "latitude": 40.918038999605095,
      "longitude": 29.302900999522656,
      "dutyStart": "2026-02-28T21:00:00.000Z",
      "dutyEnd": "2026-03-01T20:59:59.000Z"
    },
    {
      "id": "istanbul-21192",
      "name": "GÖKSU ECZANESİ",
      "address": "Pınar Mahallesi, 19 Mayıs Bulvarı, 54/A",
      "phone": "+902125964606",
      "district": "ESENYURT",
      "city": "İstanbul",
      "latitude": 41.02957381331714,
      "longitude": 28.667735628454736,
      "dutyStart": "2026-02-28T21:00:00.000Z",
      "dutyEnd": "2026-03-01T20:59:59.000Z"
    },
    {
      "id": "istanbul-11242",
      "name": "GÖKSUN ECZANESİ",
      "address": "Cerrahpaşa Mahallesi, Koca Mustafapaşa Caddesi, 42/A",
      "phone": "+902125862841",
      "district": "FATİH",
      "city": "İstanbul",
      "latitude": 41.006937355462235,
      "longitude": 28.941740702281262,
      "dutyStart": "2026-02-28T21:00:00.000Z",
      "dutyEnd": "2026-03-01T20:59:59.000Z"
    },
    {
      "id": "istanbul-10338",
      "name": "GÖRKEM ECZANESİ",
      "address": "İçerenköy Mahallesi, Taşeli Sokak, C Blok 51/1-A",
      "phone": "+902165735564",
      "district": "ATAŞEHİR",
      "city": "İstanbul",
      "latitude": 40.97492100205568,
      "longitude": 29.11235300053353,
      "dutyStart": "2026-02-28T21:00:00.000Z",
      "dutyEnd": "2026-03-01T20:59:59.000Z"
    },
    {
      "id": "istanbul-28020",
      "name": "GÖZDE ECZANESİ",
      "address": "Mehmet Akif Mahallesi, Köknar Caddesi, 39/A",
      "phone": "+902166422004",
      "district": "ÇEKMEKÖY",
      "city": "İstanbul",
      "latitude": 41.01656599971519,
      "longitude": 29.186757999874715,
      "dutyStart": "2026-02-28T21:00:00.000Z",
      "dutyEnd": "2026-03-01T20:59:59.000Z"
    },
    {
      "id": "istanbul-24824",
      "name": "GÜLAN ECZANESİ",
      "address": "Valideiatik Mahallesi, Dr. Fahri Atabey Caddesi, 89B",
      "phone": "+902166951324",
      "district": "ÜSKÜDAR",
      "city": "İstanbul",
      "latitude": 41.01587741228315,
      "longitude": 29.02691021600858,
      "dutyStart": "2026-02-28T21:00:00.000Z",
      "dutyEnd": "2026-03-01T20:59:59.000Z"
    },
    {
      "id": "istanbul-3880",
      "name": "GÜLAY ECZANESİ",
      "address": "Hürriyet Mahallesi, Hürriyet Caddesi, 84",
      "phone": "+902125527021",
      "district": "BAHÇELİEVLER",
      "city": "İstanbul",
      "latitude": 40.999166693184094,
      "longitude": 28.84074565762987,
      "dutyStart": "2026-02-28T21:00:00.000Z",
      "dutyEnd": "2026-03-01T20:59:59.000Z"
    },
    {
      "id": "istanbul-9460",
      "name": "GÜLDEN ECZANESİ",
      "address": "Atatürk Mahallesi, Atatürk Caddesi, 49C",
      "phone": "+902128826602",
      "district": "BÜYÜKÇEKMECE",
      "city": "İstanbul",
      "latitude": 41.013186002019694,
      "longitude": 28.59986766882471,
      "dutyStart": "2026-02-28T21:00:00.000Z",
      "dutyEnd": "2026-03-01T20:59:59.000Z"
    },
    {
      "id": "istanbul-15678",
      "name": "GÜLER ECZANESİ",
      "address": "Atatürk Mahallesi, Halkalı Yolu Caddesi, 11/B",
      "phone": "+902126931149",
      "district": "KÜÇÜKÇEKMECE",
      "city": "İstanbul",
      "latitude": 41.05493264151207,
      "longitude": 28.79271444982341,
      "dutyStart": "2026-02-28T21:00:00.000Z",
      "dutyEnd": "2026-03-01T20:59:59.000Z"
    },
    {
      "id": "istanbul-13034",
      "name": "GÜLERMAN ECZANESİ",
      "address": "Erenköy Mahallesi, Erenköy İstasyon Caddesi, Dış Kapı No:11/C",
      "phone": "+902164671238",
      "district": "KADIKÖY",
      "city": "İstanbul",
      "latitude": 40.97239564896352,
      "longitude": 29.07752302816068,
      "dutyStart": "2026-02-28T21:00:00.000Z",
      "dutyEnd": "2026-03-01T20:59:59.000Z"
    },
    {
      "id": "istanbul-19366",
      "name": "GÜNEŞLİ DENİZ ECZANESİ",
      "address": "Güneşli Mahallesi, Vakıflar Caddesi, 6/A",
      "phone": "+902125152325",
      "district": "BAĞCILAR",
      "city": "İstanbul",
      "latitude": 41.03593832159071,
      "longitude": 28.832344114780202,
      "dutyStart": "2026-02-28T21:00:00.000Z",
      "dutyEnd": "2026-03-01T20:59:59.000Z"
    },
    {
      "id": "istanbul-26352",
      "name": "HALİÇ ECZANESİ",
      "address": "Sütlüce Mahallesi, İmrahor Caddesi, 2/2C",
      "phone": "+905334970502",
      "district": "BEYOĞLU",
      "city": "İstanbul",
      "latitude": 41.05367100001862,
      "longitude": 28.944195000461157,
      "dutyStart": "2026-02-28T21:00:00.000Z",
      "dutyEnd": "2026-03-01T20:59:59.000Z"
    },
    {
      "id": "istanbul-13762",
      "name": "HAYAT ECZANESİ",
      "address": "Heybeliada Mahallesi, Ayyıldız Caddesi, 43",
      "phone": "+902163519907",
      "district": "ADALAR",
      "city": "İstanbul",
      "latitude": 40.87805005093138,
      "longitude": 29.099723346130244,
      "dutyStart": "2026-02-28T21:00:00.000Z",
      "dutyEnd": "2026-03-01T20:59:59.000Z"
    },
    {
      "id": "istanbul-33698",
      "name": "HAZAL ECZANESİ",
      "address": "Emniyettepe Mahallesi, 1. Tulumba Sokak, 7/A",
      "phone": "+902126250102",
      "district": "EYÜPSULTAN",
      "city": "İstanbul",
      "latitude": 41.07265499964817,
      "longitude": 28.95052799972169,
      "dutyStart": "2026-02-28T21:00:00.000Z",
      "dutyEnd": "2026-03-01T20:59:59.000Z"
    },
    {
      "id": "istanbul-24668",
      "name": "HUZUR ECZANESİ",
      "address": "Bahçelievler Mahallesi, Zıpkın Sokak, 7A",
      "phone": "+902163900153",
      "district": "PENDİK",
      "city": "İstanbul",
      "latitude": 40.88293243901322,
      "longitude": 29.235888958158053,
      "dutyStart": "2026-02-28T21:00:00.000Z",
      "dutyEnd": "2026-03-01T20:59:59.000Z"
    },
    {
      "id": "istanbul-18920",
      "name": "HİKMET ECZANESİ",
      "address": "Yeniçamlıca Mahallesi, Dursunbey Caddesi, 15/B",
      "phone": "+902166611500",
      "district": "ATAŞEHİR",
      "city": "İstanbul",
      "latitude": 40.98932747138082,
      "longitude": 29.161960761740417,
      "dutyStart": "2026-02-28T21:00:00.000Z",
      "dutyEnd": "2026-03-01T20:59:59.000Z"
    },
    {
      "id": "istanbul-32952",
      "name": "HİLMİ ECZANESİ",
      "address": "İstiklal Mahallesi, Talatpaşa Caddesi, 105/C",
      "phone": "+902163167037",
      "district": "ÜMRANİYE",
      "city": "İstanbul",
      "latitude": 41.01570199977801,
      "longitude": 29.099801000000845,
      "dutyStart": "2026-02-28T21:00:00.000Z",
      "dutyEnd": "2026-03-01T20:59:59.000Z"
    },
    {
      "id": "istanbul-32560",
      "name": "IHLAMUR ECZANESİ",
      "address": "Adnan Kahveci Mahallesi, Ihlamur Caddesi, 28/3B-3C-3D D BLOK İÇ KAPI:22-23-24",
      "phone": "+902129990621",
      "district": "BEYLİKDÜZÜ",
      "city": "İstanbul",
      "latitude": 40.99687299977416,
      "longitude": 28.63237099963939,
      "dutyStart": "2026-02-28T21:00:00.000Z",
      "dutyEnd": "2026-03-01T20:59:59.000Z"
    },
    {
      "id": "istanbul-27768",
      "name": "IRMAK ECZANESİ",
      "address": "Bahçelievler Mahallesi, Zübeyde Hanım Caddesi, 38/2",
      "phone": "+908502027834",
      "district": "ÜSKÜDAR",
      "city": "İstanbul",
      "latitude": 41.054140499916166,
      "longitude": 29.075708030164265,
      "dutyStart": "2026-02-28T21:00:00.000Z",
      "dutyEnd": "2026-03-01T20:59:59.000Z"
    },
    {
      "id": "istanbul-10732",
      "name": "IŞIK ECZANESİ",
      "address": "Doğu Mahallesi, Namık Kemal Caddesi, 52/C",
      "phone": "+902163540070",
      "district": "PENDİK",
      "city": "İstanbul",
      "latitude": 40.87717125318317,
      "longitude": 29.2354183795719,
      "dutyStart": "2026-02-28T21:00:00.000Z",
      "dutyEnd": "2026-03-01T20:59:59.000Z"
    },
    {
      "id": "istanbul-32456",
      "name": "KAHRAMAN ECZANESİ",
      "address": "Yavuztürk Mahallesi, Karadeniz Caddesi, 128/K",
      "phone": "+902164439998",
      "district": "ÜSKÜDAR",
      "city": "İstanbul",
      "latitude": 41.040723000080476,
      "longitude": 29.085715000327255,
      "dutyStart": "2026-02-28T21:00:00.000Z",
      "dutyEnd": "2026-03-01T20:59:59.000Z"
    },
    {
      "id": "istanbul-17580",
      "name": "KALENDER ECZANESİ",
      "address": "Necip Fazıl Mahallesi, Sultan Velet Sokak, 2/C",
      "phone": "+902163138821",
      "district": "ÜMRANİYE",
      "city": "İstanbul",
      "latitude": 41.017698391270635,
      "longitude": 29.17591969829186,
      "dutyStart": "2026-02-28T21:00:00.000Z",
      "dutyEnd": "2026-03-01T20:59:59.000Z"
    },
    {
      "id": "istanbul-27688",
      "name": "KAVAK ECZANESİ",
      "address": "Kavakpınar Mahallesi, Abdi İpekçi Caddesi, 182A",
      "phone": "+902165962995",
      "district": "PENDİK",
      "city": "İstanbul",
      "latitude": 40.88356192741673,
      "longitude": 29.286642869174287,
      "dutyStart": "2026-02-28T21:00:00.000Z",
      "dutyEnd": "2026-03-01T20:59:59.000Z"
    },
    {
      "id": "istanbul-24386",
      "name": "KENT ECZANESİ ",
      "address": "Mimaroba Mahallesi, Belen Sokak, No:2",
      "phone": "+902128642453",
      "district": "BÜYÜKÇEKMECE",
      "city": "İstanbul",
      "latitude": 41.00091920661017,
      "longitude": 28.540705508362347,
      "dutyStart": "2026-02-28T21:00:00.000Z",
      "dutyEnd": "2026-03-01T20:59:59.000Z"
    },
    {
      "id": "istanbul-31690",
      "name": "KOCABAY ECZANESİ",
      "address": "Üniversite Mahallesi, Mareşal Caddesi, 34/AA",
      "phone": "+902125099969",
      "district": "AVCILAR",
      "city": "İstanbul",
      "latitude": 40.99848599990894,
      "longitude": 28.709095999678848,
      "dutyStart": "2026-02-28T21:00:00.000Z",
      "dutyEnd": "2026-03-01T20:59:59.000Z"
    },
    {
      "id": "istanbul-19136",
      "name": "KOÇTÜRK ECZANESİ",
      "address": "Nine Hatun Mahallesi, Seyit Onbaşı Caddesi, 112",
      "phone": "+902125694703",
      "district": "ESENLER",
      "city": "İstanbul",
      "latitude": 41.03761627423646,
      "longitude": 28.87748959393893,
      "dutyStart": "2026-02-28T21:00:00.000Z",
      "dutyEnd": "2026-03-01T20:59:59.000Z"
    },
    {
      "id": "istanbul-20794",
      "name": "LALELİ HÜLYA ECZANESİ",
      "address": "Kemalpaşa Mahallesi, Ordu Caddesi, 68/A",
      "phone": "+902124528630",
      "district": "FATİH",
      "city": "İstanbul",
      "latitude": 41.00980299986328,
      "longitude": 28.954229000259907,
      "dutyStart": "2026-02-28T21:00:00.000Z",
      "dutyEnd": "2026-03-01T20:59:59.000Z"
    },
    {
      "id": "istanbul-27426",
      "name": "LİDYA ECZANESİ",
      "address": "Fatih Mahallesi, Bahçe Yolu Caddesi, 28-30ML",
      "phone": "+902127581828",
      "district": "ESENYURT",
      "city": "İstanbul",
      "latitude": 41.03044430102727,
      "longitude": 28.6808939795524,
      "dutyStart": "2026-02-28T21:00:00.000Z",
      "dutyEnd": "2026-03-01T20:59:59.000Z"
    },
    {
      "id": "istanbul-29150",
      "name": "LİVA ECZANESİ",
      "address": "Adil Mahallesi, Polenez Caddesi, 26/B",
      "phone": "+902167590558",
      "district": "SULTANBEYLİ",
      "city": "İstanbul",
      "latitude": 40.98178899998245,
      "longitude": 29.25841600024924,
      "dutyStart": "2026-02-28T21:00:00.000Z",
      "dutyEnd": "2026-03-01T20:59:59.000Z"
    },
    {
      "id": "istanbul-23372",
      "name": "MAHMUTBEY ECZANESİ",
      "address": "Mahmutbey Mahallesi, 2549. Sokak, 2/A",
      "phone": "+902124457610",
      "district": "BAĞCILAR",
      "city": "İstanbul",
      "latitude": 41.053352000247045,
      "longitude": 28.827386999751752,
      "dutyStart": "2026-02-28T21:00:00.000Z",
      "dutyEnd": "2026-03-01T20:59:59.000Z"
    },
    {
      "id": "istanbul-28690",
      "name": "MAVİGÖL BÜŞRA ECZANESİ",
      "address": "Mavigöl Mahallesi, Koca Yusuf Cad., 11/A",
      "phone": "+902128032876",
      "district": "ARNAVUTKÖY",
      "city": "İstanbul",
      "latitude": 41.200954504838556,
      "longitude": 28.765049819419406,
      "dutyStart": "2026-02-28T21:00:00.000Z",
      "dutyEnd": "2026-03-01T20:59:59.000Z"
    },
    {
      "id": "istanbul-28806",
      "name": "MECİDİYEKÖY ECZANESİ",
      "address": "Mecidiyeköy Mahallesi, Selahattin Pınar Caddesi, 20/A",
      "phone": "+902122118983",
      "district": "ŞİŞLİ",
      "city": "İstanbul",
      "latitude": 41.067779999869074,
      "longitude": 28.99883000051564,
      "dutyStart": "2026-02-28T21:00:00.000Z",
      "dutyEnd": "2026-03-01T20:59:59.000Z"
    },
    {
      "id": "istanbul-29034",
      "name": "MERCAN ECZANESİ",
      "address": "Safa Mahallesi, Atatürk Caddesi, 419/A",
      "phone": "+902167713600",
      "district": "SANCAKTEPE",
      "city": "İstanbul",
      "latitude": 41.00578800027875,
      "longitude": 29.254777999842233,
      "dutyStart": "2026-02-28T21:00:00.000Z",
      "dutyEnd": "2026-03-01T20:59:59.000Z"
    },
    {
      "id": "istanbul-34190",
      "name": "MERKEZ ECZANESİ(V)",
      "address": "İstinye Mahallesi, İstinye Caddesi, 56/A",
      "phone": "+902122775163",
      "district": "SARIYER",
      "city": "İstanbul",
      "latitude": 41.11478899956953,
      "longitude": 29.055369999441226,
      "dutyStart": "2026-02-28T21:00:00.000Z",
      "dutyEnd": "2026-03-01T20:59:59.000Z"
    },
    {
      "id": "istanbul-23952",
      "name": "MEVA ECZANESİ",
      "address": "Siyavuşpaşa Mahallesi, Çağlayan Sokak, No:6/A",
      "phone": "+902125058814",
      "district": "BAHÇELİEVLER",
      "city": "İstanbul",
      "latitude": 41.00294069921163,
      "longitude": 28.851578792877422,
      "dutyStart": "2026-02-28T21:00:00.000Z",
      "dutyEnd": "2026-03-01T20:59:59.000Z"
    },
    {
      "id": "istanbul-27164",
      "name": "MEYSE ECZANESİ",
      "address": "Saadetdere Mahallesi, 4. Sokak, 144A",
      "phone": "+902126903930",
      "district": "ESENYURT",
      "city": "İstanbul",
      "latitude": 41.00635418630894,
      "longitude": 28.694403562602837,
      "dutyStart": "2026-02-28T21:00:00.000Z",
      "dutyEnd": "2026-03-01T20:59:59.000Z"
    },
    {
      "id": "istanbul-22942",
      "name": "MURAT ECZANESİ",
      "address": "Sultan Selim Mahallesi, Sultan Selim Caddesi, 102/A",
      "phone": "+902122848099",
      "district": "KAĞITHANE",
      "city": "İstanbul",
      "latitude": 41.09101117907724,
      "longitude": 28.99707605746204,
      "dutyStart": "2026-02-28T21:00:00.000Z",
      "dutyEnd": "2026-03-01T20:59:59.000Z"
    },
    {
      "id": "istanbul-31018",
      "name": "MİNE ECZANESİ",
      "address": "Göktürk Merkez Mahallesi, Camii Sokak, 6/A",
      "phone": "+902123220488",
      "district": "EYÜPSULTAN",
      "city": "İstanbul",
      "latitude": 41.178633000164645,
      "longitude": 28.89113999940756,
      "dutyStart": "2026-02-28T21:00:00.000Z",
      "dutyEnd": "2026-03-01T20:59:59.000Z"
    },
    {
      "id": "istanbul-14270",
      "name": "NİHAL ECZANESİ",
      "address": "Ihlamurkuyu Mahallesi, Alemdağ Caddesi, 1/B",
      "phone": "+902165402560",
      "district": "ÜMRANİYE",
      "city": "İstanbul",
      "latitude": 41.01785735394767,
      "longitude": 29.13354448892731,
      "dutyStart": "2026-02-28T21:00:00.000Z",
      "dutyEnd": "2026-03-01T20:59:59.000Z"
    },
    {
      "id": "istanbul-9458",
      "name": "NİŞANTAŞI FEYZA ECZANESİ",
      "address": "Teşvikiye Mahallesi, Güzelbahçe Sokak, 21/C",
      "phone": "+902123431525",
      "district": "ŞİŞLİ",
      "city": "İstanbul",
      "latitude": 41.053253680510856,
      "longitude": 28.994534119255075,
      "dutyStart": "2026-02-28T21:00:00.000Z",
      "dutyEnd": "2026-03-01T20:59:59.000Z"
    },
    {
      "id": "istanbul-26872",
      "name": "OGÜN ECZANESİ",
      "address": "Acıbadem Mahallesi, Acıbadem Caddesi, 224/1",
      "phone": "+902167555475",
      "district": "ÜSKÜDAR",
      "city": "İstanbul",
      "latitude": 41.013470999724206,
      "longitude": 29.05483300042599,
      "dutyStart": "2026-02-28T21:00:00.000Z",
      "dutyEnd": "2026-03-01T20:59:59.000Z"
    },
    {
      "id": "istanbul-16364",
      "name": "OKSİJEN ECZANESİ",
      "address": "Bahçelievler Mahallesi, Adnan Kahveci Bulvarı, 41/B",
      "phone": "+902125555233",
      "district": "BAHÇELİEVLER",
      "city": "İstanbul",
      "latitude": 41.00538214070838,
      "longitude": 28.869548923750887,
      "dutyStart": "2026-02-28T21:00:00.000Z",
      "dutyEnd": "2026-03-01T20:59:59.000Z"
    },
    {
      "id": "istanbul-22884",
      "name": "OĞUZ ECZANESİ",
      "address": "Fevzi Çakmak Mahallesi, İstanbul Caddesi, 30/C",
      "phone": "+902126187707",
      "district": "GAZİOSMANPAŞA",
      "city": "İstanbul",
      "latitude": 41.071752155700395,
      "longitude": 28.904596977317727,
      "dutyStart": "2026-02-28T21:00:00.000Z",
      "dutyEnd": "2026-03-01T20:59:59.000Z"
    },
    {
      "id": "istanbul-29614",
      "name": "PINAR GÜNAL  ECZANESİ",
      "address": "Tahtakale Mahallesi, Faruk Nafız Çamlıbel Cad, 2/N",
      "phone": "+902123028122",
      "district": "AVCILAR",
      "city": "İstanbul",
      "latitude": 41.064068000148,
      "longitude": 28.71132400032988,
      "dutyStart": "2026-02-28T21:00:00.000Z",
      "dutyEnd": "2026-03-01T20:59:59.000Z"
    },
    {
      "id": "istanbul-28568",
      "name": "ROZA ECZANESİ",
      "address": "Akşemsettin Mahallesi, Sarı Abdullah Efendi Sokak, No:42/C",
      "phone": "+902128124754",
      "district": "FATİH",
      "city": "İstanbul",
      "latitude": 41.0148309998517,
      "longitude": 28.94460800050833,
      "dutyStart": "2026-02-28T21:00:00.000Z",
      "dutyEnd": "2026-03-01T20:59:59.000Z"
    },
    {
      "id": "istanbul-27902",
      "name": "SADİ ECZANESİ",
      "address": "Havaalanı Mahallesi, Taşocağı Caddesi, 36A",
      "phone": "+902126293969",
      "district": "ESENLER",
      "city": "İstanbul",
      "latitude": 41.05641899967084,
      "longitude": 28.869490999437197,
      "dutyStart": "2026-02-28T21:00:00.000Z",
      "dutyEnd": "2026-03-01T20:59:59.000Z"
    },
    {
      "id": "istanbul-23902",
      "name": "SAFA ECZANESİ",
      "address": "Mimar Sinan Mahallesi, Gün Sokak, 14A",
      "phone": "+902127290284",
      "district": "SİLİVRİ",
      "city": "İstanbul",
      "latitude": 41.087958564085355,
      "longitude": 28.243004948622996,
      "dutyStart": "2026-02-28T21:00:00.000Z",
      "dutyEnd": "2026-03-01T20:59:59.000Z"
    },
    {
      "id": "istanbul-24118",
      "name": "SAĞLIK ECZANESİ",
      "address": "Uğur Mumcu Mahallesi, Belediye Sokak, 2D",
      "phone": "+902124973710",
      "district": "SULTANGAZİ",
      "city": "İstanbul",
      "latitude": 41.10612320581216,
      "longitude": 28.872776226564817,
      "dutyStart": "2026-02-28T21:00:00.000Z",
      "dutyEnd": "2026-03-01T20:59:59.000Z"
    },
    {
      "id": "istanbul-25662",
      "name": "SAĞLIK PLUS ECZANESİ",
      "address": "Emek Mahallesi, Namık Kemal Caddesi, 107B",
      "phone": "+902166226949",
      "district": "SANCAKTEPE",
      "city": "İstanbul",
      "latitude": 41.004915022006244,
      "longitude": 29.19647512176246,
      "dutyStart": "2026-02-28T21:00:00.000Z",
      "dutyEnd": "2026-03-01T20:59:59.000Z"
    },
    {
      "id": "istanbul-22076",
      "name": "SEMİH ECZANESİ",
      "address": "Piri Mehmet Paşa Mahallesi, Marmara Sokak, 33",
      "phone": "+902127276390",
      "district": "SİLİVRİ",
      "city": "İstanbul",
      "latitude": 41.07714841039938,
      "longitude": 28.2433338436779,
      "dutyStart": "2026-02-28T21:00:00.000Z",
      "dutyEnd": "2026-03-01T20:59:59.000Z"
    },
    {
      "id": "istanbul-23710",
      "name": "SEVDA ECZANESİ",
      "address": "Muratpaşa Mahallesi, Kamil Caddesi, 107A",
      "phone": "+902125642021",
      "district": "BAYRAMPAŞA",
      "city": "İstanbul",
      "latitude": 41.05015369439323,
      "longitude": 28.906655838986477,
      "dutyStart": "2026-02-28T21:00:00.000Z",
      "dutyEnd": "2026-03-01T20:59:59.000Z"
    },
    {
      "id": "istanbul-13844",
      "name": "SEVGİ ECZANESİ",
      "address": "Yeşilköy Mahallesi, İstasyon Caddesi, 17/B",
      "phone": "+902126623763",
      "district": "BAKIRKÖY",
      "city": "İstanbul",
      "latitude": 40.96109087668332,
      "longitude": 28.824380098630762,
      "dutyStart": "2026-02-28T21:00:00.000Z",
      "dutyEnd": "2026-03-01T20:59:59.000Z"
    },
    {
      "id": "istanbul-25308",
      "name": "SEVİNÇ ECZANESİ",
      "address": "Gençosman Mahallesi, Doğanbey Caddesi, 42-44/C",
      "phone": "+902125393285",
      "district": "GÜNGÖREN",
      "city": "İstanbul",
      "latitude": 41.03105391793589,
      "longitude": 28.87262138116362,
      "dutyStart": "2026-02-28T21:00:00.000Z",
      "dutyEnd": "2026-03-01T20:59:59.000Z"
    },
    {
      "id": "istanbul-24022",
      "name": "SEYHAN ÇAĞLAR ECZANESİ",
      "address": "Adnan Kahveci Mahallesi, Kazım Karabekir Caddesi, 1/E",
      "phone": "+902128550918",
      "district": "BEYLİKDÜZÜ",
      "city": "İstanbul",
      "latitude": 40.99948909135877,
      "longitude": 28.618208135939113,
      "dutyStart": "2026-02-28T21:00:00.000Z",
      "dutyEnd": "2026-03-01T20:59:59.000Z"
    },
    {
      "id": "istanbul-19482",
      "name": "SOYSAL ECZANESİ",
      "address": "Ortabayır Mahallesi, Talatpaşa Caddesi, 5/A",
      "phone": "+902123256360",
      "district": "KAĞITHANE",
      "city": "İstanbul",
      "latitude": 41.079765000158595,
      "longitude": 29.007327999490123,
      "dutyStart": "2026-02-28T21:00:00.000Z",
      "dutyEnd": "2026-03-01T20:59:59.000Z"
    },
    {
      "id": "istanbul-35642",
      "name": "SUADİYE İREM ECZANESİ",
      "address": "19 Mayıs Mahallesi, Hazım Tepeyran Sokak, 9/A",
      "phone": "+902164102050",
      "district": "KADIKÖY",
      "city": "İstanbul",
      "latitude": 40.96723200004361,
      "longitude": 29.086002999667716,
      "dutyStart": "2026-02-28T21:00:00.000Z",
      "dutyEnd": "2026-03-01T20:59:59.000Z"
    },
    {
      "id": "istanbul-15754",
      "name": "SÖNMEZ ECZANESİ",
      "address": "Yavuz Selim Mahallesi, 202 Caddesi, 25/A",
      "phone": "+902127318515",
      "district": "SİLİVRİ",
      "city": "İstanbul",
      "latitude": 41.054637980067305,
      "longitude": 28.378493863757242,
      "dutyStart": "2026-02-28T21:00:00.000Z",
      "dutyEnd": "2026-03-01T20:59:59.000Z"
    },
    {
      "id": "istanbul-27364",
      "name": "TAHA ECZANESİ",
      "address": "Başakşehir Mahallesi, Süleyman Çelebi Caddesi, B Blok No:13F",
      "phone": "+902124850434",
      "district": "BAŞAKŞEHİR",
      "city": "İstanbul",
      "latitude": 41.10139265576369,
      "longitude": 28.787293805897875,
      "dutyStart": "2026-02-28T21:00:00.000Z",
      "dutyEnd": "2026-03-01T20:59:59.000Z"
    },
    {
      "id": "istanbul-27672",
      "name": "TAKSİM LAMARTİN ECZANESİ",
      "address": "Kocatepe Mahallesi, Lamartin Caddesi, 19-A",
      "phone": "+902122541000",
      "district": "BEYOĞLU",
      "city": "İstanbul",
      "latitude": 41.03943700038266,
      "longitude": 28.984906000338558,
      "dutyStart": "2026-02-28T21:00:00.000Z",
      "dutyEnd": "2026-03-01T20:59:59.000Z"
    },
    {
      "id": "istanbul-30144",
      "name": "TATLIPINAR ECZANESİ",
      "address": "Yıldıztepe Mahallesi, 579. Sokak, 4/A",
      "phone": "+902129242916",
      "district": "BAĞCILAR",
      "city": "İstanbul",
      "latitude": 41.02168300015035,
      "longitude": 28.856141999681032,
      "dutyStart": "2026-02-28T21:00:00.000Z",
      "dutyEnd": "2026-03-01T20:59:59.000Z"
    },
    {
      "id": "istanbul-8122",
      "name": "TUNA ECZANESİ",
      "address": "Oruç Reis Mahallesi, 562. Sokak, 20/A",
      "phone": "+902126108516",
      "district": "ESENLER",
      "city": "İstanbul",
      "latitude": 41.06228656589495,
      "longitude": 28.856544019166765,
      "dutyStart": "2026-02-28T21:00:00.000Z",
      "dutyEnd": "2026-03-01T20:59:59.000Z"
    },
    {
      "id": "istanbul-12684",
      "name": "TÜLİN ECZANESİ",
      "address": "Zafer Mahallesi, Yıldırım Beyazıt Caddesi, 36/2",
      "phone": "+902125525480",
      "district": "BAHÇELİEVLER",
      "city": "İstanbul",
      "latitude": 40.996264654160086,
      "longitude": 28.835044148817914,
      "dutyStart": "2026-02-28T21:00:00.000Z",
      "dutyEnd": "2026-03-01T20:59:59.000Z"
    },
    {
      "id": "istanbul-21084",
      "name": "TÜRKELİ ECZANESİ",
      "address": "Ahmet Yesevi Mahallesi, Fatih Bulvarı, 197/B",
      "phone": "+902163983456",
      "district": "SULTANBEYLİ",
      "city": "İstanbul",
      "latitude": 40.9662753956752,
      "longitude": 29.274607164425806,
      "dutyStart": "2026-02-28T21:00:00.000Z",
      "dutyEnd": "2026-03-01T20:59:59.000Z"
    },
    {
      "id": "istanbul-29080",
      "name": "TÜRKMENOĞLU ECZANESİ",
      "address": "19 Mayıs Mahallesi, Yaşar Doğu Sokak, 2-B",
      "phone": "+902122880044",
      "district": "ŞİŞLİ",
      "city": "İstanbul",
      "latitude": 41.05925399972853,
      "longitude": 28.992658999413507,
      "dutyStart": "2026-02-28T21:00:00.000Z",
      "dutyEnd": "2026-03-01T20:59:59.000Z"
    },
    {
      "id": "istanbul-23358",
      "name": "UHUD ECZANESİ",
      "address": "Tozkoparan Mahallesi, Cevat Açıkalın Caddesi, 2/2f",
      "phone": "+902124823747",
      "district": "GÜNGÖREN",
      "city": "İstanbul",
      "latitude": 41.01569563781569,
      "longitude": 28.896171952422158,
      "dutyStart": "2026-02-28T21:00:00.000Z",
      "dutyEnd": "2026-03-01T20:59:59.000Z"
    },
    {
      "id": "istanbul-23622",
      "name": "YAKACIK İNCİ ECZANESİ",
      "address": "Gümüşpınar Mahallesi Yalı Sokak 5/1C",
      "phone": "+902164519091",
      "district": "KARTAL",
      "city": "İstanbul",
      "latitude": 40.9199604338962,
      "longitude": 29.217044462996906,
      "dutyStart": "2026-02-28T21:00:00.000Z",
      "dutyEnd": "2026-03-01T20:59:59.000Z"
    },
    {
      "id": "istanbul-25008",
      "name": "YASEMİN ECZANESİ",
      "address": "Güzelyalı Mahallesi, Bağdat Caddesi, 31/B",
      "phone": "+905063655544",
      "district": "PENDİK",
      "city": "İstanbul",
      "latitude": 40.85872799961122,
      "longitude": 29.276481000422883,
      "dutyStart": "2026-02-28T21:00:00.000Z",
      "dutyEnd": "2026-03-01T20:59:59.000Z"
    },
    {
      "id": "istanbul-16308",
      "name": "YAVUZ SELİM ECZANESİ",
      "address": "Yavuz Selim Mahallesi, 1063. Sokak, 11/A",
      "phone": "+902126308074",
      "district": "BAĞCILAR",
      "city": "İstanbul",
      "latitude": 41.041969903347706,
      "longitude": 28.848412963624646,
      "dutyStart": "2026-02-28T21:00:00.000Z",
      "dutyEnd": "2026-03-01T20:59:59.000Z"
    },
    {
      "id": "istanbul-13042",
      "name": "YENİ BURÇİN ECZANESİ",
      "address": "Hasanpaşa Mahallesi, Dumlupınar Caddesi, 4/B",
      "phone": "+902164965717",
      "district": "SULTANBEYLİ",
      "city": "İstanbul",
      "latitude": 40.96787200032828,
      "longitude": 29.253511000065345,
      "dutyStart": "2026-02-28T21:00:00.000Z",
      "dutyEnd": "2026-03-01T20:59:59.000Z"
    },
    {
      "id": "istanbul-10596",
      "name": "YENİ ECZANE",
      "address": "Mecidiye Mahallesi, Dereboyu Caddesi, 179/B",
      "phone": "+902122618444",
      "district": "BEŞİKTAŞ",
      "city": "İstanbul",
      "latitude": 41.05381183008163,
      "longitude": 29.022901586648675,
      "dutyStart": "2026-02-28T21:00:00.000Z",
      "dutyEnd": "2026-03-01T20:59:59.000Z"
    },
    {
      "id": "istanbul-9980",
      "name": "YENİ SEVGİ ECZANESİ",
      "address": "İsmetpaşa Mahallesi, İsmet Paşa Caddesi, 79/A",
      "phone": "+902125777069",
      "district": "BAYRAMPAŞA",
      "city": "İstanbul",
      "latitude": 41.042292779328555,
      "longitude": 28.90384791250658,
      "dutyStart": "2026-02-28T21:00:00.000Z",
      "dutyEnd": "2026-03-01T20:59:59.000Z"
    },
    {
      "id": "istanbul-18950",
      "name": "ZENT ECZANESİ",
      "address": "Kaptanpaşa Mahallesi, Kasımpaşa Zincirlikuyu Caddesi, 123B",
      "phone": "+902122979692",
      "district": "BEYOĞLU",
      "city": "İstanbul",
      "latitude": 41.039172334850406,
      "longitude": 28.965301171661654,
      "dutyStart": "2026-02-28T21:00:00.000Z",
      "dutyEnd": "2026-03-01T20:59:59.000Z"
    },
    {
      "id": "istanbul-21260",
      "name": "ZEYNEP ECZANESİ",
      "address": "İnönü Mahallesi, Hakan Caddesi, 65/A",
      "phone": "+902124705540",
      "district": "KÜÇÜKÇEKMECE",
      "city": "İstanbul",
      "latitude": 41.0266570123422,
      "longitude": 28.797651320714102,
      "dutyStart": "2026-02-28T21:00:00.000Z",
      "dutyEnd": "2026-03-01T20:59:59.000Z"
    },
    {
      "id": "istanbul-24172",
      "name": "ÇATALCA ŞİFA ECZANESİ",
      "address": "Kaleiçi Mahallesi, Ferhatpaşa Caddesi, 15A",
      "phone": "+902127892028",
      "district": "ÇATALCA",
      "city": "İstanbul",
      "latitude": 41.14557536146045,
      "longitude": 28.454725147843366,
      "dutyStart": "2026-02-28T21:00:00.000Z",
      "dutyEnd": "2026-03-01T20:59:59.000Z"
    },
    {
      "id": "istanbul-31592",
      "name": "ÇAYIRCIOĞLU ECZANESİ",
      "address": "Türkali Mahallesi, Ihlamurdere Caddesi, 118/B",
      "phone": "+905448863463",
      "district": "BEŞİKTAŞ",
      "city": "İstanbul",
      "latitude": 41.048292000155165,
      "longitude": 29.002368999955465,
      "dutyStart": "2026-02-28T21:00:00.000Z",
      "dutyEnd": "2026-03-01T20:59:59.000Z"
    },
    {
      "id": "istanbul-28268",
      "name": "ÇEKMEKÖY SU ECZANESİ",
      "address": "Mimar Sinan Mahallesi, Ulubatlı Hasan Caddesi, 107/A",
      "phone": "+902166421030",
      "district": "ÇEKMEKÖY",
      "city": "İstanbul",
      "latitude": 41.02909100042793,
      "longitude": 29.182625000269542,
      "dutyStart": "2026-02-28T21:00:00.000Z",
      "dutyEnd": "2026-03-01T20:59:59.000Z"
    },
    {
      "id": "istanbul-25326",
      "name": "ÇINAR ECZANESİ",
      "address": "Yukarı Mahallesi, Çırçır Caddesi, 21/A",
      "phone": "+902163535312",
      "district": "KARTAL",
      "city": "İstanbul",
      "latitude": 40.89063300027319,
      "longitude": 29.184277999827664,
      "dutyStart": "2026-02-28T21:00:00.000Z",
      "dutyEnd": "2026-03-01T20:59:59.000Z"
    },
    {
      "id": "istanbul-22174",
      "name": "ÇİĞDEM ECZANESİ",
      "address": "Bostancı Mahallesi Kitapçı Mehmet Süleyman Sokak 41-B",
      "phone": "+902163610067",
      "district": "KADIKÖY",
      "city": "İstanbul",
      "latitude": 40.954737621806494,
      "longitude": 29.09564131337652,
      "dutyStart": "2026-02-28T21:00:00.000Z",
      "dutyEnd": "2026-03-01T20:59:59.000Z"
    },
    {
      "id": "istanbul-20376",
      "name": "ÖMÜR ECZANESİ",
      "address": "Kazım Karabekir Mahallesi, Adem Yavuz Caddesi, 18/A-3",
      "phone": "+902166301056",
      "district": "ÜMRANİYE",
      "city": "İstanbul",
      "latitude": 41.032622533539815,
      "longitude": 29.10321243510223,
      "dutyStart": "2026-02-28T21:00:00.000Z",
      "dutyEnd": "2026-03-01T20:59:59.000Z"
    },
    {
      "id": "istanbul-13496",
      "name": "ÖRNEK ECZANESİ",
      "address": "Zümrütevler Mahallesi, Çiğdem Sokak, 26/2-3",
      "phone": "+902165890498",
      "district": "MALTEPE",
      "city": "İstanbul",
      "latitude": 40.93467270330525,
      "longitude": 29.150179185682692,
      "dutyStart": "2026-02-28T21:00:00.000Z",
      "dutyEnd": "2026-03-01T20:59:59.000Z"
    },
    {
      "id": "istanbul-31210",
      "name": "İBNİ SİNA ECZANESİ",
      "address": "Fatih Mahallesi, Çinçinderesi Caddesi, 62/A",
      "phone": "+902128770506",
      "district": "ESENLER",
      "city": "İstanbul",
      "latitude": 41.04393676083338,
      "longitude": 28.868654919982966,
      "dutyStart": "2026-02-28T21:00:00.000Z",
      "dutyEnd": "2026-03-01T20:59:59.000Z"
    },
    {
      "id": "istanbul-24570",
      "name": "İNCİR ECZANESİ",
      "address": "Orhantepe Mahallesi, Saraylar Caddesi, 80A",
      "phone": "+902163830821",
      "district": "KARTAL",
      "city": "İstanbul",
      "latitude": 40.910796417465626,
      "longitude": 29.168609976770583,
      "dutyStart": "2026-02-28T21:00:00.000Z",
      "dutyEnd": "2026-03-01T20:59:59.000Z"
    },
    {
      "id": "istanbul-31746",
      "name": "İNCİR ECZANESİ",
      "address": "Altıntepe Mahallesi, Bağdat Caddesi, 80G",
      "phone": "+902165194041",
      "district": "MALTEPE",
      "city": "İstanbul",
      "latitude": 40.95046626050476,
      "longitude": 29.103573578964482,
      "dutyStart": "2026-02-28T21:00:00.000Z",
      "dutyEnd": "2026-03-01T20:59:59.000Z"
    },
    {
      "id": "istanbul-28040",
      "name": "İPEKLİ ECZANESİ",
      "address": "Mevlana Mahallesi, Hürriyet Caddesi, 16/E",
      "phone": "+902128528957",
      "district": "ESENYURT",
      "city": "İstanbul",
      "latitude": 41.01620186007248,
      "longitude": 28.655516262012974,
      "dutyStart": "2026-02-28T21:00:00.000Z",
      "dutyEnd": "2026-03-01T20:59:59.000Z"
    },
    {
      "id": "istanbul-14222",
      "name": "ŞİFA ECZANESİ",
      "address": "Feyzullah Mahallesi, Mimar Sinan Caddesi, Havuzlar Sokak No:9/2",
      "phone": "+902164570707",
      "district": "MALTEPE",
      "city": "İstanbul",
      "latitude": 40.92457606678092,
      "longitude": 29.130042059092634,
      "dutyStart": "2026-02-28T21:00:00.000Z",
      "dutyEnd": "2026-03-01T20:59:59.000Z"
    },
    {
      "id": "istanbul-8976",
      "name": "ŞİFA ECZANESİ",
      "address": "Ağva Merkez Mahallesi, Yakuplu Caddesi, 7",
      "phone": "+902167218169",
      "district": "ŞİLE",
      "city": "İstanbul",
      "latitude": 41.139166752321906,
      "longitude": 29.85684207593813,
      "dutyStart": "2026-02-28T21:00:00.000Z",
      "dutyEnd": "2026-03-01T20:59:59.000Z"
    }
  ]
}