{
  "city": "izmir",
  "cityName": "İzmir",
  "cityId": 35,
  "date": "2026-03-01",
  "updatedAt": "2026-03-01T20:30:07.541Z",
  "count": 74,
  "pharmacies": [
    {
      "id": "izmir-0-4",
      "name": "ECE SARI ECZANESİ",
      "address": "BİRLİK MH. 4202/2 SK. NO:58/A ALTINDAĞ",
      "phone": "02324337033",
      "district": "ALTINDAĞ",
      "city": "İzmir",
      "latitude": 38.42927,
      "longitude": 27.195993,
      "dutyStart": "2026-03-01T08:00:00.000Z",
      "dutyEnd": "2026-03-02T08:00:00.000Z"
    },
    {
      "id": "izmir-1-6",
      "name": "LOTUS ECZANESİ",
      "address": "ONUR MAH. MİTHATPAŞA CAD. NO:39/A",
      "phone": "02322792666",
      "district": "BALÇOVA",
      "city": "İzmir",
      "latitude": 38.394809,
      "longitude": 27.0575,
      "dutyStart": "2026-03-01T08:00:00.000Z",
      "dutyEnd": "2026-03-02T08:00:00.000Z"
    },
    {
      "id": "izmir-2-7",
      "name": "HISAR ECZANESİ",
      "address": "POLAT CAD. NO:99/A",
      "phone": "02322433293",
      "district": "BASIN SİTESİ",
      "city": "İzmir",
      "latitude": 38.396619,
      "longitude": 27.105165,
      "dutyStart": "2026-03-01T08:00:00.000Z",
      "dutyEnd": "2026-03-02T08:00:00.000Z"
    },
    {
      "id": "izmir-3-10",
      "name": "NATURA ECZANESİ",
      "address": "ERZENE MH. KAZIM KARABEKİR CD. NO:5/B",
      "phone": "02323513335",
      "district": "BORNOVA 1",
      "city": "İzmir",
      "latitude": 38.466067,
      "longitude": 27.220215,
      "dutyStart": "2026-03-01T08:00:00.000Z",
      "dutyEnd": "2026-03-02T08:00:00.000Z"
    },
    {
      "id": "izmir-4-11",
      "name": "MAKSİMUM ECZANESİ",
      "address": "KAZIM DİRİK MAH. 364/1 SOK. NO:9/J",
      "phone": "02329359371",
      "district": "BORNOVA 2",
      "city": "İzmir",
      "latitude": 38.446478,
      "longitude": 27.204879,
      "dutyStart": "2026-03-01T08:00:00.000Z",
      "dutyEnd": "2026-03-02T08:00:00.000Z"
    },
    {
      "id": "izmir-5-12",
      "name": "PINAR ECZANESİ",
      "address": "TEPEKULE MAH. 2084/8 SOK. NO:31/A",
      "phone": "02323734030",
      "district": "BORNOVA 3",
      "city": "İzmir",
      "latitude": 38.464739,
      "longitude": 27.178539,
      "dutyStart": "2026-03-01T08:00:00.000Z",
      "dutyEnd": "2026-03-02T08:00:00.000Z"
    },
    {
      "id": "izmir-6-12",
      "name": "LUNA ECZANESİ",
      "address": "MANSUROĞLU MAH. 286 SOK. NO:24/A",
      "phone": "02329998634",
      "district": "BORNOVA 3",
      "city": "İzmir",
      "latitude": 38.455266,
      "longitude": 27.182035,
      "dutyStart": "2026-03-01T08:00:00.000Z",
      "dutyEnd": "2026-03-02T08:00:00.000Z"
    },
    {
      "id": "izmir-7-14",
      "name": "BOZYAKA EZGİ  ECZANESİ",
      "address": "ÇALIKUŞU MAH. ESKİ İZMİR CAD. NO:87/A",
      "phone": "02322629922",
      "district": "BOZYAKA",
      "city": "İzmir",
      "latitude": 38.397269,
      "longitude": 27.127751,
      "dutyStart": "2026-03-01T08:00:00.000Z",
      "dutyEnd": "2026-03-02T08:00:00.000Z"
    },
    {
      "id": "izmir-8-16",
      "name": "KARTAL ECZANESİ",
      "address": "GAZI OSMAN PASA MAH. 5227 SOKAK NO:77/A ÇAMDIBI",
      "phone": "02324619047",
      "district": "ÇAMDİBİ",
      "city": "İzmir",
      "latitude": 38.433028,
      "longitude": 27.190659,
      "dutyStart": "2026-03-01T08:00:00.000Z",
      "dutyEnd": "2026-03-02T08:00:00.000Z"
    },
    {
      "id": "izmir-9-17",
      "name": "CEM ECZANESİ",
      "address": "YENİMAHALLE MAH. ÖĞRETMEN EMEL SUBAŞI AY SOK. NO:65/A",
      "phone": "02323294344",
      "district": "ÇİĞLİ",
      "city": "İzmir",
      "latitude": 38.496415,
      "longitude": 27.055229,
      "dutyStart": "2026-03-01T08:00:00.000Z",
      "dutyEnd": "2026-03-02T08:00:00.000Z"
    },
    {
      "id": "izmir-10-17",
      "name": "ÖZEN ECZANESİ",
      "address": "ATAŞEHİR MAH. NAZIM HİKMET RAN BULVARI NO:65/A",
      "phone": "02323763236",
      "district": "ÇİĞLİ",
      "city": "İzmir",
      "latitude": 38.485667,
      "longitude": 27.053735,
      "dutyStart": "2026-03-01T08:00:00.000Z",
      "dutyEnd": "2026-03-02T08:00:00.000Z"
    },
    {
      "id": "izmir-11-17",
      "name": "DURU SU ECZANESİ",
      "address": "UĞUR MUMCU MAH. 8968 SOK. NO:11/A",
      "phone": "02328390004",
      "district": "ÇİĞLİ",
      "city": "İzmir",
      "latitude": 38.523019,
      "longitude": 27.043884,
      "dutyStart": "2026-03-01T08:00:00.000Z",
      "dutyEnd": "2026-03-02T08:00:00.000Z"
    },
    {
      "id": "izmir-12-19",
      "name": "ÇEŞME ILICA  ECZANESİ",
      "address": "ILICA MH. 5065 SK. NO:2/A",
      "phone": "02327230011",
      "district": "ÇEŞME",
      "city": "İzmir",
      "latitude": 38.307945,
      "longitude": 26.361266,
      "dutyStart": "2026-03-01T08:00:00.000Z",
      "dutyEnd": "2026-03-02T08:00:00.000Z"
    },
    {
      "id": "izmir-13-19",
      "name": "ASLI ECZANESİ",
      "address": "DALYAN MAH. 4218 SOK. NO:1/A",
      "phone": "02322532135",
      "district": "ÇEŞME",
      "city": "İzmir",
      "latitude": 38.355784,
      "longitude": 26.308199,
      "dutyStart": "2026-03-01T08:00:00.000Z",
      "dutyEnd": "2026-03-02T08:00:00.000Z"
    },
    {
      "id": "izmir-14-20",
      "name": "ÇIFTÇILER ECZANESİ",
      "address": "628 SOKAK NO:45 ÇIMENTEPE KONAK",
      "phone": "02322622089",
      "district": "EŞREFPAŞA ",
      "city": "İzmir",
      "latitude": 38.408451,
      "longitude": 27.135833,
      "dutyStart": "2026-03-01T08:00:00.000Z",
      "dutyEnd": "2026-03-02T08:00:00.000Z"
    },
    {
      "id": "izmir-15-22",
      "name": "YENİ ÇETİNER ECZANESİ",
      "address": "ATIF BEY MAH. PROF. DR. TÜRKAN SAYLAN CAD. NO:15/A",
      "phone": "02322520910",
      "district": "GAZİEMİR",
      "city": "İzmir",
      "latitude": 38.317771,
      "longitude": 27.132893,
      "dutyStart": "2026-03-01T08:00:00.000Z",
      "dutyEnd": "2026-03-02T08:00:00.000Z"
    },
    {
      "id": "izmir-16-23",
      "name": "MİRAC ECZANESİ",
      "address": "FIRAT MAH. 287/9 SOK. NO:17/A",
      "phone": "02322768636",
      "district": "GEDİZ",
      "city": "İzmir",
      "latitude": 38.376303,
      "longitude": 27.14752,
      "dutyStart": "2026-03-01T08:00:00.000Z",
      "dutyEnd": "2026-03-02T08:00:00.000Z"
    },
    {
      "id": "izmir-17-25",
      "name": "EZGI DENIZ ECZANESİ",
      "address": "GAZI CAD. NO:126/1A-B GÜLTEPE",
      "phone": "02324597954",
      "district": "GÜLTEPE",
      "city": "İzmir",
      "latitude": 38.414643,
      "longitude": 27.173667,
      "dutyStart": "2026-03-01T08:00:00.000Z",
      "dutyEnd": "2026-03-02T08:00:00.000Z"
    },
    {
      "id": "izmir-18-26",
      "name": "YASAROGLU ECZANESİ",
      "address": "1847/27 SOK. NO:9/A",
      "phone": "02323633904",
      "district": "GÜMÜŞPALA",
      "city": "İzmir",
      "latitude": 38.479488,
      "longitude": 27.119352,
      "dutyStart": "2026-03-01T08:00:00.000Z",
      "dutyEnd": "2026-03-02T08:00:00.000Z"
    },
    {
      "id": "izmir-19-28",
      "name": "İSKENDER ECZANESİ",
      "address": "YALI MH. MİTHATPAŞA CD. NO:351/B ",
      "phone": "02322341412",
      "district": "GÜZELBAHÇE",
      "city": "İzmir",
      "latitude": 38.378132,
      "longitude": 26.893412,
      "dutyStart": "2026-03-01T08:00:00.000Z",
      "dutyEnd": "2026-03-02T08:00:00.000Z"
    },
    {
      "id": "izmir-20-31",
      "name": "TÜRKAN ECZANESİ",
      "address": "KORUTÜRK MAAH.SIMSEK SOK.NO:29/C",
      "phone": "02322778317",
      "district": "İNCİRALTI",
      "city": "İzmir",
      "latitude": 38.392562,
      "longitude": 27.042858,
      "dutyStart": "2026-03-01T08:00:00.000Z",
      "dutyEnd": "2026-03-02T08:00:00.000Z"
    },
    {
      "id": "izmir-21-32",
      "name": "ÖZYENI UMUT ECZANESİ",
      "address": "YUNUS EMRE MAH.4012 SOK.NO.65/A KARABAGLAR-IZMIR",
      "phone": "02322375737",
      "district": "KARABAĞLAR",
      "city": "İzmir",
      "latitude": 38.377167,
      "longitude": 27.132111,
      "dutyStart": "2026-03-01T08:00:00.000Z",
      "dutyEnd": "2026-03-02T08:00:00.000Z"
    },
    {
      "id": "izmir-22-37",
      "name": "NAR ECZANESİ",
      "address": "ILICA MAH. MİTHATPAŞA CAD. NO:123/A",
      "phone": "02322384940",
      "district": "NARLIDERE",
      "city": "İzmir",
      "latitude": 38.393019,
      "longitude": 27.020572,
      "dutyStart": "2026-03-01T08:00:00.000Z",
      "dutyEnd": "2026-03-02T08:00:00.000Z"
    },
    {
      "id": "izmir-23-39",
      "name": "YILMAZ ECZANESİ",
      "address": "PINARBASI MEYD. NO:8/A",
      "phone": "02324790022",
      "district": "PINARBAŞI",
      "city": "İzmir",
      "latitude": 38.427995,
      "longitude": 27.266125,
      "dutyStart": "2026-03-01T08:00:00.000Z",
      "dutyEnd": "2026-03-02T08:00:00.000Z"
    },
    {
      "id": "izmir-24-42",
      "name": "YENI BESTE ECZANESİ",
      "address": "501 SOK. NO:10/A",
      "phone": "02322275005",
      "district": "ÜÇYOL",
      "city": "İzmir",
      "latitude": 38.402855,
      "longitude": 27.12191,
      "dutyStart": "2026-03-01T08:00:00.000Z",
      "dutyEnd": "2026-03-02T08:00:00.000Z"
    },
    {
      "id": "izmir-25-43",
      "name": "NEFES ECZANESİ",
      "address": "YENİŞEHİR MAH. GAZİLER CAD. NO:341/B",
      "phone": "02324579637",
      "district": "YENİŞEHİR",
      "city": "İzmir",
      "latitude": 38.424391,
      "longitude": 27.167213,
      "dutyStart": "2026-03-01T08:00:00.000Z",
      "dutyEnd": "2026-03-02T08:00:00.000Z"
    },
    {
      "id": "izmir-26-44",
      "name": "YENİ YEŞİLYURT ECZANESİ",
      "address": "VATAN MAH. POLAT CAD. NO:41",
      "phone": "02322315035",
      "district": "YEŞİLYURT",
      "city": "İzmir",
      "latitude": 38.396494,
      "longitude": 27.109274,
      "dutyStart": "2026-03-01T08:00:00.000Z",
      "dutyEnd": "2026-03-02T08:00:00.000Z"
    },
    {
      "id": "izmir-27-45",
      "name": "NAZ ECZANESİ",
      "address": "MENDERES MAH. GAZİ OSMAN PAŞA CAD. NO:3/A",
      "phone": "02324520149",
      "district": "EVKA 1",
      "city": "İzmir",
      "latitude": 38.3949,
      "longitude": 27.169011,
      "dutyStart": "2026-03-01T08:00:00.000Z",
      "dutyEnd": "2026-03-02T08:00:00.000Z"
    },
    {
      "id": "izmir-28-45",
      "name": "KÖŞE BUCA ECZANESİ",
      "address": "ADATEPE MAH. 3 SOK. NO:39/A",
      "phone": "02326833238",
      "district": "EVKA 1",
      "city": "İzmir",
      "latitude": 38.384805,
      "longitude": 27.184072,
      "dutyStart": "2026-03-01T08:00:00.000Z",
      "dutyEnd": "2026-03-02T08:00:00.000Z"
    },
    {
      "id": "izmir-29-46",
      "name": "BUCA KARDELEN ECZANESİ",
      "address": "BUCA KOOP.MH. 200/17 SK. NO:48/B",
      "phone": "02324530400",
      "district": "BUCA 2",
      "city": "İzmir",
      "latitude": 38.370161,
      "longitude": 27.177607,
      "dutyStart": "2026-03-01T08:00:00.000Z",
      "dutyEnd": "2026-03-02T08:00:00.000Z"
    },
    {
      "id": "izmir-30-48",
      "name": "AGAH ECZANESİ",
      "address": "MENDERES MAH.BÜYÜK MENDERES CAD.NO.59/B SARNIÇ",
      "phone": "02322812219",
      "district": "SARNIÇ",
      "city": "İzmir",
      "latitude": 38.297352,
      "longitude": 27.167773,
      "dutyStart": "2026-03-01T08:00:00.000Z",
      "dutyEnd": "2026-03-02T08:00:00.000Z"
    },
    {
      "id": "izmir-31-50",
      "name": "ATABEY ECZANESİ",
      "address": "GÜVEN MAH. MENDERES CAD. NO:308/A",
      "phone": "02324872823",
      "district": "ŞİRİNYER",
      "city": "İzmir",
      "latitude": 38.394045,
      "longitude": 27.148621,
      "dutyStart": "2026-03-01T08:00:00.000Z",
      "dutyEnd": "2026-03-02T08:00:00.000Z"
    },
    {
      "id": "izmir-32-51",
      "name": "ASLIHAN ECZANESİ",
      "address": "KÜLTÜR MAH. FEVZİ PAŞA CAD. NO:58/C",
      "phone": "02325813909",
      "district": "ALİAĞA",
      "city": "İzmir",
      "latitude": 38.800774,
      "longitude": 26.974717,
      "dutyStart": "2026-03-01T08:00:00.000Z",
      "dutyEnd": "2026-03-02T08:00:00.000Z"
    },
    {
      "id": "izmir-33-52",
      "name": "BİZİM ECZANESİ",
      "address": "AYRANCILAR MAH. 83 SOK. NO:18/B",
      "phone": "02328548448",
      "district": "AYRANCILAR",
      "city": "İzmir",
      "latitude": 38.243203,
      "longitude": 27.27676,
      "dutyStart": "2026-03-01T08:00:00.000Z",
      "dutyEnd": "2026-03-02T08:00:00.000Z"
    },
    {
      "id": "izmir-34-53",
      "name": "HAYAT ECZANESİ",
      "address": "MAHMUT SEVKET PASA CAD. NO:16",
      "phone": "02325816362",
      "district": "BAYINDIR",
      "city": "İzmir",
      "latitude": 38.222295,
      "longitude": 27.649128,
      "dutyStart": "2026-03-01T08:00:00.000Z",
      "dutyEnd": "2026-03-02T08:00:00.000Z"
    },
    {
      "id": "izmir-35-54",
      "name": "DENİZ ECZANESİ",
      "address": "FATİH MAH. TUNA CAD. NO:28/A",
      "phone": "02326323636",
      "district": "BERGAMA",
      "city": "İzmir",
      "latitude": 39.104151,
      "longitude": 27.16674,
      "dutyStart": "2026-03-01T08:00:00.000Z",
      "dutyEnd": "2026-03-02T08:00:00.000Z"
    },
    {
      "id": "izmir-36-55",
      "name": "BEYDAG SIFA ECZANESİ",
      "address": "Atatürk Mah.ULUS MEYDANI NO:6/A",
      "phone": "02325926018",
      "district": "BEYDAĞ",
      "city": "İzmir",
      "latitude": 38.085103,
      "longitude": 28.208621,
      "dutyStart": "2026-03-01T08:00:00.000Z",
      "dutyEnd": "2026-03-02T08:00:00.000Z"
    },
    {
      "id": "izmir-37-58",
      "name": "MENDERES ŞİFA ECZANESİ",
      "address": "KASIMPASA MAH. ATATÜRK CD. 75/B",
      "phone": "02327821070",
      "district": "MENDERES",
      "city": "İzmir",
      "latitude": 38.25549,
      "longitude": 27.130694,
      "dutyStart": "2026-03-01T08:00:00.000Z",
      "dutyEnd": "2026-03-02T08:00:00.000Z"
    },
    {
      "id": "izmir-38-61",
      "name": "MELTEM ECZANESİ",
      "address": "SALİMBEY MAH. 19 SOK. NO:2/A",
      "phone": "02325902595",
      "district": "DİKİLİ",
      "city": "İzmir",
      "latitude": 39.069803,
      "longitude": 26.887965,
      "dutyStart": "2026-03-01T08:00:00.000Z",
      "dutyEnd": "2026-03-02T08:00:00.000Z"
    },
    {
      "id": "izmir-39-62",
      "name": "LOTUS ECZANESİ",
      "address": "ATATÜRK MAH. 99 SOK. NO:26/A",
      "phone": "02328126303",
      "district": "ESKİ FOÇA",
      "city": "İzmir",
      "latitude": 38.659082,
      "longitude": 26.764558,
      "dutyStart": "2026-03-01T08:00:00.000Z",
      "dutyEnd": "2026-03-02T08:00:00.000Z"
    },
    {
      "id": "izmir-40-63",
      "name": "KIVANÇ ECZANESİ",
      "address": "GIRNE CAD. NO:18 YENİ FOÇA",
      "phone": "02328146031",
      "district": "YENİ FOÇA",
      "city": "İzmir",
      "latitude": 38.740882,
      "longitude": 26.837295,
      "dutyStart": "2026-03-01T08:00:00.000Z",
      "dutyEnd": "2026-03-02T08:00:00.000Z"
    },
    {
      "id": "izmir-41-64",
      "name": "YENI KARABURUN ECZANESİ",
      "address": "MERKEZ MAH.NO:1  KARABURUN",
      "phone": "02327312403",
      "district": "KARABURUN",
      "city": "İzmir",
      "latitude": 38.636037,
      "longitude": 26.510373,
      "dutyStart": "2026-03-01T08:00:00.000Z",
      "dutyEnd": "2026-03-02T08:00:00.000Z"
    },
    {
      "id": "izmir-42-65",
      "name": "BARAN ECZANESİ",
      "address": "FATIH CD.NO.2/B MORDOGAN",
      "phone": "02323476742",
      "district": "MORDOĞAN",
      "city": "İzmir",
      "latitude": 38.518282,
      "longitude": 26.625497,
      "dutyStart": "2026-03-01T08:00:00.000Z",
      "dutyEnd": "2026-03-02T08:00:00.000Z"
    },
    {
      "id": "izmir-43-66",
      "name": "YENİ HASTANE YAZARLAR ECZANESİ",
      "address": "SEKİZ EYLÜL MAH. 19 MAYIS CAD. NO:25/2A",
      "phone": "02328789199",
      "district": "KEMALPAŞA",
      "city": "İzmir",
      "latitude": 38.436378,
      "longitude": 27.409167,
      "dutyStart": "2026-03-01T08:00:00.000Z",
      "dutyEnd": "2026-03-02T08:00:00.000Z"
    },
    {
      "id": "izmir-44-67",
      "name": "ÇALIKUŞU ECZANESİ",
      "address": "POYRACIK MAH. BERGAMA CAD. NO:19/A",
      "phone": "02326880030",
      "district": "KINIK",
      "city": "İzmir",
      "latitude": 39.090668,
      "longitude": 27.348205,
      "dutyStart": "2026-03-01T08:00:00.000Z",
      "dutyEnd": "2026-03-02T08:00:00.000Z"
    },
    {
      "id": "izmir-45-68",
      "name": "BİR EYLÜL ECZANESİ",
      "address": "ISTIKLAL MAH.SABIT ARLI CD. NO. 63/A",
      "phone": "02325722697",
      "district": "KİRAZ",
      "city": "İzmir",
      "latitude": 38.231601,
      "longitude": 28.207382,
      "dutyStart": "2026-03-01T08:00:00.000Z",
      "dutyEnd": "2026-03-02T08:00:00.000Z"
    },
    {
      "id": "izmir-46-69",
      "name": "TUTKUN ECZANESİ",
      "address": "KASIMPAŞA MAH. BAHRİYE ÜÇOK CAD. NO:7/A",
      "phone": "02328314001",
      "district": "MENEMEN",
      "city": "İzmir",
      "latitude": 38.606533,
      "longitude": 27.078371,
      "dutyStart": "2026-03-01T08:00:00.000Z",
      "dutyEnd": "2026-03-02T08:00:00.000Z"
    },
    {
      "id": "izmir-47-70",
      "name": "GÜRBÜZ ECZANESİ",
      "address": "SARAÇOGLU CAD. 70/A",
      "phone": "02322544304",
      "district": "ÖDEMİŞ",
      "city": "İzmir",
      "latitude": 38.232588,
      "longitude": 27.976374,
      "dutyStart": "2026-03-01T08:00:00.000Z",
      "dutyEnd": "2026-03-02T08:00:00.000Z"
    },
    {
      "id": "izmir-48-71",
      "name": "MANDARİN ECZANESİ",
      "address": "HIDIRLIK MAH. İNÖNÜ CAD. NO:3/A",
      "phone": "02320256149",
      "district": "SEFERİHİSAR",
      "city": "İzmir",
      "latitude": 38.193817,
      "longitude": 26.838472,
      "dutyStart": "2026-03-01T08:00:00.000Z",
      "dutyEnd": "2026-03-02T08:00:00.000Z"
    },
    {
      "id": "izmir-49-72",
      "name": "ARAT  ECZANESİ",
      "address": "ATATÜRK MH. ATATÜRK CD. NO:8/A SELÇUK",
      "phone": "02328929542",
      "district": "SELÇUK",
      "city": "İzmir",
      "latitude": 37.94843,
      "longitude": 27.368247,
      "dutyStart": "2026-03-01T08:00:00.000Z",
      "dutyEnd": "2026-03-02T08:00:00.000Z"
    },
    {
      "id": "izmir-50-73",
      "name": "MELEK ECZANESİ",
      "address": "YAKA MAH. ERDOĞAN KER CAD. NO:112/B",
      "phone": "02322538369",
      "district": "URLA",
      "city": "İzmir",
      "latitude": 38.34662,
      "longitude": 26.7556,
      "dutyStart": "2026-03-01T08:00:00.000Z",
      "dutyEnd": "2026-03-02T08:00:00.000Z"
    },
    {
      "id": "izmir-51-74",
      "name": "ÇEŞMECİ ECZANESİ",
      "address": "ATATÜRK MH. İSTASYON CD. NO:86/1-B BLOK NO:4 TİRE",
      "phone": "02325004015",
      "district": "TİRE",
      "city": "İzmir",
      "latitude": 38.100082,
      "longitude": 27.720421,
      "dutyStart": "2026-03-01T08:00:00.000Z",
      "dutyEnd": "2026-03-02T08:00:00.000Z"
    },
    {
      "id": "izmir-52-75",
      "name": "ÖZGÜR ECZANESİ",
      "address": "HÜKÜMET CAD. NO:6",
      "phone": "02328561284",
      "district": "TORBALI",
      "city": "İzmir",
      "latitude": 38.15057,
      "longitude": 27.360725,
      "dutyStart": "2026-03-01T08:00:00.000Z",
      "dutyEnd": "2026-03-02T08:00:00.000Z"
    },
    {
      "id": "izmir-53-75",
      "name": "ÜMİT ECZANESİ",
      "address": "ERTUĞRUL MAH. TORBALI CAD. NO:44/1B ",
      "phone": "02328960735",
      "district": "TORBALI",
      "city": "İzmir",
      "latitude": 38.159056,
      "longitude": 27.361181,
      "dutyStart": "2026-03-01T08:00:00.000Z",
      "dutyEnd": "2026-03-02T08:00:00.000Z"
    },
    {
      "id": "izmir-54-76",
      "name": "YAZAL ECZANESİ",
      "address": "SAYFIYE MAH. KAZIM DIRIK CAD.NO:58/AYENI SAKRAN-ALIAGA/IZMIR",
      "phone": "02326287143",
      "district": "YENİ ŞAKRAN",
      "city": "İzmir",
      "latitude": 38.889168,
      "longitude": 27.065746,
      "dutyStart": "2026-03-01T08:00:00.000Z",
      "dutyEnd": "2026-03-02T08:00:00.000Z"
    },
    {
      "id": "izmir-55-77",
      "name": "KARSIYAKA MERKEZ ECZANESİ",
      "address": "BAHRIYE ÜÇOK BLV. 15/1-A ",
      "phone": "02323698850",
      "district": "KARŞIYAKA 2",
      "city": "İzmir",
      "latitude": 38.461318,
      "longitude": 27.114463,
      "dutyStart": "2026-03-01T08:00:00.000Z",
      "dutyEnd": "2026-03-02T08:00:00.000Z"
    },
    {
      "id": "izmir-56-78",
      "name": "ERDEM ECZANESİ",
      "address": "BOSTANLI MAH. 1735 SOK. NO:198/A",
      "phone": "02323369020",
      "district": "KARŞIYAKA 3",
      "city": "İzmir",
      "latitude": 38.45927,
      "longitude": 27.098052,
      "dutyStart": "2026-03-01T08:00:00.000Z",
      "dutyEnd": "2026-03-02T08:00:00.000Z"
    },
    {
      "id": "izmir-57-79",
      "name": "KOZA ECZANESİ",
      "address": "ÖRNEKKÖY MAH. BAŞ PEHLİVAN KARAALİ CAD. NO:22/B",
      "phone": "02323625692",
      "district": "KARŞIYAKA 4",
      "city": "İzmir",
      "latitude": 38.477511,
      "longitude": 27.110179,
      "dutyStart": "2026-03-01T08:00:00.000Z",
      "dutyEnd": "2026-03-02T08:00:00.000Z"
    },
    {
      "id": "izmir-58-80",
      "name": "CEYLAN ECZANESİ",
      "address": "ALAYBEY MAH. 1690 SOK. NO:134/A",
      "phone": "02323232324",
      "district": "KARŞIYAKA 1",
      "city": "İzmir",
      "latitude": 38.459945,
      "longitude": 27.120724,
      "dutyStart": "2026-03-01T08:00:00.000Z",
      "dutyEnd": "2026-03-02T08:00:00.000Z"
    },
    {
      "id": "izmir-59-82",
      "name": "DUYGU  ECZANESİ",
      "address": "MİMAR SİNAN MAH. ALİ ÇETİNKAYA BULVARI NO:63/A",
      "phone": "02324463672",
      "district": "ALSANCAK",
      "city": "İzmir",
      "latitude": 38.43404,
      "longitude": 27.145645,
      "dutyStart": "2026-03-01T08:00:00.000Z",
      "dutyEnd": "2026-03-02T08:00:00.000Z"
    },
    {
      "id": "izmir-60-83",
      "name": "HATAY BANU ECZANESİ",
      "address": "ÇANKAYA MH. İNÖNÜ CD. 131 SK. NO:86",
      "phone": "02322448545",
      "district": "HATAY",
      "city": "İzmir",
      "latitude": 38.401693,
      "longitude": 27.105101,
      "dutyStart": "2026-03-01T08:00:00.000Z",
      "dutyEnd": "2026-03-02T08:00:00.000Z"
    },
    {
      "id": "izmir-61-84",
      "name": "MİTHATPAŞA ECZANESİ",
      "address": "GÖZTEPE MAH. MİTHATPAŞA CAD. NO:897/D",
      "phone": "02322483332",
      "district": "MİTHATPAŞA",
      "city": "İzmir",
      "latitude": 38.39784,
      "longitude": 27.088229,
      "dutyStart": "2026-03-01T08:00:00.000Z",
      "dutyEnd": "2026-03-02T08:00:00.000Z"
    },
    {
      "id": "izmir-62-89",
      "name": "ORAN ECZANESİ",
      "address": "ISLAM MAH. HÜRRIYET MEYDANI NO:22/2 ÇANDARLI-IZMIR",
      "phone": "02326731088",
      "district": "ÇANDARLI",
      "city": "İzmir",
      "latitude": 38.935683,
      "longitude": 26.934613,
      "dutyStart": "2026-03-01T08:00:00.000Z",
      "dutyEnd": "2026-03-02T08:00:00.000Z"
    },
    {
      "id": "izmir-63-90",
      "name": "DERİN ECZANESİ",
      "address": "ÇUKURALTI MAH. MUSTAFA KEMAL PAŞA BULVARI NO:128/A ",
      "phone": "02327974318",
      "district": "ÖZDERE",
      "city": "İzmir",
      "latitude": 38.021909,
      "longitude": 27.093892,
      "dutyStart": "2026-03-01T08:00:00.000Z",
      "dutyEnd": "2026-03-02T08:00:00.000Z"
    },
    {
      "id": "izmir-64-101",
      "name": "SARDUNYA ECZANESİ",
      "address": "OSMANGAZİ MAH. 579 SOK. NO:54/C",
      "phone": "02329990224",
      "district": "ATATÜRK",
      "city": "İzmir",
      "latitude": 38.468451,
      "longitude": 27.190026,
      "dutyStart": "2026-03-01T08:00:00.000Z",
      "dutyEnd": "2026-03-02T08:00:00.000Z"
    },
    {
      "id": "izmir-65-101",
      "name": "EDA DENİZ ECZANESİ",
      "address": "EVKA-4 MAH. 1027 SOK. 96 BLOK NO:29/A",
      "phone": "02323516019",
      "district": "ATATÜRK",
      "city": "İzmir",
      "latitude": 38.489977,
      "longitude": 27.213867,
      "dutyStart": "2026-03-01T08:00:00.000Z",
      "dutyEnd": "2026-03-02T08:00:00.000Z"
    },
    {
      "id": "izmir-66-102",
      "name": "SIFAVEREN ECZANESİ",
      "address": "ESKIIZMIR-3820 SOK. NO:252/A",
      "phone": "02322670096",
      "district": "ESKİİZMİR-CENNETÇEŞME",
      "city": "İzmir",
      "latitude": 38.369261,
      "longitude": 27.096105,
      "dutyStart": "2026-03-01T08:00:00.000Z",
      "dutyEnd": "2026-03-02T08:00:00.000Z"
    },
    {
      "id": "izmir-67-103",
      "name": "VEGA ECZANESİ",
      "address": "HALKAPINAR MAH. 1558/1 SOK. NO:4N",
      "phone": "02325029848",
      "district": "ALSANCAK-BASMANE",
      "city": "İzmir",
      "latitude": 38.432112,
      "longitude": 27.161852,
      "dutyStart": "2026-03-01T08:00:00.000Z",
      "dutyEnd": "2026-03-02T08:00:00.000Z"
    },
    {
      "id": "izmir-68-106",
      "name": "SÖZERİ ECZANESİ",
      "address": "MEVLANA MAH. 1754 SOK. NO:38",
      "phone": "02325028612",
      "district": "BORNOVA 4",
      "city": "İzmir",
      "latitude": 38.448071,
      "longitude": 27.229566,
      "dutyStart": "2026-03-01T08:00:00.000Z",
      "dutyEnd": "2026-03-02T08:00:00.000Z"
    },
    {
      "id": "izmir-69-107",
      "name": "NESRIN ECZANESİ",
      "address": "ULUKENT 30 AGUSTOS MAH. 7122 SOKAK NO:7/A-H MENEMEN",
      "phone": "02328381180",
      "district": "MENEMEN 2",
      "city": "İzmir",
      "latitude": 38.556285,
      "longitude": 27.049517,
      "dutyStart": "2026-03-01T08:00:00.000Z",
      "dutyEnd": "2026-03-02T08:00:00.000Z"
    },
    {
      "id": "izmir-70-109",
      "name": "ZEYTİNALANI ECZANESİ",
      "address": "ISMET INÖNÜ CAD.NO:4/2 ZEYTINALANI MAH.",
      "phone": "02327664043",
      "district": "ZEYTİNALANI",
      "city": "İzmir",
      "latitude": 38.368004,
      "longitude": 26.836762,
      "dutyStart": "2026-03-01T08:00:00.000Z",
      "dutyEnd": "2026-03-02T08:00:00.000Z"
    },
    {
      "id": "izmir-71-110",
      "name": "ILKE ECZANESİ",
      "address": "ATATÜRK MAH. M.FEVZI ÇAKMAK CAD. NO:292/B",
      "phone": "02327522728",
      "district": "İSKELE",
      "city": "İzmir",
      "latitude": 38.361683,
      "longitude": 26.778074,
      "dutyStart": "2026-03-01T08:00:00.000Z",
      "dutyEnd": "2026-03-02T08:00:00.000Z"
    },
    {
      "id": "izmir-72-112",
      "name": "TEOS ECZANESİ",
      "address": "SIGACIK MAH. AKKUM CAD NO 35/A",
      "phone": "02323939831",
      "district": "SEFERİHİSAR-SIĞACIK BÖLGESİ",
      "city": "İzmir",
      "latitude": 38.19121,
      "longitude": 26.784998,
      "dutyStart": "2026-03-01T08:00:00.000Z",
      "dutyEnd": "2026-03-02T08:00:00.000Z"
    },
    {
      "id": "izmir-73-113",
      "name": "ÜRKMEZ ECZANESİ",
      "address": "BENGİLER MAH.ÜRKMEZ CAD. NO:101/A ÜRKMEZ",
      "phone": "02327421704",
      "district": "GÜMÜLDÜR-ÜRKMEZ",
      "city": "İzmir",
      "latitude": 38.078297,
      "longitude": 26.95589,
      "dutyStart": "2026-03-01T08:00:00.000Z",
      "dutyEnd": "2026-03-02T08:00:00.000Z"
    }
  ]
}