{
  "city": "mersin",
  "cityName": "Mersin",
  "cityId": 33,
  "date": "2026-03-01",
  "updatedAt": "2026-03-01T13:30:08.683Z",
  "count": 25,
  "pharmacies": [
    {
      "id": "mersin-0",
      "name": "AHU ECZANESİ",
      "address": "ÇAGDAŞKENT MAH.232-1 CD. DIŞ KAPI NO:44 AB BLOK NO:H-1",
      "phone": "03242241600",
      "district": "Toroslar",
      "city": "Mersin",
      "latitude": 36.836589,
      "longitude": 34.609845,
      "dutyStart": "2026-03-01T08:30:00.000Z",
      "dutyEnd": "2026-03-02T08:30:00.000Z"
    },
    {
      "id": "mersin-1",
      "name": "ALP ECZANESİ",
      "address": "MENDERES MAH.CEVAT KUTLU NO:15/A",
      "phone": "03243583037",
      "district": "Mezi̇tli̇",
      "city": "Mersin",
      "latitude": 36.740902,
      "longitude": 34.525603,
      "dutyStart": "2026-03-01T08:30:00.000Z",
      "dutyEnd": "2026-03-02T08:30:00.000Z"
    },
    {
      "id": "mersin-2",
      "name": "CAN ECZANESİ",
      "address": "ATATÜRK MH. SK. BURCU APT. ALTI NO:23/A",
      "phone": "03244226180",
      "district": "Mezi̇tli̇",
      "city": "Mersin",
      "latitude": 36.765165,
      "longitude": 34.547194,
      "dutyStart": "2026-03-01T08:30:00.000Z",
      "dutyEnd": "2026-03-02T08:30:00.000Z"
    },
    {
      "id": "mersin-3",
      "name": "DEFNE ŞULE ECZANESİ",
      "address": "ÇİFTLİKKÖY MAH.MİMAR SİNAN CAD.32231 SOK.D BLOK NO:4",
      "phone": "05324205462",
      "district": "Yeni̇şehi̇r",
      "city": "Mersin",
      "latitude": 36.785519,
      "longitude": 34.540106,
      "dutyStart": "2026-03-01T08:30:00.000Z",
      "dutyEnd": "2026-03-02T08:30:00.000Z"
    },
    {
      "id": "mersin-4",
      "name": "DERYA ECZANESİ",
      "address": "HÜRRIYET MAH.1747 SK.I.SINCAR APT.ALTI NO:6/17",
      "phone": "03243292452",
      "district": "Yeni̇şehi̇r",
      "city": "Mersin",
      "latitude": 36.794477,
      "longitude": 34.600974,
      "dutyStart": "2026-03-01T08:30:00.000Z",
      "dutyEnd": "2026-03-02T08:30:00.000Z"
    },
    {
      "id": "mersin-5",
      "name": "ESEN ECZANESİ",
      "address": "MESUDİYE MAH. ÇAKMAK CAD. NO:31/E",
      "phone": "03242315880",
      "district": "Akdeni̇z",
      "city": "Mersin",
      "latitude": 36.804377,
      "longitude": 34.630646,
      "dutyStart": "2026-03-01T08:30:00.000Z",
      "dutyEnd": "2026-03-02T08:30:00.000Z"
    },
    {
      "id": "mersin-6",
      "name": "GÖKSU ECZANESİ",
      "address": "KÜLTÜR MH. 4312 SK. NO. 1/E",
      "phone": "03242384226",
      "district": "Akdeni̇z",
      "city": "Mersin",
      "latitude": 36.791449,
      "longitude": 34.622625,
      "dutyStart": "2026-03-01T08:30:00.000Z",
      "dutyEnd": "2026-03-02T08:30:00.000Z"
    },
    {
      "id": "mersin-7",
      "name": "HARE ECZANESİ",
      "address": "BARBAROS MH. NEVİT KODALLI CD. NO:22/E",
      "phone": "03249993606",
      "district": "Yeni̇şehi̇r",
      "city": "Mersin",
      "latitude": 36.777756,
      "longitude": 34.571746,
      "dutyStart": "2026-03-01T08:30:00.000Z",
      "dutyEnd": "2026-03-02T08:30:00.000Z"
    },
    {
      "id": "mersin-8",
      "name": "SAİT ECZANESİ",
      "address": "YENI MAH.5314 SOK. MELTEM APT. ALTI NO:8",
      "phone": "03242335072",
      "district": "Akdeni̇z",
      "city": "Mersin",
      "latitude": 36.806771,
      "longitude": 34.635554,
      "dutyStart": "2026-03-01T08:30:00.000Z",
      "dutyEnd": "2026-03-02T08:30:00.000Z"
    },
    {
      "id": "mersin-9",
      "name": "SOYHAN ECZANESİ",
      "address": "TOZKOPARAN MAH. 87002 SOK. NO:33",
      "phone": "03243233383",
      "district": "Toroslar",
      "city": "Mersin",
      "latitude": 36.816586,
      "longitude": 34.619587,
      "dutyStart": "2026-03-01T08:30:00.000Z",
      "dutyEnd": "2026-03-02T08:30:00.000Z"
    },
    {
      "id": "mersin-10",
      "name": "ASLI ECZANESİ",
      "address": "Gazipaşa Mah. 1938 Sok. No:12",
      "phone": "03246262644",
      "district": "Tarsus",
      "city": "Mersin",
      "latitude": 36.912478,
      "longitude": 34.867398,
      "dutyStart": "2026-03-01T08:30:00.000Z",
      "dutyEnd": "2026-03-02T08:30:00.000Z"
    },
    {
      "id": "mersin-11",
      "name": "EGE ECZANESİ",
      "address": "ÖĞRETMENLER MH. DUMLUPINAR BULV. NO:2/1A",
      "phone": "03245022454",
      "district": "Tarsus",
      "city": "Mersin",
      "latitude": 36.909085,
      "longitude": 34.883239,
      "dutyStart": "2026-03-01T08:30:00.000Z",
      "dutyEnd": "2026-03-02T08:30:00.000Z"
    },
    {
      "id": "mersin-12",
      "name": "NİDA ECZANESİ",
      "address": "ALTAYLILAR MAH.TURAN CAD.NO:45/A ALTAYLILAR ASM YANI",
      "phone": "03246241212",
      "district": "Tarsus",
      "city": "Mersin",
      "latitude": 36.923388,
      "longitude": 34.853848,
      "dutyStart": "2026-03-01T08:30:00.000Z",
      "dutyEnd": "2026-03-02T08:30:00.000Z"
    },
    {
      "id": "mersin-13",
      "name": "ÖRSAN ECZANESİ",
      "address": "TEKKE MH. TÜRKMENİSTAN CD. NO:58BH",
      "phone": "03246133323",
      "district": "Tarsus",
      "city": "Mersin",
      "latitude": 36.91427,
      "longitude": 34.912666,
      "dutyStart": "2026-03-01T08:30:00.000Z",
      "dutyEnd": "2026-03-02T08:30:00.000Z"
    },
    {
      "id": "mersin-14",
      "name": "ATLAS ECZANESİ",
      "address": "TAŞUCU MH. ATATÜRK BULV. NO:55B",
      "phone": "03247412368",
      "district": "Si̇li̇fke",
      "city": "Mersin",
      "latitude": 36.317974,
      "longitude": 33.877737,
      "dutyStart": "2026-03-01T08:30:00.000Z",
      "dutyEnd": "2026-03-02T08:30:00.000Z"
    },
    {
      "id": "mersin-15",
      "name": "GÜVEN ECZANESİ",
      "address": "ATAKENT MAH. ALPARSLAN TÜRKEŞ (SAZBAŞI) BULV. NO:383 A/18",
      "phone": "03247225197",
      "district": "Si̇li̇fke",
      "city": "Mersin",
      "latitude": 36.405557,
      "longitude": 34.070173,
      "dutyStart": "2026-03-01T08:30:00.000Z",
      "dutyEnd": "2026-03-02T08:30:00.000Z"
    },
    {
      "id": "mersin-16",
      "name": "NADİR DERELİ ECZANESİ",
      "address": "CELAL BAYAR CD. NO:7/C",
      "phone": "03247145464",
      "district": "Si̇li̇fke",
      "city": "Mersin",
      "latitude": 36.381112,
      "longitude": 33.92768,
      "dutyStart": "2026-03-01T08:30:00.000Z",
      "dutyEnd": "2026-03-02T08:30:00.000Z"
    },
    {
      "id": "mersin-17",
      "name": "ONUR ÇEKİÇ ECZANESİ",
      "address": "SARICALAR MAH. TÜRKMENLİ SOK. NO:11/Z02",
      "phone": "03247120036",
      "district": "Si̇li̇fke",
      "city": "Mersin",
      "latitude": 36.383656,
      "longitude": 33.944479,
      "dutyStart": "2026-03-01T08:30:00.000Z",
      "dutyEnd": "2026-03-02T08:30:00.000Z"
    },
    {
      "id": "mersin-18",
      "name": "ÖZTÜRK ECZANESİ",
      "address": "PINARBAŞI MAH. KARACAOĞLAN CAD. NO:13/A",
      "phone": "03247748187",
      "district": "Mut",
      "city": "Mersin",
      "latitude": 36.642981,
      "longitude": 33.441891,
      "dutyStart": "2026-03-01T08:30:00.000Z",
      "dutyEnd": "2026-03-02T08:30:00.000Z"
    },
    {
      "id": "mersin-19",
      "name": "YENİ ŞİFA ECZANESİ",
      "address": "SARAY MAH.AKKAVAK CAD. NO:12/ABC",
      "phone": "03247517062",
      "district": "Gülnar",
      "city": "Mersin",
      "latitude": 36.338405,
      "longitude": 33.40321,
      "dutyStart": "2026-03-01T08:30:00.000Z",
      "dutyEnd": "2026-03-02T08:30:00.000Z"
    },
    {
      "id": "mersin-20",
      "name": "MURAT ECZANESİ",
      "address": "MERKEZ MH. KAZIM KARABEKİR_1 CAD. NO:72/B",
      "phone": "03245772254",
      "district": "Erdemli̇",
      "city": "Mersin",
      "latitude": 36.609743,
      "longitude": 34.303401,
      "dutyStart": "2026-03-01T08:30:00.000Z",
      "dutyEnd": "2026-03-02T08:30:00.000Z"
    },
    {
      "id": "mersin-21",
      "name": "TUNÇ ECZANESİ",
      "address": "ALATA MH. YAVUZ SULTAN SELİM BULV. NO:176-B",
      "phone": "03245150516",
      "district": "Erdemli̇",
      "city": "Mersin",
      "latitude": 36.617018,
      "longitude": 34.317635,
      "dutyStart": "2026-03-01T08:30:00.000Z",
      "dutyEnd": "2026-03-02T08:30:00.000Z"
    },
    {
      "id": "mersin-22",
      "name": "AKDENİZ ECZANESİ",
      "address": "ÇOPURLU MAH.ŞEHITLER CAD.NO:8/1",
      "phone": "03248513157",
      "district": "Bozyazi",
      "city": "Mersin",
      "latitude": 36.115081,
      "longitude": 32.971999,
      "dutyStart": "2026-03-01T08:30:00.000Z",
      "dutyEnd": "2026-03-02T08:30:00.000Z"
    },
    {
      "id": "mersin-23",
      "name": "ÇETİN ECZANESİ",
      "address": "BAHÇELİEVLER MH. HOCA AHMET YESEVİ BULV. B BLOK NO:16/B",
      "phone": "03248142580",
      "district": "Anamur",
      "city": "Mersin",
      "latitude": 36.078452,
      "longitude": 32.849159,
      "dutyStart": "2026-03-01T08:30:00.000Z",
      "dutyEnd": "2026-03-02T08:30:00.000Z"
    },
    {
      "id": "mersin-24",
      "name": "DEVA ECZANESİ",
      "address": "CUMHURIYET MAH. KENAN EVREN CD. NO:1/C",
      "phone": "03248412224",
      "district": "Aydincik",
      "city": "Mersin",
      "latitude": 36.152833,
      "longitude": 33.338789,
      "dutyStart": "2026-03-01T08:30:00.000Z",
      "dutyEnd": "2026-03-02T08:30:00.000Z"
    }
  ]
}