{
  "city": "sinop",
  "cityName": "Sinop",
  "cityId": 57,
  "date": "2026-03-01",
  "updatedAt": "2026-03-01T14:30:07.176Z",
  "count": 6,
  "pharmacies": [
    {
      "id": "sinop-21",
      "name": "DEMİR ECZANESİ",
      "address": "KORUCUK KÖYÜ TIRKISLAR MEVKII NO:9/1-C",
      "phone": "03682618596",
      "district": "Merkez",
      "city": "Sinop",
      "latitude": 42.00306,
      "longitude": 35.078431,
      "dutyStart": "2026-03-01T08:30:00.000Z",
      "dutyEnd": "2026-03-02T08:30:00.000Z"
    },
    {
      "id": "sinop-22",
      "name": "YÜKSEL  ECZANESİ",
      "address": "YALI MAH.ATATÜRK CAD.NO:26/A",
      "phone": "03686131631",
      "district": "Ayancık",
      "city": "Sinop",
      "latitude": 41.9434,
      "longitude": 34.588255,
      "dutyStart": "2026-03-01T08:30:00.000Z",
      "dutyEnd": "2026-03-02T08:30:00.000Z"
    },
    {
      "id": "sinop-23",
      "name": "ÇINAR ECZANESİ",
      "address": "ÇAMLICA MAH. EROL DEMİRKOL CAD. NO:3/C",
      "phone": "03683151218",
      "district": "Boyabat",
      "city": "Sinop",
      "latitude": 41.46323,
      "longitude": 34.78351,
      "dutyStart": "2026-03-01T08:30:00.000Z",
      "dutyEnd": "2026-03-02T08:30:00.000Z"
    },
    {
      "id": "sinop-24",
      "name": "ERDOĞAN  ECZANESİ",
      "address": "MERKEZ MAH. YUSUF KEMAL TENGİRŞEK CAD. NO:30",
      "phone": "03684162277",
      "district": "Durağan",
      "city": "Sinop",
      "latitude": 41.419614,
      "longitude": 35.053526,
      "dutyStart": "2026-03-01T08:30:00.000Z",
      "dutyEnd": "2026-03-02T08:30:00.000Z"
    },
    {
      "id": "sinop-25",
      "name": "KUMSAL ECZANESİ",
      "address": "MERKEZ MAH. ÇINARLIK CAD. NO:20/B",
      "phone": "03685112000",
      "district": "Erfelek",
      "city": "Sinop",
      "latitude": 41.879619,
      "longitude": 34.890881,
      "dutyStart": "2026-03-01T08:30:00.000Z",
      "dutyEnd": "2026-03-02T08:30:00.000Z"
    },
    {
      "id": "sinop-26",
      "name": "SERAY ECZANESİ",
      "address": "ÇARŞI MAH. CUMHURİYET MEYDANINO:1/A",
      "phone": "03687182020",
      "district": "Gerze",
      "city": "Sinop",
      "latitude": 41.802629,
      "longitude": 35.198403,
      "dutyStart": "2026-03-01T08:30:00.000Z",
      "dutyEnd": "2026-03-02T08:30:00.000Z"
    }
  ]
}