{
  "city": "samsun",
  "cityName": "Samsun",
  "cityId": 55,
  "date": "2026-03-03",
  "updatedAt": "2026-03-03T13:30:48.456Z",
  "count": 21,
  "pharmacies": [
    {
      "id": "samsun-0",
      "name": "MEYDAN DİLEK ECZANESİ",
      "address": "KALE MAHALLESİ KAPTANAĞA SOK. NO:3/1",
      "phone": "03624321909",
      "district": "İlkadım",
      "city": "Samsun",
      "latitude": 41.290178,
      "longitude": 36.332831,
      "dutyStart": "2026-03-03T08:30:00.000Z",
      "dutyEnd": "2026-03-04T08:30:00.000Z"
    },
    {
      "id": "samsun-1",
      "name": "SAHARA ECZANESİ",
      "address": "FEVZİ ÇAKMAK MAH. LİSE CAD. NO:86/1",
      "phone": "03622301611",
      "district": "İlkadım",
      "city": "Samsun",
      "latitude": 41.27637,
      "longitude": 36.334826,
      "dutyStart": "2026-03-03T08:30:00.000Z",
      "dutyEnd": "2026-03-04T08:30:00.000Z"
    },
    {
      "id": "samsun-2",
      "name": "ESRA ECZANESİ",
      "address": "HANÇERLİ MAH. DERVİŞZADE SOK. NO:6/15",
      "phone": "03624468446",
      "district": "İlkadım",
      "city": "Samsun",
      "latitude": 41.301048,
      "longitude": 36.3309,
      "dutyStart": "2026-03-03T08:30:00.000Z",
      "dutyEnd": "2026-03-04T08:30:00.000Z"
    },
    {
      "id": "samsun-3",
      "name": "ITIR  ECZANESİ",
      "address": "YENİMAHALLE MAH. BASIN SOK. NO:8I/12",
      "phone": "03629991887",
      "district": "Canik",
      "city": "Samsun",
      "latitude": 41.267773,
      "longitude": 36.351845,
      "dutyStart": "2026-03-03T08:30:00.000Z",
      "dutyEnd": "2026-03-04T08:30:00.000Z"
    },
    {
      "id": "samsun-4",
      "name": "SİMGE  ECZANESİ",
      "address": "YENİ MAHALLE MAH. İSMET İNÖNÜ CAD. NO:94-96/B",
      "phone": "03624004064",
      "district": "Atakum",
      "city": "Samsun",
      "latitude": 41.344432,
      "longitude": 36.244661,
      "dutyStart": "2026-03-03T08:30:00.000Z",
      "dutyEnd": "2026-03-04T08:30:00.000Z"
    },
    {
      "id": "samsun-5",
      "name": "CİTYMALL ECZANESİ",
      "address": "MİMARSİNAN MAH. ALPASLAN BULVARI NO:1",
      "phone": "03625036226",
      "district": "Atakum",
      "city": "Samsun",
      "latitude": 41.336068,
      "longitude": 36.272978,
      "dutyStart": "2026-03-03T08:30:00.000Z",
      "dutyEnd": "2026-03-04T08:30:00.000Z"
    },
    {
      "id": "samsun-6",
      "name": "ÇAKIRLAR  ECZANESİ",
      "address": "YALI MAH. ATATÜRK BULVARI NO:263/B",
      "phone": "03624577799",
      "district": "Atakum Sayfiye",
      "city": "Samsun",
      "latitude": 41.399742,
      "longitude": 36.192077,
      "dutyStart": "2026-03-03T08:30:00.000Z",
      "dutyEnd": "2026-03-04T08:30:00.000Z"
    },
    {
      "id": "samsun-7",
      "name": "MERKEZ ECZANESİ",
      "address": "23 NİSAN MAH. SAMSUN CAD. NO:11",
      "phone": "03622560770",
      "district": "Tekkeköy",
      "city": "Samsun",
      "latitude": 41.21287,
      "longitude": 36.458353,
      "dutyStart": "2026-03-03T08:30:00.000Z",
      "dutyEnd": "2026-03-04T08:30:00.000Z"
    },
    {
      "id": "samsun-8",
      "name": "BAYRAK ECZANESİ",
      "address": "YENİ CAMİ MAH. LİSE CAD. NO:53/A",
      "phone": "03626220199",
      "district": "Alaçam",
      "city": "Samsun",
      "latitude": 41.611061,
      "longitude": 35.600234,
      "dutyStart": "2026-03-03T08:30:00.000Z",
      "dutyEnd": "2026-03-04T08:30:00.000Z"
    },
    {
      "id": "samsun-9",
      "name": "ASARCIK ECZANESİ",
      "address": "CUMHURİYET MEYDANI. NO:38/B",
      "phone": "03627912784",
      "district": "Asarcık",
      "city": "Samsun",
      "latitude": 41.036208,
      "longitude": 36.234064,
      "dutyStart": "2026-03-03T08:30:00.000Z",
      "dutyEnd": "2026-03-04T08:30:00.000Z"
    },
    {
      "id": "samsun-10",
      "name": "EDA ECZANESİ",
      "address": "EYÜP SULTAN MAH. MUSTAFA GÜLER SOK. NO.8 İÇ KAPI Z-2",
      "phone": "03628132293",
      "district": "Ayvacık",
      "city": "Samsun",
      "latitude": 41.002689,
      "longitude": 36.629566,
      "dutyStart": "2026-03-03T08:30:00.000Z",
      "dutyEnd": "2026-03-04T08:30:00.000Z"
    },
    {
      "id": "samsun-11",
      "name": "YENİ KIZILIRMAK ECZANESİ",
      "address": "HACINABİ MAH. CUMHURİYET 2 (MEYDAN) SOK. NO:27",
      "phone": "03625431603",
      "district": "Bafra",
      "city": "Samsun",
      "latitude": 41.568044,
      "longitude": 35.902618,
      "dutyStart": "2026-03-03T08:30:00.000Z",
      "dutyEnd": "2026-03-04T08:30:00.000Z"
    },
    {
      "id": "samsun-12",
      "name": "KAVAKDİBİ ECZANESİ",
      "address": "HELVACILI MAH. 6000. SOK. NO:12E",
      "phone": "03628334293",
      "district": "Çarşamba",
      "city": "Samsun",
      "latitude": 41.209815,
      "longitude": 36.749281,
      "dutyStart": "2026-03-03T08:30:00.000Z",
      "dutyEnd": "2026-03-04T08:30:00.000Z"
    },
    {
      "id": "samsun-13",
      "name": "KARAOĞLAN ECZANESİ",
      "address": "KAZIMPASA CAD. NO:50",
      "phone": "03627141361",
      "district": "Havza",
      "city": "Samsun",
      "latitude": 40.968664,
      "longitude": 35.665307,
      "dutyStart": "2026-03-03T08:30:00.000Z",
      "dutyEnd": "2026-03-04T08:30:00.000Z"
    },
    {
      "id": "samsun-14",
      "name": "YILMAZ ECZANESİ",
      "address": "19 MAYIS MAHALLESİ ADNAN MENDERES CADDESİ NO:75",
      "phone": "03627412701",
      "district": "Kavak",
      "city": "Samsun",
      "latitude": 41.073764,
      "longitude": 36.036254,
      "dutyStart": "2026-03-03T08:30:00.000Z",
      "dutyEnd": "2026-03-04T08:30:00.000Z"
    },
    {
      "id": "samsun-15",
      "name": "LADİK MUTLU ECZANESİ",
      "address": "BAHŞİ MAH. GAZİLER CAD.NO:36/C",
      "phone": "03627714534",
      "district": "Ladik",
      "city": "Samsun",
      "latitude": 40.909756,
      "longitude": 35.894448,
      "dutyStart": "2026-03-03T08:30:00.000Z",
      "dutyEnd": "2026-03-04T08:30:00.000Z"
    },
    {
      "id": "samsun-16",
      "name": "EROĞLU ECZANESİ",
      "address": "PAZAR MAH. FATİH BULV. NO:38/1",
      "phone": "03625113852",
      "district": "Ondokuzmayıs",
      "city": "Samsun",
      "latitude": 41.492818,
      "longitude": 36.074411,
      "dutyStart": "2026-03-03T08:30:00.000Z",
      "dutyEnd": "2026-03-04T08:30:00.000Z"
    },
    {
      "id": "samsun-17",
      "name": "SALIPAZARI ECZANESİ",
      "address": "BELEDİYE MEYDANI BİLA NO",
      "phone": "03628212219",
      "district": "Salıpazarı",
      "city": "Samsun",
      "latitude": 41.081891,
      "longitude": 36.825887,
      "dutyStart": "2026-03-03T08:30:00.000Z",
      "dutyEnd": "2026-03-04T08:30:00.000Z"
    },
    {
      "id": "samsun-18",
      "name": "ÖZDEMİR ECZANESİ",
      "address": "ÇAY MAH. KOCAMAN CAD. NO:12",
      "phone": "03628761059",
      "district": "Terme",
      "city": "Samsun",
      "latitude": 41.206948,
      "longitude": 36.973114,
      "dutyStart": "2026-03-03T08:30:00.000Z",
      "dutyEnd": "2026-03-04T08:30:00.000Z"
    },
    {
      "id": "samsun-19",
      "name": "CEBECİ ECZANESİ",
      "address": "ESENTEPE MAH. 431. SOK. NO:37/1",
      "phone": "03626473222",
      "district": "Vezirköprü",
      "city": "Samsun",
      "latitude": 41.128481,
      "longitude": 35.480364,
      "dutyStart": "2026-03-03T08:30:00.000Z",
      "dutyEnd": "2026-03-04T08:30:00.000Z"
    },
    {
      "id": "samsun-26",
      "name": "ŞİFA  ECZANESİ",
      "address": "CUMHURIYET CAD.NO:4/B",
      "phone": "03686712179",
      "district": "Türkeli",
      "city": "Samsun",
      "latitude": 41.946557,
      "longitude": 34.336765,
      "dutyStart": "2026-03-03T08:30:00.000Z",
      "dutyEnd": "2026-03-04T08:30:00.000Z"
    }
  ]
}