{
  "city": "sinop",
  "cityName": "Sinop",
  "cityId": 57,
  "date": "2026-03-03",
  "updatedAt": "2026-03-02T22:00:06.175Z",
  "count": 6,
  "pharmacies": [
    {
      "id": "sinop-19",
      "name": "SERKAN  ECZANESİ",
      "address": "GELİNCİK MAH.FATİH CAD. GÜZEL SİTE A BLOK NO.23/A",
      "phone": "03682619988",
      "district": "Merkez",
      "city": "Sinop",
      "latitude": 42.02296,
      "longitude": 35.137895,
      "dutyStart": "2026-03-02T08:30:00.000Z",
      "dutyEnd": "2026-03-03T08:30:00.000Z"
    },
    {
      "id": "sinop-20",
      "name": "GÜVEN  ECZANESİ",
      "address": "YALI MAH. ATATÜRK CAD. NO:22/A",
      "phone": "03686133388",
      "district": "Ayancık",
      "city": "Sinop",
      "latitude": 41.943927,
      "longitude": 34.588253,
      "dutyStart": "2026-03-02T08:30:00.000Z",
      "dutyEnd": "2026-03-03T08:30:00.000Z"
    },
    {
      "id": "sinop-21",
      "name": "ANKA ECZANESİ",
      "address": "CAMİİKEBİR MAH. ADNAN MENDERES BULVARI NO:43/F",
      "phone": "03683151808",
      "district": "Boyabat",
      "city": "Sinop",
      "latitude": 41.466108,
      "longitude": 34.771533,
      "dutyStart": "2026-03-02T08:30:00.000Z",
      "dutyEnd": "2026-03-03T08:30:00.000Z"
    },
    {
      "id": "sinop-22",
      "name": "NAZLI ECZANESİ",
      "address": "MERKEZ MAH. PLEVNE CAD. NO:47/B",
      "phone": "03684161057",
      "district": "Durağan",
      "city": "Sinop",
      "latitude": 41.416371,
      "longitude": 35.058495,
      "dutyStart": "2026-03-02T08:30:00.000Z",
      "dutyEnd": "2026-03-03T08:30:00.000Z"
    },
    {
      "id": "sinop-23",
      "name": "ERFELEK ECZANESİ",
      "address": "CUMHURİYET MEYDANI NO:18",
      "phone": "03685112039",
      "district": "Erfelek",
      "city": "Sinop",
      "latitude": 41.879923,
      "longitude": 34.906679,
      "dutyStart": "2026-03-02T08:30:00.000Z",
      "dutyEnd": "2026-03-03T08:30:00.000Z"
    },
    {
      "id": "sinop-24",
      "name": "YENİ GERZE ECZANESİ",
      "address": "ÇARŞI MAH. GENERAL OSMAN PAMUKOĞLU CAD. NO:2/C",
      "phone": "03687181056",
      "district": "Gerze",
      "city": "Sinop",
      "latitude": 41.802563,
      "longitude": 35.197714,
      "dutyStart": "2026-03-02T08:30:00.000Z",
      "dutyEnd": "2026-03-03T08:30:00.000Z"
    }
  ]
}