{
  "city": "ankara",
  "cityName": "Ankara",
  "cityId": 6,
  "date": "2026-02-18",
  "updatedAt": "2026-02-18T10:30:50.824Z",
  "count": 58,
  "pharmacies": [
    {
      "id": "ankara-0",
      "name": "CEVİZLİDERE ECZANESİ",
      "address": "Cevizlidere Mah. Ceyhun Atıf Kansu Cad.No:167/A Çankaya/ ANKARA , Cevizlidere ASM Karşısı 03124733727",
      "phone": "03124733727",
      "district": "Çankaya",
      "city": "Ankara",
      "latitude": 39.881593386885,
      "longitude": 32.814960479736,
      "dutyStart": "2026-02-18T08:30:00.000Z",
      "dutyEnd": "2026-02-19T08:30:00.000Z"
    },
    {
      "id": "ankara-1",
      "name": "PARLAK ECZANESİ",
      "address": "Bahçelievler Mah. Taşkent Cad.No:75/B Çankaya/ANKARA , Başkent Hastanesi acil çıkış yukarısı 03122226306",
      "phone": "03122226306",
      "district": "Çankaya",
      "city": "Ankara",
      "latitude": 39.925640185062,
      "longitude": 32.830231604594,
      "dutyStart": "2026-02-18T08:30:00.000Z",
      "dutyEnd": "2026-02-19T08:30:00.000Z"
    },
    {
      "id": "ankara-2",
      "name": "ENİSE ECZANESİ",
      "address": "Barıştepe Mah. 737. Cad. No:40/A Şentepe/ Yenimahalle/ANKARA , 03123312023",
      "phone": "03123312023",
      "district": "Yenimahalle",
      "city": "Ankara",
      "latitude": 39.985380169894,
      "longitude": 32.799150073727,
      "dutyStart": "2026-02-18T08:30:00.000Z",
      "dutyEnd": "2026-02-19T08:30:00.000Z"
    },
    {
      "id": "ankara-3",
      "name": "YENİ BİLİM ECZANESİ",
      "address": "Yeşilevler İvedik Cad. No:394/F Yenimahalle/ ANKARA , 12.Cd Başı(Yeni357.Cd) Halkbank kr 03123452126",
      "phone": "03123452126",
      "district": "Yenimahalle",
      "city": "Ankara",
      "latitude": 39.969712108789,
      "longitude": 32.786593437195,
      "dutyStart": "2026-02-18T08:30:00.000Z",
      "dutyEnd": "2026-02-19T08:30:00.000Z"
    },
    {
      "id": "ankara-4",
      "name": "EGE MERKEZ ECZANESİ",
      "address": "Ege Mah. Nato Yolu Cad. No:166/M Mamak/ ANKARA , Villa Pastanesi Karşısı 03123906062",
      "phone": "03123906062",
      "district": "Mamak",
      "city": "Ankara",
      "latitude": 39.897163822793,
      "longitude": 32.920660481632,
      "dutyStart": "2026-02-18T08:30:00.000Z",
      "dutyEnd": "2026-02-19T08:30:00.000Z"
    },
    {
      "id": "ankara-5",
      "name": "GÜNAYDIN ECZANESİ",
      "address": "Şirintepe Mah. 1031. Sok. No:23/A Mamak/ANKARA , Şirintepe Aile Sağlığı Merkezi Karşısı 03125446500",
      "phone": "03125446500",
      "district": "Mamak",
      "city": "Ankara",
      "latitude": 39.91537843507,
      "longitude": 32.92367041111,
      "dutyStart": "2026-02-18T08:30:00.000Z",
      "dutyEnd": "2026-02-19T08:30:00.000Z"
    },
    {
      "id": "ankara-6",
      "name": "İKBAL ECZANESİ",
      "address": "Abidinpaşa Mah. Okul Sok. No:22/A Mamak/ANKARA , Dr.Emre Demir ASM Karşısı 03125622266",
      "phone": "03125622266",
      "district": "Mamak",
      "city": "Ankara",
      "latitude": 39.926958662666,
      "longitude": 32.887938022614,
      "dutyStart": "2026-02-18T08:30:00.000Z",
      "dutyEnd": "2026-02-19T08:30:00.000Z"
    },
    {
      "id": "ankara-7",
      "name": "PİLÜL ECZANESİ",
      "address": "Yıldızevler Mah. Turan Güneş Cad. No:22/39-40-41-42 , 03124422288",
      "phone": "03124422288",
      "district": "Ankara",
      "city": "Ankara",
      "latitude": 39.873450466838,
      "longitude": 32.861620187759,
      "dutyStart": "2026-02-18T08:30:00.000Z",
      "dutyEnd": "2026-02-19T08:30:00.000Z"
    },
    {
      "id": "ankara-8",
      "name": "NOVA ECZANESİ",
      "address": "Küçükesat Cad. No:135/D Küçükesat / Çankaya/ANKARA , Devrez Restorant yanı 05404220207",
      "phone": "05404220207",
      "district": "Çankaya",
      "city": "Ankara",
      "latitude": 39.905568834171,
      "longitude": 32.867732111772,
      "dutyStart": "2026-02-18T08:30:00.000Z",
      "dutyEnd": "2026-02-19T08:30:00.000Z"
    },
    {
      "id": "ankara-9",
      "name": "VAROL ECZANESİ",
      "address": "Meşrutiyet Cad. No:19/B Kızılay /Çankaya/ ANKARA , 03124255575",
      "phone": "03124255575",
      "district": "Çankaya",
      "city": "Ankara",
      "latitude": 39.91794890249,
      "longitude": 32.857103347778,
      "dutyStart": "2026-02-18T08:30:00.000Z",
      "dutyEnd": "2026-02-19T08:30:00.000Z"
    },
    {
      "id": "ankara-10",
      "name": "DÖRTYOL ECZANESİ",
      "address": "Hacettepe Mah. Kestane Cad. Yenikök Sok. No:1/22(B) Ulucanlar/ Altındağ/ ANKARA , Kukla Keb.Kar.-Ulucanlar Cez.Müz.Karşı ara 03123204893",
      "phone": "03123204893",
      "district": "Altındağ",
      "city": "Ankara",
      "latitude": 39.936346682005,
      "longitude": 32.872123718262,
      "dutyStart": "2026-02-18T08:30:00.000Z",
      "dutyEnd": "2026-02-19T08:30:00.000Z"
    },
    {
      "id": "ankara-11",
      "name": "ETLİK ECZANESİ",
      "address": "Aşağı Eğlence Mah.Ayvalı Caddesi No:4/C Keçiören/ ANKARA , Etlik Şehir Hast. G8 çıkışı 03123232606",
      "phone": "03123232606",
      "district": "Keçiören",
      "city": "Ankara",
      "latitude": 39.969807694234,
      "longitude": 32.832017843166,
      "dutyStart": "2026-02-18T08:30:00.000Z",
      "dutyEnd": "2026-02-19T08:30:00.000Z"
    },
    {
      "id": "ankara-12",
      "name": "UMUT ECZANESİ",
      "address": "Selçuklu Caddesi No:58/A-B (Karargahtepe Mahallesi) Keçiören/ ANKARA , PapazDeresi Akyurt Market yanı 05431862302",
      "phone": "05431862302",
      "district": "Keçiören",
      "city": "Ankara",
      "latitude": 39.971502515047,
      "longitude": 32.857166414069,
      "dutyStart": "2026-02-18T08:30:00.000Z",
      "dutyEnd": "2026-02-19T08:30:00.000Z"
    },
    {
      "id": "ankara-13",
      "name": "FULYA ECZANESİ",
      "address": "Güneşevler Mah. Malazgirt Cad.No:127/A Altındağ/ANKARA , 03123500550",
      "phone": "03123500550",
      "district": "Altındağ",
      "city": "Ankara",
      "latitude": 39.965293448585,
      "longitude": 32.888969751075,
      "dutyStart": "2026-02-18T08:30:00.000Z",
      "dutyEnd": "2026-02-19T08:30:00.000Z"
    },
    {
      "id": "ankara-14",
      "name": "HÜSEYİNGAZİ ECZANESİ",
      "address": "Ekin Mah. 1604. Cad. No:9/B Mamak / ANKARA , Ekin Aile Yaşam Merkezi Yanı 03123750710",
      "phone": "03123750710",
      "district": "Mamak",
      "city": "Ankara",
      "latitude": 39.96276895904,
      "longitude": 32.94179607863,
      "dutyStart": "2026-02-18T08:30:00.000Z",
      "dutyEnd": "2026-02-19T08:30:00.000Z"
    },
    {
      "id": "ankara-15",
      "name": "AKARSU ECZANESİ",
      "address": "Kuşcağız Mah.Gazeller Cad. No:47/B Keçiören /ANKARA , Toki Blokları yakını 03123814666",
      "phone": "03123814666",
      "district": "Keçiören",
      "city": "Ankara",
      "latitude": 39.998180382556,
      "longitude": 32.847275733948,
      "dutyStart": "2026-02-18T08:30:00.000Z",
      "dutyEnd": "2026-02-19T08:30:00.000Z"
    },
    {
      "id": "ankara-16",
      "name": "ŞANLI ECZANESİ",
      "address": "Kızlarpınarı Cad. No:141/C Keçiören / ANKARA , Fatih S.Mehmet Lisesi karşışı 03123556957",
      "phone": "03123556957",
      "district": "Keçiören",
      "city": "Ankara",
      "latitude": 39.997072865447,
      "longitude": 32.873690128326,
      "dutyStart": "2026-02-18T08:30:00.000Z",
      "dutyEnd": "2026-02-19T08:30:00.000Z"
    },
    {
      "id": "ankara-17",
      "name": "ALAÇAM ECZANESİ",
      "address": "Güvenlik Cad. No:32/B Aşağı Ayrancı /Çankaya/ ANKARA , 03124285395",
      "phone": "03124285395",
      "district": "Çankaya",
      "city": "Ankara",
      "latitude": 39.901584311363,
      "longitude": 32.85301566124,
      "dutyStart": "2026-02-18T08:30:00.000Z",
      "dutyEnd": "2026-02-19T08:30:00.000Z"
    },
    {
      "id": "ankara-18",
      "name": "NiSAN ECZANESİ",
      "address": "İlkadım Mah. Dikmen Cad. Vezinli Sokak No:12/A-B Çankaya/ANKARA , İşbankası Dikmen Şube-Çapraz Arası 03124833816",
      "phone": "03124833816",
      "district": "Çankaya",
      "city": "Ankara",
      "latitude": 39.886042149719,
      "longitude": 32.840095141919,
      "dutyStart": "2026-02-18T08:30:00.000Z",
      "dutyEnd": "2026-02-19T08:30:00.000Z"
    },
    {
      "id": "ankara-19",
      "name": "YENİKENT BARIŞ ECZANESİ",
      "address": "Mustafa Kemal Mah. Orhangazi Cad. No:49/A Yenikent/ Sincan/ ANKARA , Yenikent 2 Nolu ASM Karşısı 03125117307",
      "phone": "03125117307",
      "district": "Sincan",
      "city": "Ankara",
      "latitude": 40.001328180971,
      "longitude": 32.519992589951,
      "dutyStart": "2026-02-18T08:30:00.000Z",
      "dutyEnd": "2026-02-19T08:30:00.000Z"
    },
    {
      "id": "ankara-20",
      "name": "GÖKÇE ECZANESİ",
      "address": "Camiatik Mah. Hekim Şaban Şifai Cad. No:3 Ayaş / ANKARA , 03127121159",
      "phone": "03127121159",
      "district": "Ayaş",
      "city": "Ankara",
      "latitude": 40.012890779526,
      "longitude": 32.331390380859,
      "dutyStart": "2026-02-18T08:30:00.000Z",
      "dutyEnd": "2026-02-19T08:30:00.000Z"
    },
    {
      "id": "ankara-21",
      "name": "SİNCAN SAĞLIK ECZANESİ",
      "address": "Osmanlı Mah.Ahi Mesut Bulvarı (Eski12. Cad.) No:165/A Sincan / ANKARA , 12.Cad.Kadın Doğ.Çoc.Acil Kapı Yanı 03122645111",
      "phone": "03122645111",
      "district": "Sincan",
      "city": "Ankara",
      "latitude": 39.949794531719,
      "longitude": 32.585599422455,
      "dutyStart": "2026-02-18T08:30:00.000Z",
      "dutyEnd": "2026-02-19T08:30:00.000Z"
    },
    {
      "id": "ankara-22",
      "name": "YALÇIN ECZANESİ",
      "address": "Atatürk Mah. Ankara Cad. No:39/A Sincan / ANKARA , Mavi jeans Mağazası yanı 03122690688",
      "phone": "03122690688",
      "district": "Sincan",
      "city": "Ankara",
      "latitude": 39.960888893851,
      "longitude": 32.583668231964,
      "dutyStart": "2026-02-18T08:30:00.000Z",
      "dutyEnd": "2026-02-19T08:30:00.000Z"
    },
    {
      "id": "ankara-23",
      "name": "GONCA CAN ECZANESİ",
      "address": "Gökçek Mah. 267.Sok. C Blok No:15/37 Fatih/Sincan/ ANKARA , Törekent Metro son durak yanı 03122671735",
      "phone": "03122671735",
      "district": "Sincan",
      "city": "Ankara",
      "latitude": 39.98708282485,
      "longitude": 32.559687942266,
      "dutyStart": "2026-02-18T08:30:00.000Z",
      "dutyEnd": "2026-02-19T08:30:00.000Z"
    },
    {
      "id": "ankara-24",
      "name": "İREM AŞIK ECZANESİ",
      "address": "Yıldırım Mah. Kavaklıdere Cad. No:80/C Akyurt/ANKARA , Tekin Gross Market arkası-3 Nolu ASM karşısı 05078799309",
      "phone": "05078799309",
      "district": "Akyurt",
      "city": "Ankara",
      "latitude": 40.126323305849,
      "longitude": 33.075319826603,
      "dutyStart": "2026-02-18T08:30:00.000Z",
      "dutyEnd": "2026-02-19T08:30:00.000Z"
    },
    {
      "id": "ankara-25",
      "name": "YENİ EVREN ECZANESİ",
      "address": "Ayvaşık Mah. Dr.Hamdi Sosyal Sok. No:2/13 Beypazarı/ANKARA , Hastane karşısı 03127625335",
      "phone": "03127625335",
      "district": "Beypazarı",
      "city": "Ankara",
      "latitude": 40.174676220563,
      "longitude": 31.920776367188,
      "dutyStart": "2026-02-18T08:30:00.000Z",
      "dutyEnd": "2026-02-19T08:30:00.000Z"
    },
    {
      "id": "ankara-26",
      "name": "TURKUAZ ECZANESİ",
      "address": "Atakent Mah. Şehit Celal İşen Sok. No:56/B Elvankent/Etimesgut/ANKARA , Banka Blok.Girişi,dubleksler kar.BİM yanı 03122616374",
      "phone": "03122616374",
      "district": "Etimesgut",
      "city": "Ankara",
      "latitude": 39.95637405928,
      "longitude": 32.61172413826,
      "dutyStart": "2026-02-18T08:30:00.000Z",
      "dutyEnd": "2026-02-19T08:30:00.000Z"
    },
    {
      "id": "ankara-27",
      "name": "AKIN ECZANESİ",
      "address": "İstasyon Mh. Huzur Dudayev Sk. No:5/8-B Etimesgut/Ankara , Dumlupınar iöo karşısı 03122441001",
      "phone": "03122441001",
      "district": "Etimesgut",
      "city": "Ankara",
      "latitude": 39.93752202192,
      "longitude": 32.657514810562,
      "dutyStart": "2026-02-18T08:30:00.000Z",
      "dutyEnd": "2026-02-19T08:30:00.000Z"
    },
    {
      "id": "ankara-28",
      "name": "BAĞLICA NEHİR ECZANESİ",
      "address": "Bağlıca Mah. 1232. Sok.No:2/F Bağlıca/ Etimesgut/ ANKARA , 3. Noter Yanı 3 Nolu ASM ust sokağı 03125116335",
      "phone": "03125116335",
      "district": "Etimesgut",
      "city": "Ankara",
      "latitude": 39.896642687407,
      "longitude": 32.648109644651,
      "dutyStart": "2026-02-18T08:30:00.000Z",
      "dutyEnd": "2026-02-19T08:30:00.000Z"
    },
    {
      "id": "ankara-29",
      "name": "VİTA GÖKSU ECZANESİ",
      "address": "Göksu Mah. 2.İnönü Cad. Arissa Göksu Sitesi A Blok No 6 Eryaman/ Etimesgut/ ANKARA , 03125043636",
      "phone": "03125043636",
      "district": "Etimesgut",
      "city": "Ankara",
      "latitude": 39.998566673724,
      "longitude": 32.644017934799,
      "dutyStart": "2026-02-18T08:30:00.000Z",
      "dutyEnd": "2026-02-19T08:30:00.000Z"
    },
    {
      "id": "ankara-30",
      "name": "SAĞLIK ECZANESİ",
      "address": "Yeni Mah. Koopratif Evleri Sokak No:13/A Haymana/ ANKARA , Kültür Merkezi Karşısı-ASM yanı 03126582267",
      "phone": "03126582267",
      "district": "Haymana",
      "city": "Ankara",
      "latitude": 39.43555081365,
      "longitude": 32.495874166489,
      "dutyStart": "2026-02-18T08:30:00.000Z",
      "dutyEnd": "2026-02-19T08:30:00.000Z"
    },
    {
      "id": "ankara-31",
      "name": "GÖKSUN ECZANESİ",
      "address": "Atatürk Mah. Osmanlı Caddesi No:78/A Kahramankazan/ ANKARA (Tel.03128141600) , Yeni Devlet Hastanesi Karşısı 03128141600",
      "phone": "03128141600",
      "district": "Kahramankazan",
      "city": "Ankara",
      "latitude": 40.19842900324,
      "longitude": 32.674015760422,
      "dutyStart": "2026-02-18T08:30:00.000Z",
      "dutyEnd": "2026-02-19T08:30:00.000Z"
    },
    {
      "id": "ankara-32",
      "name": "ALP ECZANESİ",
      "address": "Akçay Mah. Cengiz Topel Cad. No:45/C Kızılcahamam/ ANKARA , 03127366470",
      "phone": "03127366470",
      "district": "Kızılcahamam",
      "city": "Ankara",
      "latitude": 40.474008674138,
      "longitude": 32.650022513931,
      "dutyStart": "2026-02-18T08:30:00.000Z",
      "dutyEnd": "2026-02-19T08:30:00.000Z"
    },
    {
      "id": "ankara-33",
      "name": "ZEYNEP ULUCAN ECZANESİ",
      "address": "Karşıyaka Mah. Cumhuriyet Cad. No:3 Lalahan/ ANKARA (Sağlık Ocağı yanı) , “ÖZEL NÖBET BÖLGESİ. LÜTFEN ECZANEYİ TELEFON İLE ARAYİNİZ.\" 05010793360",
      "phone": "05010793360",
      "district": "Lalahan",
      "city": "Ankara",
      "latitude": 39.964030187577,
      "longitude": 33.107439279556,
      "dutyStart": "2026-02-18T08:30:00.000Z",
      "dutyEnd": "2026-02-19T08:30:00.000Z"
    },
    {
      "id": "ankara-34",
      "name": "NALLIHAN ECZANESİ",
      "address": "Aliağa Mah. Bursa Cad. No:36 Nallıhan / ANKARA , 03127851707",
      "phone": "03127851707",
      "district": "Nallıhan",
      "city": "Ankara",
      "latitude": 0,
      "longitude": 0,
      "dutyStart": "2026-02-18T08:30:00.000Z",
      "dutyEnd": "2026-02-19T08:30:00.000Z"
    },
    {
      "id": "ankara-35",
      "name": "EYLÜL ECZANESİ",
      "address": "Cumhuriyet Mah. Necatibey Cad. No:63/D Polatlı/ ANKARA , Aras Kargo üst-Koçak Hamamı yanı 03126236264",
      "phone": "03126236264",
      "district": "Polatlı",
      "city": "Ankara",
      "latitude": 39.583728051805,
      "longitude": 32.146747112274,
      "dutyStart": "2026-02-18T08:30:00.000Z",
      "dutyEnd": "2026-02-19T08:30:00.000Z"
    },
    {
      "id": "ankara-36",
      "name": "EREN ERDAL ECZANESİ",
      "address": "Atatürk Cad. Saygın Sok. No:1/A Pursaklar/ANKARA , Cumartesi pazarı karşısı 03125271392",
      "phone": "03125271392",
      "district": "Pursaklar",
      "city": "Ankara",
      "latitude": 40.034862124799,
      "longitude": 32.900261128088,
      "dutyStart": "2026-02-18T08:30:00.000Z",
      "dutyEnd": "2026-02-19T08:30:00.000Z"
    },
    {
      "id": "ankara-37",
      "name": "SEYMEN ECZANESİ",
      "address": "Yenişehir Mah. Dr. Melike Sargın Sok. No:1/B Yahşihan/ KIRIKKALE , Starbucks Coffee-Diş Hekimliği Karşısı 03185023131",
      "phone": "03185023131",
      "district": "Ankara",
      "city": "Ankara",
      "latitude": 39.870072394501,
      "longitude": 33.455055579543,
      "dutyStart": "2026-02-18T08:30:00.000Z",
      "dutyEnd": "2026-02-19T08:30:00.000Z"
    },
    {
      "id": "ankara-38",
      "name": "KOÇYİĞİT ECZANESİ",
      "address": "Yeni Mah.İsmet Paşa Cad.No:44/A Şereflikoçhisar/ANKARA , As Kebap Yanı 03126871186",
      "phone": "03126871186",
      "district": "Şereflikoçhisar",
      "city": "Ankara",
      "latitude": 0,
      "longitude": 0,
      "dutyStart": "2026-02-18T08:30:00.000Z",
      "dutyEnd": "2026-02-19T08:30:00.000Z"
    },
    {
      "id": "ankara-39",
      "name": "METİN ECZANESİ",
      "address": "Kurtuluş Mah.İnönü Cad.No:1/C Karakeçili/ KIRIKKALE , 03184743033",
      "phone": "03184743033",
      "district": "Ankara",
      "city": "Ankara",
      "latitude": 39.598744363923,
      "longitude": 33.379865884781,
      "dutyStart": "2026-02-18T08:30:00.000Z",
      "dutyEnd": "2026-02-19T08:30:00.000Z"
    },
    {
      "id": "ankara-40",
      "name": "YENİ AYŞEM ECZANESİ",
      "address": "Halit Cevri Aslangil Mah.20. Sok.No:14/C Kalecik/ANKARA , 03128570859",
      "phone": "03128570859",
      "district": "Kalecik",
      "city": "Ankara",
      "latitude": 40.097114480436,
      "longitude": 33.408908843994,
      "dutyStart": "2026-02-18T08:30:00.000Z",
      "dutyEnd": "2026-02-19T08:30:00.000Z"
    },
    {
      "id": "ankara-41",
      "name": "DİRİLİŞ ECZANESİ",
      "address": "Bahçelievler Mah.Cemal Gürsel Cad. No:56/A Gölbaşı/ANKARA , İnönü İlkokulu'nu geçince-Örencik Yolu üzeri 03124850016",
      "phone": "03124850016",
      "district": "Gölbaşı",
      "city": "Ankara",
      "latitude": 39.789602101375,
      "longitude": 32.812699377537,
      "dutyStart": "2026-02-18T08:30:00.000Z",
      "dutyEnd": "2026-02-19T08:30:00.000Z"
    },
    {
      "id": "ankara-42",
      "name": "KIRIKKALE ECZANESİ",
      "address": "Tepebaşı Mah. Rauf Denktaş Bulvarı No:50/B Merkez/ KIRIKKALE , Hanımeller İlköğretim Okulu altı-Çarşamba Pazarı mevki 03183332211",
      "phone": "03183332211",
      "district": "Ankara",
      "city": "Ankara",
      "latitude": 39.846149401422,
      "longitude": 33.507984280586,
      "dutyStart": "2026-02-18T08:30:00.000Z",
      "dutyEnd": "2026-02-19T08:30:00.000Z"
    },
    {
      "id": "ankara-43",
      "name": "CEYHAN ECZANESİ",
      "address": "Kaletepe Mah. 1050. Sokak No:34A Merkez/ KIRIKKALE , Verem Sağlık yakını 03185022010",
      "phone": "03185022010",
      "district": "Ankara",
      "city": "Ankara",
      "latitude": 39.860145127909,
      "longitude": 33.509840369225,
      "dutyStart": "2026-02-18T08:30:00.000Z",
      "dutyEnd": "2026-02-19T08:30:00.000Z"
    },
    {
      "id": "ankara-44",
      "name": "EGE SENA ECZANESİ",
      "address": "Ümit Mah. Meksika Cad. 39/A Ümitköy/ Çankaya/ ANKARA , Gordion AVM yakını 03122359811",
      "phone": "03122359811",
      "district": "Çankaya",
      "city": "Ankara",
      "latitude": 39.902547284661,
      "longitude": 32.701470851898,
      "dutyStart": "2026-02-18T08:30:00.000Z",
      "dutyEnd": "2026-02-19T08:30:00.000Z"
    },
    {
      "id": "ankara-45",
      "name": "ANGORA ÇARŞI ECZANESİ",
      "address": "Yaşamkent-Yapracık Mah. 3285 Cadde No:3/8 (Etimesgut ) ANKARA Çankaya/ANKARA , Yaşamkent Sultan Alparslan 1071Cami Kar 03129998874",
      "phone": "03129998874",
      "district": "Çankaya",
      "city": "Ankara",
      "latitude": 39.857021715288,
      "longitude": 32.633482217789,
      "dutyStart": "2026-02-18T08:30:00.000Z",
      "dutyEnd": "2026-02-19T08:30:00.000Z"
    },
    {
      "id": "ankara-46",
      "name": "YELDA ECZANESİ",
      "address": "Yıldırım Beyazıt Mah. Ankara Bulvarı No:3/A-B Çubuk / ANKARA , 03128386238",
      "phone": "03128386238",
      "district": "Çubuk",
      "city": "Ankara",
      "latitude": 40.238276950338,
      "longitude": 33.032999932766,
      "dutyStart": "2026-02-18T08:30:00.000Z",
      "dutyEnd": "2026-02-19T08:30:00.000Z"
    },
    {
      "id": "ankara-47",
      "name": "DELİCE ECZANESİ",
      "address": "Cumhuriyet Mah. Atatürk Bulvarı No:6/C Delice/ KIRIKKALE , 03186185609",
      "phone": "03186185609",
      "district": "Ankara",
      "city": "Ankara",
      "latitude": 0,
      "longitude": 0,
      "dutyStart": "2026-02-18T08:30:00.000Z",
      "dutyEnd": "2026-02-19T08:30:00.000Z"
    },
    {
      "id": "ankara-48",
      "name": "ARINMIŞ ECZANESİ",
      "address": "Yukarı Mah. Leblebici Sok.No:19 Güdül/ ANKARA , 05301178589",
      "phone": "05301178589",
      "district": "Güdül",
      "city": "Ankara",
      "latitude": 40.210531690119,
      "longitude": 32.242609262466,
      "dutyStart": "2026-02-18T08:30:00.000Z",
      "dutyEnd": "2026-02-19T08:30:00.000Z"
    },
    {
      "id": "ankara-49",
      "name": "BALA MERKEZ ECZANESİ",
      "address": "Şentepe Mah.Atatürk Bulvarı No:86/C Bala/ ANKARA , 03128761023",
      "phone": "03128761023",
      "district": "Bala",
      "city": "Ankara",
      "latitude": 39.558588858532,
      "longitude": 33.118286132812,
      "dutyStart": "2026-02-18T08:30:00.000Z",
      "dutyEnd": "2026-02-19T08:30:00.000Z"
    },
    {
      "id": "ankara-50",
      "name": "YILMAZ ECZANESİ",
      "address": "Menderes Bulvarı Sağlık 1. Sok. No:2 Hasanoğlan /Elmadağ/ ANKARA (2.Tel:3128661233) , 03128663771",
      "phone": "03128663771",
      "district": "Elmadağ",
      "city": "Ankara",
      "latitude": 39.998689957679,
      "longitude": 33.180084228516,
      "dutyStart": "2026-02-18T08:30:00.000Z",
      "dutyEnd": "2026-02-19T08:30:00.000Z"
    },
    {
      "id": "ankara-51",
      "name": "MERT ECZANESİ",
      "address": "Bozkurt Mh.Hastane Sok. No:6 Keskin/KIRIKKALE , 03185154760",
      "phone": "03185154760",
      "district": "Ankara",
      "city": "Ankara",
      "latitude": 39.6732795543,
      "longitude": 33.611265420914,
      "dutyStart": "2026-02-18T08:30:00.000Z",
      "dutyEnd": "2026-02-19T08:30:00.000Z"
    },
    {
      "id": "ankara-52",
      "name": "VERESELİ TEMELLİ ECZANESİ",
      "address": "TEMELLİ-İstiklal Mah. Hürriyet Cad. No:30/B Temelli/Sincan/ANKARA , 03126451163",
      "phone": "03126451163",
      "district": "Sincan",
      "city": "Ankara",
      "latitude": 39.726069000019,
      "longitude": 32.353835105896,
      "dutyStart": "2026-02-18T08:30:00.000Z",
      "dutyEnd": "2026-02-19T08:30:00.000Z"
    },
    {
      "id": "ankara-53",
      "name": "FEYZA ECZANESİ",
      "address": "BALIŞEYH _Yeni Mahalle Samsun Cad. No:21/A Balışeyh / KIRIKKALE (Tel:05060258662) , PTT ve Belediye yanı, Merkez 03187137277",
      "phone": "03187137277",
      "district": "Ankara",
      "city": "Ankara",
      "latitude": 39.909849391713,
      "longitude": 33.717153034522,
      "dutyStart": "2026-02-18T08:30:00.000Z",
      "dutyEnd": "2026-02-19T08:30:00.000Z"
    },
    {
      "id": "ankara-54",
      "name": "ESRA ECZANESİ",
      "address": "Gümüşpala Mah. Arif Çalış Cad. Altıner Apt. No:41/A Elmadağ/ANKARA , Bim Market Karşısı 03125434194",
      "phone": "03125434194",
      "district": "Elmadağ",
      "city": "Ankara",
      "latitude": 39.922530040577,
      "longitude": 33.231874514531,
      "dutyStart": "2026-02-18T08:30:00.000Z",
      "dutyEnd": "2026-02-19T08:30:00.000Z"
    },
    {
      "id": "ankara-55",
      "name": "BATIKENT METRO ECZANESİ",
      "address": "Kent Koop Mah.1851. Sok. No:2/A Batıkent/Yenimahalle/ANKARA , (GİMSA Karşısı -Batıkent Metro Çıkışı) 03122521659",
      "phone": "03122521659",
      "district": "Yenimahalle",
      "city": "Ankara",
      "latitude": 39.96842117828,
      "longitude": 32.726104259491,
      "dutyStart": "2026-02-18T08:30:00.000Z",
      "dutyEnd": "2026-02-19T08:30:00.000Z"
    },
    {
      "id": "ankara-56",
      "name": "FUNDA İPEK ECZANESİ",
      "address": "Turgut Özal Mah. 2222. Cad. No:22/B Yenimahalle , Şeh.Sercan Öztürk Anadolu Lisesi Kar. 03126663129",
      "phone": "03126663129",
      "district": "Ankara",
      "city": "Ankara",
      "latitude": 39.995719,
      "longitude": 32.697142,
      "dutyStart": "2026-02-18T08:30:00.000Z",
      "dutyEnd": "2026-02-19T08:30:00.000Z"
    },
    {
      "id": "ankara-57",
      "name": "Nöbetçi Eczane Bulunamadı",
      "address": "Aradığınız kriterlere uygun nöbetçi eczane bulunamadı. Lütfen farklı bir arama deneyin.",
      "phone": "",
      "district": "Ankara",
      "city": "Ankara",
      "latitude": 0,
      "longitude": 0,
      "dutyStart": "2026-02-18T08:30:00.000Z",
      "dutyEnd": "2026-02-19T08:30:00.000Z"
    }
  ]
}