{
  "city": "antalya",
  "cityName": "Antalya",
  "cityId": 7,
  "date": "2026-02-18",
  "updatedAt": "2026-02-18T01:30:38.575Z",
  "count": 40,
  "pharmacies": [
    {
      "id": "antalya-0",
      "name": "KIYMET ECZANESİ",
      "address": "",
      "phone": "02422382238",
      "district": "Muratpaşa",
      "city": "Antalya",
      "latitude": 36.8968642337,
      "longitude": 30.6726363988,
      "dutyStart": "2026-02-18T08:00:00.000Z",
      "dutyEnd": "2026-02-19T08:00:00.000Z"
    },
    {
      "id": "antalya-1",
      "name": "GÜLİN ECZANESİ",
      "address": "EGITIM ARASTIRMA HAST.KUZEYI BAYINDIR MAH.ANTALYA KOLEJI JANDARMA YOLU ÜZERI",
      "phone": "02422441415",
      "district": "Antalya",
      "city": "Antalya",
      "latitude": 36.88890144839503,
      "longitude": 30.685831010341644,
      "dutyStart": "2026-02-18T08:00:00.000Z",
      "dutyEnd": "2026-02-19T08:00:00.000Z"
    },
    {
      "id": "antalya-2",
      "name": "YENİ IŞIK ECZANESİ",
      "address": "YÜZÜNCÜYIL CAD. ERA GÖZ HASTANESİ YANI VARLIK MAH. 172. SOK. NO:15/A-B MURATPAŞA",
      "phone": "02422416364",
      "district": "Antalya",
      "city": "Antalya",
      "latitude": 36.9012468144,
      "longitude": 30.6987883937,
      "dutyStart": "2026-02-18T08:00:00.000Z",
      "dutyEnd": "2026-02-19T08:00:00.000Z"
    },
    {
      "id": "antalya-3",
      "name": "EMEL ECZANESİ",
      "address": "CUMHURIYET MAH.640 SK.OPERA YASAM HASTANESI YANI",
      "phone": "02423217377",
      "district": "Antalya",
      "city": "Antalya",
      "latitude": 36.88796246967651,
      "longitude": 30.72420546214234,
      "dutyStart": "2026-02-18T08:00:00.000Z",
      "dutyEnd": "2026-02-19T08:00:00.000Z"
    },
    {
      "id": "antalya-4",
      "name": "YAŞAM PARK ECZANESİ",
      "address": "KIZILTOPRAK MAH. ALİ ÇETİNKAYA CAD.ALİ ÇAVUŞ APT.147 E/F MURATPAŞA (KIZILTOPRAK PTT YANI)",
      "phone": "02422425040",
      "district": "Antalya",
      "city": "Antalya",
      "latitude": 36.872557311900465,
      "longitude": 30.73184162378311,
      "dutyStart": "2026-02-18T08:00:00.000Z",
      "dutyEnd": "2026-02-19T08:00:00.000Z"
    },
    {
      "id": "antalya-5",
      "name": "ÖZGÜR ECZANESİ",
      "address": "KIRCAMİ MAH.AVNİ TOLUNAY CAD.(AKDENİZ DONDURMA KARŞISI )",
      "phone": "02423447190",
      "district": "Antalya",
      "city": "Antalya",
      "latitude": 36.8563182175,
      "longitude": 30.7463975964,
      "dutyStart": "2026-02-18T08:00:00.000Z",
      "dutyEnd": "2026-02-19T08:00:00.000Z"
    },
    {
      "id": "antalya-6",
      "name": "ARI ECZANESİ",
      "address": "SIRINYALI MAH. TEKELIOGLU CAD. IZCI APT. NO:20/1 MEDICALPARK HASTANESI KARSISI",
      "phone": "02423496836",
      "district": "Antalya",
      "city": "Antalya",
      "latitude": 36.85836148947905,
      "longitude": 30.791036974517738,
      "dutyStart": "2026-02-18T08:00:00.000Z",
      "dutyEnd": "2026-02-19T08:00:00.000Z"
    },
    {
      "id": "antalya-7",
      "name": "TOPKAYA ECZANESİ",
      "address": "GÜZELOABA MAH.BARINAKLAR BUL.ARIKAN APT.NO:168/B MURATPAŞA.GÜZELOBA CAMİ VE POSTANE KARŞISI.",
      "phone": "02423467281",
      "district": "Kepez",
      "city": "Antalya",
      "latitude": 36.9083241621,
      "longitude": 30.6839152722,
      "dutyStart": "2026-02-18T08:00:00.000Z",
      "dutyEnd": "2026-02-19T08:00:00.000Z"
    },
    {
      "id": "antalya-8",
      "name": "AKYILDIZ ECZANESİ",
      "address": "ÇALLI KAVSAGI DOKUMA YÖNÜ YAPIKREDI BANKASI ARKASI 14 NOLU SAGLIK OCAGI YANI",
      "phone": "02423420008",
      "district": "Antalya",
      "city": "Antalya",
      "latitude": 36.920021,
      "longitude": 30.786093,
      "dutyStart": "2026-02-18T08:00:00.000Z",
      "dutyEnd": "2026-02-19T08:00:00.000Z"
    },
    {
      "id": "antalya-9",
      "name": "KARAMANLI UĞUREL ECZANESİ",
      "address": "DEEPO - MALL OF ANTALYA AVM İÇİ HAVAALANI YOLU ÜZERİ",
      "phone": "02422382383",
      "district": "Antalya",
      "city": "Antalya",
      "latitude": 36.93500090962403,
      "longitude": 30.681294799793815,
      "dutyStart": "2026-02-18T08:00:00.000Z",
      "dutyEnd": "2026-02-19T08:00:00.000Z"
    },
    {
      "id": "antalya-10",
      "name": "CEVHER ECZANESİ",
      "address": "MASADAĞI BARIŞ MANÇO BULVARI NO: 166 SEYİR TERASINDAN 300METRE İÇERİDE",
      "phone": "02423399276",
      "district": "Antalya",
      "city": "Antalya",
      "latitude": 36.93361645804857,
      "longitude": 30.725801289081573,
      "dutyStart": "2026-02-18T08:00:00.000Z",
      "dutyEnd": "2026-02-19T08:00:00.000Z"
    },
    {
      "id": "antalya-11",
      "name": "NİLGÜN ECZANESİ",
      "address": "HÜSNÜ KARAKAŞ MAH. GÜNEŞ CAD. NO:126/F KEPEZ DEVLET HASTANESİ YANI",
      "phone": "02422272777",
      "district": "Antalya",
      "city": "Antalya",
      "latitude": 36.90863615642446,
      "longitude": 30.65588211540103,
      "dutyStart": "2026-02-18T08:00:00.000Z",
      "dutyEnd": "2026-02-19T08:00:00.000Z"
    },
    {
      "id": "antalya-12",
      "name": "ATILGAN ECZANESİ",
      "address": "AHATLI MAH.ULUSOY CAD.NO:46/B KEPEZ.AHATLI PTT YAKINI",
      "phone": "02422594011",
      "district": "Antalya",
      "city": "Antalya",
      "latitude": 36.85345,
      "longitude": 30.613583,
      "dutyStart": "2026-02-18T08:00:00.000Z",
      "dutyEnd": "2026-02-19T08:00:00.000Z"
    },
    {
      "id": "antalya-13",
      "name": "BADE ECZANESİ",
      "address": "LIMAN MAH.BOGAÇAYI CAD.32.SOK. YALÇIN APT. NO: 14/C KONYAALTI",
      "phone": "02429994144",
      "district": "Antalya",
      "city": "Antalya",
      "latitude": 36.884247334246474,
      "longitude": 30.6421255703126,
      "dutyStart": "2026-02-18T08:00:00.000Z",
      "dutyEnd": "2026-02-19T08:00:00.000Z"
    },
    {
      "id": "antalya-14",
      "name": "DİLBER ECZANESİ",
      "address": "TOROS MAH. 836 SOK. ÇETİN APT. NO:7/1 KONYAALTI",
      "phone": "02424212145",
      "district": "Antalya",
      "city": "Antalya",
      "latitude": 37.0250566052,
      "longitude": 30.6012073266,
      "dutyStart": "2026-02-18T08:00:00.000Z",
      "dutyEnd": "2026-02-19T08:00:00.000Z"
    },
    {
      "id": "antalya-15",
      "name": "NOVA ECZANESİ",
      "address": "YENIKÖY MH.ATATÜRK CD.NO:468 DÖSEMEALTI",
      "phone": "05535677850",
      "district": "Aksu",
      "city": "Antalya",
      "latitude": 36.903953,
      "longitude": 30.817999,
      "dutyStart": "2026-02-18T08:00:00.000Z",
      "dutyEnd": "2026-02-19T08:00:00.000Z"
    },
    {
      "id": "antalya-16",
      "name": "AYYÜCE ECZANESİ",
      "address": "ALTINTAŞ MAH. KARA ASLAN CAD. 1B AKSU",
      "phone": "02425111561",
      "district": "Alanya",
      "city": "Antalya",
      "latitude": 36.5469069824,
      "longitude": 31.9938537966,
      "dutyStart": "2026-02-18T08:00:00.000Z",
      "dutyEnd": "2026-02-19T08:00:00.000Z"
    },
    {
      "id": "antalya-17",
      "name": "TURUNÇ ECZANESİ",
      "address": "SARAY MAH. BAŞKENT HASTANESİ YANI NO:13 ALANYA",
      "phone": "02425220577",
      "district": "Antalya",
      "city": "Antalya",
      "latitude": 36.5551163655,
      "longitude": 31.9904135367,
      "dutyStart": "2026-02-18T08:00:00.000Z",
      "dutyEnd": "2026-02-19T08:00:00.000Z"
    },
    {
      "id": "antalya-18",
      "name": "ERENLEROBA ECZANESİ",
      "address": "SARAY MAH. STAD CAD. ÖZEL ANADOLU HASTANESI KARSISI",
      "phone": "02425387068",
      "district": "Antalya",
      "city": "Antalya",
      "latitude": 36.55661928119007,
      "longitude": 32.06441938877106,
      "dutyStart": "2026-02-18T08:00:00.000Z",
      "dutyEnd": "2026-02-19T08:00:00.000Z"
    },
    {
      "id": "antalya-19",
      "name": "AKSOY ECZANESİ",
      "address": "OBA MAH.ÇARŞAMBA CAD. HÜSEYİN ÇETİN APT.NO:134/A ALANYA",
      "phone": "02425286873",
      "district": "Antalya",
      "city": "Antalya",
      "latitude": 36.48438279736997,
      "longitude": 32.10038244724274,
      "dutyStart": "2026-02-18T08:00:00.000Z",
      "dutyEnd": "2026-02-19T08:00:00.000Z"
    },
    {
      "id": "antalya-20",
      "name": "MERCAN ECZANESİ",
      "address": "BARBAROS CAD. MUSTAFA ŞAHİN PARK KARŞISI MİGROS MARKET DOĞUSU NO:9/A",
      "phone": "02425653020",
      "district": "Antalya",
      "city": "Antalya",
      "latitude": 36.59183358194083,
      "longitude": 31.86072438955307,
      "dutyStart": "2026-02-18T08:00:00.000Z",
      "dutyEnd": "2026-02-19T08:00:00.000Z"
    },
    {
      "id": "antalya-21",
      "name": "DOĞAY GÜVEN ECZANESİ",
      "address": "TELATIYE MAH. HALYOLU ISTIKLAL CAD. BILA NO KONAKLI/ALANYA",
      "phone": "02427431516",
      "district": "Manavgat",
      "city": "Antalya",
      "latitude": 36.791488710386716,
      "longitude": 31.422676742076874,
      "dutyStart": "2026-02-18T08:00:00.000Z",
      "dutyEnd": "2026-02-19T08:00:00.000Z"
    },
    {
      "id": "antalya-22",
      "name": "ÖZ ECZANESİ",
      "address": "YAŞAM HASTANESİ YANI HİSAR TIP MERKEZİ KARŞISI KAVAKLI",
      "phone": "02427467667",
      "district": "Antalya",
      "city": "Antalya",
      "latitude": 36.79407997895656,
      "longitude": 31.439857092980514,
      "dutyStart": "2026-02-18T08:00:00.000Z",
      "dutyEnd": "2026-02-19T08:00:00.000Z"
    },
    {
      "id": "antalya-23",
      "name": "YAYLA ECZANESİ",
      "address": "MİLLİ EGEMENLİK MAH.HASTANE CADDESİ.9012 SOKAK. NO:77/1A MANAVGAT",
      "phone": "02426432440",
      "district": "Antalya",
      "city": "Antalya",
      "latitude": 37.067646937032464,
      "longitude": 30.199028849601746,
      "dutyStart": "2026-02-18T08:00:00.000Z",
      "dutyEnd": "2026-02-19T08:00:00.000Z"
    },
    {
      "id": "antalya-24",
      "name": "ÜMİT ECZANESİ",
      "address": "KIREMITLI MH. BURDUR CD. 2/18",
      "phone": "02426185115",
      "district": "Antalya",
      "city": "Antalya",
      "latitude": 36.736090532086024,
      "longitude": 29.92012208862434,
      "dutyStart": "2026-02-18T08:00:00.000Z",
      "dutyEnd": "2026-02-19T08:00:00.000Z"
    },
    {
      "id": "antalya-25",
      "name": "HAYAT ECZANESİ",
      "address": "YENI MAH. HASTANE KARSISI NO.124/A DEMIREL BULV.",
      "phone": "02428364094",
      "district": "Kaş",
      "city": "Antalya",
      "latitude": 36.20170474081099,
      "longitude": 29.638798534870148,
      "dutyStart": "2026-02-18T08:00:00.000Z",
      "dutyEnd": "2026-02-19T08:00:00.000Z"
    },
    {
      "id": "antalya-26",
      "name": "DOĞA ECZANESİ",
      "address": "MERKEZ MH.ÇUKUKURBAGLILAR CD.YILMAZLAR APT. 54/A",
      "phone": "02428441138",
      "district": "Antalya",
      "city": "Antalya",
      "latitude": 36.2666521677,
      "longitude": 29.4135029171,
      "dutyStart": "2026-02-18T08:00:00.000Z",
      "dutyEnd": "2026-02-19T08:00:00.000Z"
    },
    {
      "id": "antalya-27",
      "name": "OVA ECZANESİ",
      "address": "MENTESE MH. SEHITLER CD. NO:35 KALKAN",
      "phone": "02428418389",
      "district": "Antalya",
      "city": "Antalya",
      "latitude": 36.306457189630535,
      "longitude": 29.329155504968874,
      "dutyStart": "2026-02-18T08:00:00.000Z",
      "dutyEnd": "2026-02-19T08:00:00.000Z"
    },
    {
      "id": "antalya-28",
      "name": "ÖNCÜL ECZANESİ",
      "address": "OVA MAH.KAŞ",
      "phone": "02428716142",
      "district": "Antalya",
      "city": "Antalya",
      "latitude": 36.2463655371,
      "longitude": 29.9872209399,
      "dutyStart": "2026-02-18T08:00:00.000Z",
      "dutyEnd": "2026-02-19T08:00:00.000Z"
    },
    {
      "id": "antalya-29",
      "name": "HAYAT ECZANESİ",
      "address": "GÖKYAZI MAH. NOEL BABA CAD. NO:23/A DEMRE",
      "phone": "02428553068",
      "district": "Antalya",
      "city": "Antalya",
      "latitude": 36.2979286814,
      "longitude": 30.1444853465,
      "dutyStart": "2026-02-18T08:00:00.000Z",
      "dutyEnd": "2026-02-19T08:00:00.000Z"
    },
    {
      "id": "antalya-30",
      "name": "FİDAN ECZANESİ",
      "address": "ESKI MAH. PTT CADDESI NO:6",
      "phone": "02428525157",
      "district": "Antalya",
      "city": "Antalya",
      "latitude": 36.35141174783701,
      "longitude": 30.131006207535876,
      "dutyStart": "2026-02-18T08:00:00.000Z",
      "dutyEnd": "2026-02-19T08:00:00.000Z"
    },
    {
      "id": "antalya-31",
      "name": "AVCI ECZANESİ",
      "address": "**(GECE SAAT 23.59'A KADAR AÇIK)**",
      "phone": "05530184688",
      "district": "Antalya",
      "city": "Antalya",
      "latitude": 36.33796232592061,
      "longitude": 30.214403496863937,
      "dutyStart": "2026-02-18T08:00:00.000Z",
      "dutyEnd": "2026-02-19T08:00:00.000Z"
    },
    {
      "id": "antalya-32",
      "name": "BARUT ECZANESİ",
      "address": "**(GECE SAAT 23.59'A KADAR AÇIK)**",
      "phone": "02428871677",
      "district": "Kumluca",
      "city": "Antalya",
      "latitude": 36.368060296166426,
      "longitude": 30.284999196971626,
      "dutyStart": "2026-02-18T08:00:00.000Z",
      "dutyEnd": "2026-02-19T08:00:00.000Z"
    },
    {
      "id": "antalya-33",
      "name": "ÇAVUŞOĞLU ECZANESİ",
      "address": "BAGLIK MH. JANDARMA SK.",
      "phone": "02428143101",
      "district": "Kemer",
      "city": "Antalya",
      "latitude": 36.60380855634994,
      "longitude": 30.559273660182953,
      "dutyStart": "2026-02-18T08:00:00.000Z",
      "dutyEnd": "2026-02-19T08:00:00.000Z"
    },
    {
      "id": "antalya-34",
      "name": "OLİMPOS ECZANESİ",
      "address": "YENİ MAH.ATATÜRK CAD.SELAHATTİN ÇARŞISI NO:4/6",
      "phone": "05415720686",
      "district": "Antalya",
      "city": "Antalya",
      "latitude": 36.57406846854682,
      "longitude": 30.579838057414513,
      "dutyStart": "2026-02-18T08:00:00.000Z",
      "dutyEnd": "2026-02-19T08:00:00.000Z"
    },
    {
      "id": "antalya-35",
      "name": "AYŞEGÜL VURAL ECZANESİ",
      "address": "KİRİŞ MAH. SAHİL CAD. NO: 4/A KEMER",
      "phone": "02427220304",
      "district": "Antalya",
      "city": "Antalya",
      "latitude": 36.91667575449197,
      "longitude": 31.10234355108462,
      "dutyStart": "2026-02-18T08:00:00.000Z",
      "dutyEnd": "2026-02-19T08:00:00.000Z"
    },
    {
      "id": "antalya-36",
      "name": "DEVA ECZANESİ",
      "address": "ORTA MAH. ATATÜRK CAD. NO:85/A SERİK.PTT YOLU ÜZERİ.KARDEŞLER MARKET YANI.",
      "phone": "02427151805",
      "district": "Antalya",
      "city": "Antalya",
      "latitude": 36.861955,
      "longitude": 31.058883,
      "dutyStart": "2026-02-18T08:00:00.000Z",
      "dutyEnd": "2026-02-19T08:00:00.000Z"
    },
    {
      "id": "antalya-37",
      "name": "ALİ TUNCER ECZANESİ",
      "address": "*(GECE SAAT 02:00'A KADAR AÇIK)*",
      "phone": "05058210505",
      "district": "Antalya",
      "city": "Antalya",
      "latitude": 36.270656866692306,
      "longitude": 32.31113474063853,
      "dutyStart": "2026-02-18T08:00:00.000Z",
      "dutyEnd": "2026-02-19T08:00:00.000Z"
    },
    {
      "id": "antalya-38",
      "name": "MURTİÇİ ECZANESİ",
      "address": "CUMHURİYET MAH. 11010 SOK. NO:8/A GAZİPAŞA .(GAZİPAŞA YENİ DEVLET HASTAHANESİ YANI , POLİKLİNİK ÇIKIŞ KAPISI ÖNÜ)",
      "phone": "02426781300",
      "district": "Akseki",
      "city": "Antalya",
      "latitude": 37.042264199329665,
      "longitude": 31.786279678344727,
      "dutyStart": "2026-02-18T08:00:00.000Z",
      "dutyEnd": "2026-02-19T08:00:00.000Z"
    },
    {
      "id": "antalya-39",
      "name": "0 242 311 03 29",
      "address": "HACI ILYAS MAH. ATATÜRK CAD. BAGKUR EVLERI I-BLOK NO.58/A",
      "phone": "02423110329",
      "district": "Antalya",
      "city": "Antalya",
      "latitude": 36.876696,
      "longitude": 30.735134,
      "dutyStart": "2026-02-18T08:00:00.000Z",
      "dutyEnd": "2026-02-19T08:00:00.000Z"
    }
  ]
}