{
  "city": "konya",
  "cityName": "Konya",
  "cityId": 42,
  "date": "2026-02-18",
  "updatedAt": "2026-02-18T19:00:52.598Z",
  "count": 32,
  "pharmacies": [
    {
      "id": "konya-0",
      "name": "DOĞUMEVİ ECZANESİ",
      "address": "FERHUNİYE MAHALLESİ BEREKETOĞLU SOKAK İNAN İŞHANI NO:5E SELÇUKLU",
      "phone": "903322354303",
      "district": "Selçuklu",
      "city": "Konya",
      "latitude": 37.878687,
      "longitude": 32.4889634,
      "dutyStart": "2026-02-18T09:00:00.000Z",
      "dutyEnd": "2026-02-19T09:00:00.000Z"
    },
    {
      "id": "konya-1",
      "name": "EYLEM ECZANESİ",
      "address": "SELÇUK MAHALLESİ KAİDE SOKAK 1.GİRİŞ NO:6D SELÇUKLU",
      "phone": "905356267112",
      "district": "Selçuklu",
      "city": "Konya",
      "latitude": 37.88253,
      "longitude": 32.45839,
      "dutyStart": "2026-02-18T09:00:00.000Z",
      "dutyEnd": "2026-02-19T09:00:00.000Z"
    },
    {
      "id": "konya-2",
      "name": "ENİSE ECZANESİ",
      "address": "HOCACİHAN MH. ŞEHİT ALİ DIĞRAK CD. NO:1AA SELÇUKLU",
      "phone": "905514968721",
      "district": "Meram",
      "city": "Konya",
      "latitude": 37.88337,
      "longitude": 32.43186,
      "dutyStart": "2026-02-18T09:00:00.000Z",
      "dutyEnd": "2026-02-19T09:00:00.000Z"
    },
    {
      "id": "konya-3",
      "name": "AYHAN BOZKIR ECZANESİ",
      "address": "AŞKAN MAHALLESİ YENİ MERAM CADDESİ NO:174B MERAM",
      "phone": "903323230076",
      "district": "Meram",
      "city": "Konya",
      "latitude": 37.8622584,
      "longitude": 32.4460012,
      "dutyStart": "2026-02-18T09:00:00.000Z",
      "dutyEnd": "2026-02-19T09:00:00.000Z"
    },
    {
      "id": "konya-4",
      "name": "YAĞMUR ECZANESİ",
      "address": "HASAN DEDE MESCİT MAHALLESİ KASIM ENVARİ SOKAK NO:6A-6B KARATAY",
      "phone": "903323555632",
      "district": "Karatay",
      "city": "Konya",
      "latitude": 37.8880812,
      "longitude": 32.5257107,
      "dutyStart": "2026-02-18T09:00:00.000Z",
      "dutyEnd": "2026-02-19T09:00:00.000Z"
    },
    {
      "id": "konya-5",
      "name": "ŞEHİRLİ ECZANESİ",
      "address": "FERHUNİYE MAHALLESİ MÜNECCİMBAŞI SOKAK NO:10 SELÇUKLU",
      "phone": "903323520663",
      "district": "Meram",
      "city": "Konya",
      "latitude": 37.8741,
      "longitude": 32.48663,
      "dutyStart": "2026-02-18T09:00:00.000Z",
      "dutyEnd": "2026-02-19T09:00:00.000Z"
    },
    {
      "id": "konya-6",
      "name": "ŞÜKRAN ECZANESİ",
      "address": "AKABE MAHALLESİ CEMİL ÇİÇEK CADDESİ 5. GİRİŞ NO:28L KARATAY",
      "phone": "903325016464",
      "district": "Karatay",
      "city": "Konya",
      "latitude": 37.86134,
      "longitude": 32.53025,
      "dutyStart": "2026-02-18T09:00:00.000Z",
      "dutyEnd": "2026-02-19T09:00:00.000Z"
    },
    {
      "id": "konya-7",
      "name": "IHLAMUR ECZANESİ",
      "address": "BEDİR MAH. ÇELEBİ MURAT SOK. NO:12C SELÇUKLU",
      "phone": "905079238310",
      "district": "Selçuklu",
      "city": "Konya",
      "latitude": 37.90446,
      "longitude": 32.48231,
      "dutyStart": "2026-02-18T09:00:00.000Z",
      "dutyEnd": "2026-02-19T09:00:00.000Z"
    },
    {
      "id": "konya-8",
      "name": "BURAKCAN ECZANESİ",
      "address": "ŞEYH ŞAMİL MAHALLESİ EMİNÖNÜ CADDESİ NO:26A SELÇUKLU",
      "phone": "903322519595",
      "district": "Selçuklu",
      "city": "Konya",
      "latitude": 37.9439229,
      "longitude": 32.5003567,
      "dutyStart": "2026-02-18T09:00:00.000Z",
      "dutyEnd": "2026-02-19T09:00:00.000Z"
    },
    {
      "id": "konya-9",
      "name": "ÖZLER ECZANESİ",
      "address": "SELAHADDİN EYYÜBİ MAH. KUTBİLCİHAN CAD. NO:30D SELÇUKLU",
      "phone": "903325011925",
      "district": "Selçuklu",
      "city": "Konya",
      "latitude": 37.9629,
      "longitude": 32.47516,
      "dutyStart": "2026-02-18T09:00:00.000Z",
      "dutyEnd": "2026-02-19T09:00:00.000Z"
    },
    {
      "id": "konya-10",
      "name": "ESEN ECZANESİ",
      "address": "KOSOVA MAHALLESİ ŞERBETCİLER SOKAK NO: 8A SELÇUKLU",
      "phone": "903322611453",
      "district": "Selçuklu",
      "city": "Konya",
      "latitude": 37.9804716,
      "longitude": 32.5214723,
      "dutyStart": "2026-02-18T09:00:00.000Z",
      "dutyEnd": "2026-02-19T09:00:00.000Z"
    },
    {
      "id": "konya-11",
      "name": "AYMİLA ECZANESİ",
      "address": "ÇAYBAŞI MAHALLESİ TAŞCAMİ UZUNHARMANLAR CADDESİ NO:123B MERAM",
      "phone": "903323540056",
      "district": "Karatay",
      "city": "Konya",
      "latitude": 37.8598258,
      "longitude": 32.4927864,
      "dutyStart": "2026-02-18T09:00:00.000Z",
      "dutyEnd": "2026-02-19T09:00:00.000Z"
    },
    {
      "id": "konya-12",
      "name": "KARDELEN ECZANESİ",
      "address": "SEYRAN MAHALLESİ 33219.SOKAK NO:3A",
      "phone": "903328126322",
      "district": "Akşehi̇r",
      "city": "Konya",
      "latitude": 38.3454934,
      "longitude": 31.4434177,
      "dutyStart": "2026-02-18T09:00:00.000Z",
      "dutyEnd": "2026-02-19T09:00:00.000Z"
    },
    {
      "id": "konya-13",
      "name": "DİLEK ECZANESİ",
      "address": "ÖLMEZ MAHALLESİ MİLLET CADDESİ NO:4B",
      "phone": "903326312575",
      "district": "Altineki̇n",
      "city": "Konya",
      "latitude": 38.3072871,
      "longitude": 32.8636853,
      "dutyStart": "2026-02-18T09:00:00.000Z",
      "dutyEnd": "2026-02-19T09:00:00.000Z"
    },
    {
      "id": "konya-14",
      "name": "ÜZMEZ ECZANESİ",
      "address": "EVSAT MAHALLESİ 40615. SOKAK NO:1I",
      "phone": "903325128383",
      "district": "Beyşehi̇r",
      "city": "Konya",
      "latitude": 37.6775981,
      "longitude": 31.7261131,
      "dutyStart": "2026-02-18T09:00:00.000Z",
      "dutyEnd": "2026-02-19T09:00:00.000Z"
    },
    {
      "id": "konya-15",
      "name": "ÜZÜMAĞI ECZANESİ",
      "address": "YUKARI MAHALLE FEVZİ PAŞA CADDESİ NO:24C",
      "phone": "903324262923",
      "district": "Bozkir",
      "city": "Konya",
      "latitude": 37.1893575,
      "longitude": 32.2441003,
      "dutyStart": "2026-02-18T09:00:00.000Z",
      "dutyEnd": "2026-02-19T09:00:00.000Z"
    },
    {
      "id": "konya-16",
      "name": "KÖKER ECZANESİ",
      "address": "ATÇEKEN MAHALLESİ HASTANE CADDESİ NO:54D",
      "phone": "903326731121",
      "district": "Ci̇hanbeyli̇",
      "city": "Konya",
      "latitude": 38.6658383,
      "longitude": 32.9221421,
      "dutyStart": "2026-02-18T09:00:00.000Z",
      "dutyEnd": "2026-02-19T09:00:00.000Z"
    },
    {
      "id": "konya-17",
      "name": "DENİZ ECZANESİ",
      "address": "YENİCEOBA MAHALLESİ YENİCEOBA CADDESİ NO:92A",
      "phone": "903326762827",
      "district": "Ci̇hanbeyli̇",
      "city": "Konya",
      "latitude": 38.87074,
      "longitude": 32.78896,
      "dutyStart": "2026-02-18T09:00:00.000Z",
      "dutyEnd": "2026-02-19T09:00:00.000Z"
    },
    {
      "id": "konya-18",
      "name": "GÜLLECİ ECZANESİ",
      "address": "BAHÇELİEVLER MAHALLESİ 70619.SOKAK NO:6A",
      "phone": "903328712777",
      "district": "Çelti̇k",
      "city": "Konya",
      "latitude": 39.0254425,
      "longitude": 31.7994425,
      "dutyStart": "2026-02-18T09:00:00.000Z",
      "dutyEnd": "2026-02-19T09:00:00.000Z"
    },
    {
      "id": "konya-19",
      "name": "YENİ ÖZKAN ECZANESİ",
      "address": "BAKKALBAŞI MAHALLESİ 73400. SOKAK NO:5C",
      "phone": "903324070010",
      "district": "Çumra",
      "city": "Konya",
      "latitude": 37.571078,
      "longitude": 32.7731269,
      "dutyStart": "2026-02-18T09:00:00.000Z",
      "dutyEnd": "2026-02-19T09:00:00.000Z"
    },
    {
      "id": "konya-20",
      "name": "MERKEZ ECZANESİ",
      "address": "PAZAR MAHALLESİ 85005. SOKAK NO:13A",
      "phone": "903325561780",
      "district": "Doğanhi̇sar",
      "city": "Konya",
      "latitude": 38.1459887,
      "longitude": 31.6765907,
      "dutyStart": "2026-02-18T09:00:00.000Z",
      "dutyEnd": "2026-02-19T09:00:00.000Z"
    },
    {
      "id": "konya-21",
      "name": "DEMİRTAŞ ECZANESİ",
      "address": "CAHI MAHALLESİ ŞEHİT MURAT AKUTAY CADDESİ AKSOY APARTMANI NO:61E",
      "phone": "903327102626",
      "district": "Ereğli̇",
      "city": "Konya",
      "latitude": 37.5226772,
      "longitude": 34.0335433,
      "dutyStart": "2026-02-18T09:00:00.000Z",
      "dutyEnd": "2026-02-19T09:00:00.000Z"
    },
    {
      "id": "konya-22",
      "name": "BİLGE MELEK ŞEN ECZANESİ",
      "address": "TOROS MAHALLESİ ŞEHİT METİN DÜZGÜN CADDESİ NO:10",
      "phone": "903327130022",
      "district": "Ereğli̇",
      "city": "Konya",
      "latitude": 37.47081,
      "longitude": 34.04587,
      "dutyStart": "2026-02-18T09:00:00.000Z",
      "dutyEnd": "2026-02-19T09:00:00.000Z"
    },
    {
      "id": "konya-23",
      "name": "ERGÜL ECZANESİ",
      "address": "BAHÇELİEVLER MAHALLESİ 110214. SOKAK NO:10A",
      "phone": "903325124447",
      "district": "Hüyük",
      "city": "Konya",
      "latitude": 37.9527782,
      "longitude": 31.5979867,
      "dutyStart": "2026-02-18T09:00:00.000Z",
      "dutyEnd": "2026-02-19T09:00:00.000Z"
    },
    {
      "id": "konya-24",
      "name": "ŞİFA ECZANESİ",
      "address": "FATİH MAHALLESİ DR. VEHBİ KÜTÜKÇÜ CADDESİ NO:15A",
      "phone": "903328816710",
      "district": "Ilgin",
      "city": "Konya",
      "latitude": 38.280173,
      "longitude": 31.9080586,
      "dutyStart": "2026-02-18T09:00:00.000Z",
      "dutyEnd": "2026-02-19T09:00:00.000Z"
    },
    {
      "id": "konya-25",
      "name": "MADEN ECZANESİ",
      "address": "DOĞANLAR MAHALLESİ KONYA CADDESİ NO:214D",
      "phone": "903328340876",
      "district": "Kadinhani",
      "city": "Konya",
      "latitude": 38.2400645,
      "longitude": 32.2114458,
      "dutyStart": "2026-02-18T09:00:00.000Z",
      "dutyEnd": "2026-02-19T09:00:00.000Z"
    },
    {
      "id": "konya-26",
      "name": "BERAT ECZANESİ",
      "address": "ALAADDİN MAHALLESİ KONYA CADDESİ BEYLER OBASI A BLOK 67L",
      "phone": "903327553536",
      "district": "Karapinar",
      "city": "Konya",
      "latitude": 37.7138379,
      "longitude": 33.5405791,
      "dutyStart": "2026-02-18T09:00:00.000Z",
      "dutyEnd": "2026-02-19T09:00:00.000Z"
    },
    {
      "id": "konya-27",
      "name": "KARŞIYAKA ECZANESİ",
      "address": "KARŞIYAKA MAHALLESİ YÜZBAŞI VAROL CADDESİ NO:30A",
      "phone": "903326414244",
      "district": "Kulu",
      "city": "Konya",
      "latitude": 39.0957547,
      "longitude": 33.0816437,
      "dutyStart": "2026-02-18T09:00:00.000Z",
      "dutyEnd": "2026-02-19T09:00:00.000Z"
    },
    {
      "id": "konya-28",
      "name": "AYDINLI ECZANESİ",
      "address": "DOĞU İSTASYON MAHALLESİ YALÇIN CADDESİ 2E",
      "phone": "903326172121",
      "district": "Sarayönü",
      "city": "Konya",
      "latitude": 38.2605957,
      "longitude": 32.4059679,
      "dutyStart": "2026-02-18T09:00:00.000Z",
      "dutyEnd": "2026-02-19T09:00:00.000Z"
    },
    {
      "id": "konya-29",
      "name": "YAŞAM ECZANESİ",
      "address": "HACI SEYİT ALİ MAHALLESİ HÜRRİYET CADDESİ NO:23C",
      "phone": "903325823139",
      "district": "Seydi̇şehi̇r",
      "city": "Konya",
      "latitude": 37.4195927,
      "longitude": 31.8462982,
      "dutyStart": "2026-02-18T09:00:00.000Z",
      "dutyEnd": "2026-02-19T09:00:00.000Z"
    },
    {
      "id": "konya-30",
      "name": "ELÇİN ECZANESİ",
      "address": "PAZAR MAHALLESİ AKŞEHİR CADDESİ NO: 43A",
      "phone": "903328612747",
      "district": "Tuzlukçu",
      "city": "Konya",
      "latitude": 38.4756664,
      "longitude": 31.6266898,
      "dutyStart": "2026-02-18T09:00:00.000Z",
      "dutyEnd": "2026-02-19T09:00:00.000Z"
    },
    {
      "id": "konya-31",
      "name": "GÖKPINAR ECZANESİ",
      "address": "FATİH MAHALLESİ AKŞEHİR CADDESİ NO:41",
      "phone": "903328513595",
      "district": "Yunak",
      "city": "Konya",
      "latitude": 38.80589,
      "longitude": 31.73921,
      "dutyStart": "2026-02-18T09:00:00.000Z",
      "dutyEnd": "2026-02-19T09:00:00.000Z"
    }
  ]
}