{
  "city": "antalya",
  "cityName": "Antalya",
  "cityId": 7,
  "date": "2026-02-23",
  "updatedAt": "2026-02-23T15:00:32.073Z",
  "count": 38,
  "pharmacies": [
    {
      "id": "antalya-0",
      "name": "YİĞİT ECZANESİ",
      "address": "",
      "phone": "02422380103",
      "district": "Muratpaşa",
      "city": "Antalya",
      "latitude": 36.8927051023,
      "longitude": 30.6822500024,
      "dutyStart": "2026-02-23T08:00:00.000Z",
      "dutyEnd": "2026-02-24T08:00:00.000Z"
    },
    {
      "id": "antalya-1",
      "name": "ATİLLA ECZANESİ",
      "address": "YILDIZ MH.YILDIZ CAD. FATIH I.Ö.OKULU KÖSESI (EGITIM ARS. HAST.-TRT ISTIKAMETI)",
      "phone": "02423432265",
      "district": "Antalya",
      "city": "Antalya",
      "latitude": 36.89841671627444,
      "longitude": 30.69314398337883,
      "dutyStart": "2026-02-23T08:00:00.000Z",
      "dutyEnd": "2026-02-24T08:00:00.000Z"
    },
    {
      "id": "antalya-2",
      "name": "KIZILTOPRAK ECZANESİ",
      "address": "ÜÇGEN MAH. SOKULLU CAD. NO:8/A TEKELİOĞLU HALK KÜTÜPHANESİ YANI ATATÜRK DEVLET HASTANESİ DOĞUSU MURATPAŞA",
      "phone": "02423110212",
      "district": "Antalya",
      "city": "Antalya",
      "latitude": 36.895034385722354,
      "longitude": 30.72446322373309,
      "dutyStart": "2026-02-23T08:00:00.000Z",
      "dutyEnd": "2026-02-24T08:00:00.000Z"
    },
    {
      "id": "antalya-3",
      "name": "ZEYNEP AKMAN ECZANESİ",
      "address": "KIZILTOPRAK MAH. 997 SOK.NO:22/A MURATPAŞA.DR.ATİLLA NİZAM SEMT POLİKLİNİĞİ KARŞISI.PARK ANTALYA SPOR KOMPLEKSİ ÇAPRAZI.",
      "phone": "02429667494",
      "district": "Antalya",
      "city": "Antalya",
      "latitude": 36.8831631709,
      "longitude": 30.7131721838,
      "dutyStart": "2026-02-23T08:00:00.000Z",
      "dutyEnd": "2026-02-24T08:00:00.000Z"
    },
    {
      "id": "antalya-4",
      "name": "EREL ECZANESİ",
      "address": "SİNAN MAH. CEBESOY CAD.1273 SK.NO:5/C KUMRUCU İSO CİVARI,SOLMAZ CAMİİ YANI.",
      "phone": "02429991870",
      "district": "Antalya",
      "city": "Antalya",
      "latitude": 36.85973762822421,
      "longitude": 30.732220962325368,
      "dutyStart": "2026-02-23T08:00:00.000Z",
      "dutyEnd": "2026-02-24T08:00:00.000Z"
    },
    {
      "id": "antalya-5",
      "name": "BARINAKLAR ECZANESİ",
      "address": "ŞİRİNYALI MAH.İSMET GÖKÇEN CAD.NO:36/2 (MİGROS YANI-DENİZBANK ŞİRİNYALI ŞUBEŞİ BİTİŞİĞİ)MURATPAŞA",
      "phone": "02423237916",
      "district": "Antalya",
      "city": "Antalya",
      "latitude": 36.851803474,
      "longitude": 30.7637131717,
      "dutyStart": "2026-02-23T08:00:00.000Z",
      "dutyEnd": "2026-02-24T08:00:00.000Z"
    },
    {
      "id": "antalya-6",
      "name": "ATLAS ECZANESİ",
      "address": "BARINAKLAR BULV.GÜZELOBA YÖNÜNE TERRA CITY VE BEYAZ DÜNYA ILERISI DENIZBANK KARSISI FENER KAVS. 200 MT ILERISI",
      "phone": "02423494408",
      "district": "Antalya",
      "city": "Antalya",
      "latitude": 36.85924052011356,
      "longitude": 30.793415755033493,
      "dutyStart": "2026-02-23T08:00:00.000Z",
      "dutyEnd": "2026-02-24T08:00:00.000Z"
    },
    {
      "id": "antalya-7",
      "name": "TEZCAN ECZANESİ",
      "address": "GÜZELOBA MH. 2239 SK.LARA ANADOLU HAST.ACİL GİRİŞ YANI CUMA PAZARI KARŞISI",
      "phone": "02423450040",
      "district": "Kepez",
      "city": "Antalya",
      "latitude": 36.9143368027,
      "longitude": 30.6916917055,
      "dutyStart": "2026-02-23T08:00:00.000Z",
      "dutyEnd": "2026-02-24T08:00:00.000Z"
    },
    {
      "id": "antalya-8",
      "name": "BİLGE ECZANESİ",
      "address": "YÜKSELIS MAH.2121 SOKAK OFM HAST.ACIL ÇIKISI KARSISI CUMARTESI PAZARI KARS. DOKUMA",
      "phone": "02423383277",
      "district": "Antalya",
      "city": "Antalya",
      "latitude": 36.91388333,
      "longitude": 30.72058333,
      "dutyStart": "2026-02-23T08:00:00.000Z",
      "dutyEnd": "2026-02-24T08:00:00.000Z"
    },
    {
      "id": "antalya-9",
      "name": "İŞLER ECZANESİ",
      "address": "ÇEVREYOLU GAZI BULVARI SEMA YAZAR POLIKLINIGI YANI NO:327",
      "phone": "02425037181",
      "district": "Antalya",
      "city": "Antalya",
      "latitude": 36.929951,
      "longitude": 30.670401,
      "dutyStart": "2026-02-23T08:00:00.000Z",
      "dutyEnd": "2026-02-24T08:00:00.000Z"
    },
    {
      "id": "antalya-10",
      "name": "ÖZYURT ECZANESİ",
      "address": "ERENKÖY MAH.ŞEHİT ÜSTEĞMEN GÖKHAN KORKUT CAD.NO:46/C KEPEZ 26.NOLU ROTİRİ KULÜBÜ AİLE SAĞLIĞI MERKEZİ KARŞISI.",
      "phone": "02423398378",
      "district": "Antalya",
      "city": "Antalya",
      "latitude": 36.9243944,
      "longitude": 30.7212454,
      "dutyStart": "2026-02-23T08:00:00.000Z",
      "dutyEnd": "2026-02-24T08:00:00.000Z"
    },
    {
      "id": "antalya-11",
      "name": "DEVA ECZANESİ",
      "address": "MEHMET AKİF ERSOY MAH .6752 SOK. NO: 22/B KEPEZ (MEHMET ATAY CAD.)15 KATLI BİNADAN 500 MT BATIDA BİM ARKASI",
      "phone": "02422262928",
      "district": "Antalya",
      "city": "Antalya",
      "latitude": 36.90104732933762,
      "longitude": 30.6613826751709,
      "dutyStart": "2026-02-23T08:00:00.000Z",
      "dutyEnd": "2026-02-24T08:00:00.000Z"
    },
    {
      "id": "antalya-12",
      "name": "GÜNEY ECZANESİ",
      "address": "KÜLTÜR MAH.HÜRRİYET BULV.AKDENİZ ÜNİVERSİTESİ DİŞ HEKİMLİĞİ HAST.KARŞISI-ÇAKIRLAR YOLU ÜZERİ",
      "phone": "02429991322",
      "district": "Antalya",
      "city": "Antalya",
      "latitude": 36.85352291311265,
      "longitude": 30.613405289871015,
      "dutyStart": "2026-02-23T08:00:00.000Z",
      "dutyEnd": "2026-02-24T08:00:00.000Z"
    },
    {
      "id": "antalya-13",
      "name": "ALTINKUM ECZANESİ",
      "address": "LİMAN MAH. BOĞAÇAYI CAD. NO:49/B KONYAALTI (HURMA PTT ÇAPRAZI)",
      "phone": "02422293565",
      "district": "Antalya",
      "city": "Antalya",
      "latitude": 36.874218,
      "longitude": 30.62667,
      "dutyStart": "2026-02-23T08:00:00.000Z",
      "dutyEnd": "2026-02-24T08:00:00.000Z"
    },
    {
      "id": "antalya-14",
      "name": "BAHÇEYAKA ECZANESİ",
      "address": "GAZI MUSTAFA KEMAL BULV. DİLEK APT.NO:2 SPORLAND YANI MIGROS JET KARSISI",
      "phone": "02424212140",
      "district": "Antalya",
      "city": "Antalya",
      "latitude": 37.02078,
      "longitude": 30.596054,
      "dutyStart": "2026-02-23T08:00:00.000Z",
      "dutyEnd": "2026-02-24T08:00:00.000Z"
    },
    {
      "id": "antalya-15",
      "name": "EMİN ECZANESİ",
      "address": "BAHÇEYAKA MAH. KIRKGÖZ CADDESİ. NO:142/9 BAHÇEYAKA ASM YANI DÖŞEMEALTI /ANTALYA",
      "phone": "02424263033",
      "district": "Aksu",
      "city": "Antalya",
      "latitude": 36.948805015311244,
      "longitude": 30.84750920534134,
      "dutyStart": "2026-02-23T08:00:00.000Z",
      "dutyEnd": "2026-02-24T08:00:00.000Z"
    },
    {
      "id": "antalya-16",
      "name": "YÜKSEK ECZANESİ",
      "address": "BARBAROS MH. PERGE CD. NO:10",
      "phone": "02425118900",
      "district": "Alanya",
      "city": "Antalya",
      "latitude": 36.5477193615,
      "longitude": 32.0021294428,
      "dutyStart": "2026-02-23T08:00:00.000Z",
      "dutyEnd": "2026-02-24T08:00:00.000Z"
    },
    {
      "id": "antalya-17",
      "name": "BEYAZ ECZANESİ",
      "address": "SEKERHANE MH. YUNUS GÜCÜOGLU SOK. ÖZEL YASAM HASTANESI KARSISI",
      "phone": "02425154444",
      "district": "Antalya",
      "city": "Antalya",
      "latitude": 36.55807075132057,
      "longitude": 31.998033114684468,
      "dutyStart": "2026-02-23T08:00:00.000Z",
      "dutyEnd": "2026-02-24T08:00:00.000Z"
    },
    {
      "id": "antalya-18",
      "name": "YAZAN ECZANESİ",
      "address": "SUGÖZÜ MAH. 610 CAD. 13/A ALANYA / ANTALYA",
      "phone": "02425387007",
      "district": "Antalya",
      "city": "Antalya",
      "latitude": 36.54074193448757,
      "longitude": 32.0409686208679,
      "dutyStart": "2026-02-23T08:00:00.000Z",
      "dutyEnd": "2026-02-24T08:00:00.000Z"
    },
    {
      "id": "antalya-19",
      "name": "ÇİNTAŞ ECZANESİ",
      "address": "OBA MAH.FİDANLIK CAD.YENİ ALKÜ DEVLET HASTANESİ KARŞISI KAHVELAND YANI NO:19/A ALANYA",
      "phone": "02425040654",
      "district": "Antalya",
      "city": "Antalya",
      "latitude": 36.46570348382514,
      "longitude": 32.119605656264724,
      "dutyStart": "2026-02-23T08:00:00.000Z",
      "dutyEnd": "2026-02-24T08:00:00.000Z"
    },
    {
      "id": "antalya-20",
      "name": "IRMAK ECZANESİ",
      "address": "KARGICAK MAH.GAZİPAŞA CAD. NO:34/C ALANYA (KARGICAK SHELL ARKASI)",
      "phone": "02425652997",
      "district": "Antalya",
      "city": "Antalya",
      "latitude": 36.59083863441877,
      "longitude": 31.862618029117584,
      "dutyStart": "2026-02-23T08:00:00.000Z",
      "dutyEnd": "2026-02-24T08:00:00.000Z"
    },
    {
      "id": "antalya-21",
      "name": "YENİ IRMAK ECZANESİ",
      "address": "TELATIYE MAH. HALYOLU ÜZERI ISTIKLAL CAD. NO:6/D KONAKLI/ALANYA",
      "phone": "02427464604",
      "district": "Manavgat",
      "city": "Antalya",
      "latitude": 36.79113644289796,
      "longitude": 31.42265796661377,
      "dutyStart": "2026-02-23T08:00:00.000Z",
      "dutyEnd": "2026-02-24T08:00:00.000Z"
    },
    {
      "id": "antalya-22",
      "name": "EROL ECZANESİ",
      "address": "MİMAR SİNAN MAH.HASAN FEHMİ BOZTEPE CAD. NO:155/A (YAŞAM HAST. KARŞISI, HİSAR TIP MERKEZİ YANI ) MANAVGAT",
      "phone": "02427460525",
      "district": "Antalya",
      "city": "Antalya",
      "latitude": 36.78450677796381,
      "longitude": 31.462172475155754,
      "dutyStart": "2026-02-23T08:00:00.000Z",
      "dutyEnd": "2026-02-24T08:00:00.000Z"
    },
    {
      "id": "antalya-23",
      "name": "İLKEM VERESELİ ECZANESİ",
      "address": "Yayla mh. Abdi ipekçi cd. No:88/A Barbaros bulvarı üzeri ( Serra market karşısı)",
      "phone": "02426181326",
      "district": "Antalya",
      "city": "Antalya",
      "latitude": 36.7412926163,
      "longitude": 29.9155787751,
      "dutyStart": "2026-02-23T08:00:00.000Z",
      "dutyEnd": "2026-02-24T08:00:00.000Z"
    },
    {
      "id": "antalya-24",
      "name": "DOĞA ECZANESİ",
      "address": "HÜKÜMET CD. NO:65",
      "phone": "02428441138",
      "district": "Kaş",
      "city": "Antalya",
      "latitude": 36.2666521677,
      "longitude": 29.4135029171,
      "dutyStart": "2026-02-23T08:00:00.000Z",
      "dutyEnd": "2026-02-24T08:00:00.000Z"
    },
    {
      "id": "antalya-25",
      "name": "ORKİDE ECZANESİ",
      "address": "MENTESE MH. SEHITLER CD. NO:35 KALKAN",
      "phone": "02428361040",
      "district": "Antalya",
      "city": "Antalya",
      "latitude": 36.200986060992065,
      "longitude": 29.640396034592413,
      "dutyStart": "2026-02-23T08:00:00.000Z",
      "dutyEnd": "2026-02-24T08:00:00.000Z"
    },
    {
      "id": "antalya-26",
      "name": "KAVUKLU (VERESELİ) ECZANESİ",
      "address": "ANDİFLİ MAH.ÇUKURBAĞLILAR MAH.ÇUKURBAĞLILAR SOK.NO:32/C KAŞ",
      "phone": "02428418484",
      "district": "Antalya",
      "city": "Antalya",
      "latitude": 36.31259873766676,
      "longitude": 29.32088024594725,
      "dutyStart": "2026-02-23T08:00:00.000Z",
      "dutyEnd": "2026-02-24T08:00:00.000Z"
    },
    {
      "id": "antalya-27",
      "name": "BETÜL ECZANESİ",
      "address": "OVA MAH. ATATÜRK BUL. NO:4 KAŞ",
      "phone": "02428712020",
      "district": "Antalya",
      "city": "Antalya",
      "latitude": 36.240248160868234,
      "longitude": 29.984957079202598,
      "dutyStart": "2026-02-23T08:00:00.000Z",
      "dutyEnd": "2026-02-24T08:00:00.000Z"
    },
    {
      "id": "antalya-28",
      "name": "HAYAT ECZANESİ",
      "address": "GÖKYAZI MAH.NOEL BABA CAD.NO:34/D DEMRE",
      "phone": "02428553068",
      "district": "Antalya",
      "city": "Antalya",
      "latitude": 36.2979286814,
      "longitude": 30.1444853465,
      "dutyStart": "2026-02-23T08:00:00.000Z",
      "dutyEnd": "2026-02-24T08:00:00.000Z"
    },
    {
      "id": "antalya-29",
      "name": "FİDAN ECZANESİ",
      "address": "ESKI MAH. PTT CADDESI NO:6",
      "phone": "02428525157",
      "district": "Antalya",
      "city": "Antalya",
      "latitude": 36.35141174783701,
      "longitude": 30.131006207535876,
      "dutyStart": "2026-02-23T08:00:00.000Z",
      "dutyEnd": "2026-02-24T08:00:00.000Z"
    },
    {
      "id": "antalya-30",
      "name": "AVCI ECZANESİ",
      "address": "**(GECE SAAT 23.59'A KADAR AÇIK)**",
      "phone": "05530184688",
      "district": "Antalya",
      "city": "Antalya",
      "latitude": 36.33796232592061,
      "longitude": 30.214403496863937,
      "dutyStart": "2026-02-23T08:00:00.000Z",
      "dutyEnd": "2026-02-24T08:00:00.000Z"
    },
    {
      "id": "antalya-31",
      "name": "DARIYEMEZ ECZANESİ",
      "address": "**(GECE SAAT 23.59'A KADAR AÇIK)**",
      "phone": "02428879961",
      "district": "Kumluca",
      "city": "Antalya",
      "latitude": 36.3675953,
      "longitude": 30.2824273,
      "dutyStart": "2026-02-23T08:00:00.000Z",
      "dutyEnd": "2026-02-24T08:00:00.000Z"
    },
    {
      "id": "antalya-32",
      "name": "MET ECZANESİ",
      "address": "BAGLIK MH. JANDARMA SK. NO:3/C",
      "phone": "05075520763",
      "district": "Kemer",
      "city": "Antalya",
      "latitude": 36.614794827162214,
      "longitude": 30.555776900515053,
      "dutyStart": "2026-02-23T08:00:00.000Z",
      "dutyEnd": "2026-02-24T08:00:00.000Z"
    },
    {
      "id": "antalya-33",
      "name": "BELDİBİ ECZANESİ",
      "address": "YENİ MAH. ATATÜRK VE DEMOKRASİ BULV.NO:73/A KEMER",
      "phone": "02428248580",
      "district": "Antalya",
      "city": "Antalya",
      "latitude": 36.90755840729713,
      "longitude": 31.1167573928833,
      "dutyStart": "2026-02-23T08:00:00.000Z",
      "dutyEnd": "2026-02-24T08:00:00.000Z"
    },
    {
      "id": "antalya-34",
      "name": "NOVA BELEK ECZANESİ",
      "address": "AKÇAALAN MAH.4270 SOK.NO:12/B SERIK",
      "phone": "05011778217",
      "district": "Antalya",
      "city": "Antalya",
      "latitude": 36.863308,
      "longitude": 31.056164,
      "dutyStart": "2026-02-23T08:00:00.000Z",
      "dutyEnd": "2026-02-24T08:00:00.000Z"
    },
    {
      "id": "antalya-35",
      "name": "GÖZLEM ECZANESİ",
      "address": "BELEK MAH. 24 BELEK SOK. NO:1/C SERİK / ANTALYA (GECE SAAT 02:00 KADAR AÇIKTIR)",
      "phone": "02425727442",
      "district": "Antalya",
      "city": "Antalya",
      "latitude": 36.2687663157,
      "longitude": 32.3147142129,
      "dutyStart": "2026-02-23T08:00:00.000Z",
      "dutyEnd": "2026-02-24T08:00:00.000Z"
    },
    {
      "id": "antalya-36",
      "name": "MURTİÇİ ECZANESİ",
      "address": "İSTİKLAL MAH. ATATÜRK CAD. NO:7 GAZİPAŞA",
      "phone": "02426781300",
      "district": "Akseki",
      "city": "Antalya",
      "latitude": 37.042264199329665,
      "longitude": 31.786279678344727,
      "dutyStart": "2026-02-23T08:00:00.000Z",
      "dutyEnd": "2026-02-24T08:00:00.000Z"
    },
    {
      "id": "antalya-37",
      "name": "0 242 311 03 29",
      "address": "HACI ILYAS MAH. ATATÜRK CAD. BAGKUR EVLERI I-BLOK NO.58/A",
      "phone": "02423110329",
      "district": "Antalya",
      "city": "Antalya",
      "latitude": 36.876696,
      "longitude": 30.735134,
      "dutyStart": "2026-02-23T08:00:00.000Z",
      "dutyEnd": "2026-02-24T08:00:00.000Z"
    }
  ]
}