{
  "city": "gaziantep",
  "cityName": "Gaziantep",
  "cityId": 27,
  "date": "2026-02-23",
  "updatedAt": "2026-02-23T08:30:39.587Z",
  "count": 21,
  "pharmacies": [
    {
      "id": "gaziantep-0",
      "name": "EKREM ECZANESİ",
      "address": "Ünaldı Mahallesi Hasip Dürri Caddesi No:2/A (Şehreküstü Heykeli Karşısı)",
      "phone": "05545667882",
      "district": "Şahi̇nbey",
      "city": "Gaziantep",
      "latitude": 37.054985,
      "longitude": 37.397896,
      "dutyStart": "2026-02-23T08:30:00.000Z",
      "dutyEnd": "2026-02-24T08:30:00.000Z"
    },
    {
      "id": "gaziantep-1",
      "name": "CANLAR ECZANESİ",
      "address": "ULAŞ MAHALLESİ 24 NOLU CADDE NO21/A (kurbanbaba gençlik merkezi arkası kurbanbaba sağlık ocağı karşısı)",
      "phone": "2506400",
      "district": "Şahi̇nbey",
      "city": "Gaziantep",
      "latitude": 37.046749,
      "longitude": 37.368717,
      "dutyStart": "2026-02-23T08:30:00.000Z",
      "dutyEnd": "2026-02-24T08:30:00.000Z"
    },
    {
      "id": "gaziantep-2",
      "name": "DÜZTEPE CAN ECZANESI",
      "address": "NURİPAZARBAŞI MAHALLESİ ÖZDEMİRBEY CADDESİ 14:A/D / ŞAHİNBEY (YAŞAM HASTANESİ KARŞISI)",
      "phone": "03422516851",
      "district": "Şahi̇nbey",
      "city": "Gaziantep",
      "latitude": 37.063728,
      "longitude": 37.406712,
      "dutyStart": "2026-02-23T08:30:00.000Z",
      "dutyEnd": "2026-02-24T08:30:00.000Z"
    },
    {
      "id": "gaziantep-3",
      "name": "BİNEVLER ÇİĞDEM ECZANESİ",
      "address": "23 NISAN MAH. ÜNIVERSITE BLV. 223/C (ŞAHİNBEY POLİS MERKEZİ YANI)",
      "phone": "03423360817",
      "district": "Şahi̇nbey",
      "city": "Gaziantep",
      "latitude": 37.051422,
      "longitude": 37.335003,
      "dutyStart": "2026-02-23T08:30:00.000Z",
      "dutyEnd": "2026-02-24T08:30:00.000Z"
    },
    {
      "id": "gaziantep-4",
      "name": "AKKENT MELİTA ECZANESİ",
      "address": "Akkent 134016 Nolu Cadde No: 17A/A ( Opet civarı, akkent uzay çatılı pazar çaprazı, bağlarbaşı anadolu lisesi karşısı)",
      "phone": "03423714424",
      "district": "Şahi̇nbey",
      "city": "Gaziantep",
      "latitude": 37.014706,
      "longitude": 37.369991,
      "dutyStart": "2026-02-23T08:30:00.000Z",
      "dutyEnd": "2026-02-24T08:30:00.000Z"
    },
    {
      "id": "gaziantep-5",
      "name": "GÖRGÜN ECZANESİ",
      "address": "Güneykent Mah. 102282 No.lu Sok. No:2 (Beşyüzevler Sağlık Ocağı Karşısı Sembol Market Yakını)",
      "phone": "03423242411",
      "district": "Şahi̇nbey",
      "city": "Gaziantep",
      "latitude": 37.025513,
      "longitude": 37.323002,
      "dutyStart": "2026-02-23T08:30:00.000Z",
      "dutyEnd": "2026-02-24T08:30:00.000Z"
    },
    {
      "id": "gaziantep-6",
      "name": "BAHADIR ECZANESİ",
      "address": "15 Temmuz Mahallesi 148255 Nolu Cadde No:6/J ( Üniversite Hastanesi Poliklinikleri Karşısı )",
      "phone": "05346886618",
      "district": "Şahi̇nbey",
      "city": "Gaziantep",
      "latitude": 37.087571,
      "longitude": 37.426272,
      "dutyStart": "2026-02-23T08:30:00.000Z",
      "dutyEnd": "2026-02-24T08:30:00.000Z"
    },
    {
      "id": "gaziantep-7",
      "name": "ÖYKÜ ECZANESİ",
      "address": "Karataş 2. Bölge (Sağlıkçılar Sağlık Ocağı Civarı-Cergibozan Market Yanı)",
      "phone": "03423710085",
      "district": "Şahi̇nbey",
      "city": "Gaziantep",
      "latitude": 37.014801,
      "longitude": 37.333794,
      "dutyStart": "2026-02-23T08:30:00.000Z",
      "dutyEnd": "2026-02-24T08:30:00.000Z"
    },
    {
      "id": "gaziantep-8",
      "name": "GÜLCAN ECZANESİ",
      "address": "Mücahitler Mah. Gazimuhtarpaşa Bulv. No:69/D (NCR Hospital Karşısı - Anatolian Otel Çarprazı)",
      "phone": "03423243421",
      "district": "Şehi̇tkami̇l",
      "city": "Gaziantep",
      "latitude": 37.077461,
      "longitude": 37.36694,
      "dutyStart": "2026-02-23T08:30:00.000Z",
      "dutyEnd": "2026-02-24T08:30:00.000Z"
    },
    {
      "id": "gaziantep-9",
      "name": "OKYAY ECZANE",
      "address": "Değirmiçem Mahallesi Ali Fuat Cebesoy Bulvarı (kalyon kavşağı-çetinkaya arası)",
      "phone": "03424086382",
      "district": "Şehi̇tkami̇l",
      "city": "Gaziantep",
      "latitude": 37.06675232813354,
      "longitude": 37.38321304321289,
      "dutyStart": "2026-02-23T08:30:00.000Z",
      "dutyEnd": "2026-02-24T08:30:00.000Z"
    },
    {
      "id": "gaziantep-10",
      "name": "TUĞÇE KAZAZ ECZANESİ",
      "address": "Emek mahallesi, Cemil Alevli Caddesi no:22D (Nüket Alevli Ersoy sağlık ocağı karşısı)",
      "phone": "05522081424",
      "district": "Şehi̇tkami̇l",
      "city": "Gaziantep",
      "latitude": 37.069252,
      "longitude": 37.414597,
      "dutyStart": "2026-02-23T08:30:00.000Z",
      "dutyEnd": "2026-02-24T08:30:00.000Z"
    },
    {
      "id": "gaziantep-11",
      "name": "KENTPARK ECZANESİ",
      "address": "Osmangazi mah, Mona Roza caddesi. 9F. (Metro Market arkası, Bülent Aktaş baklavarı bitişi)",
      "phone": "03429992377",
      "district": "Şehi̇tkami̇l",
      "city": "Gaziantep",
      "latitude": 37.066498,
      "longitude": 37.330921,
      "dutyStart": "2026-02-23T08:30:00.000Z",
      "dutyEnd": "2026-02-24T08:30:00.000Z"
    },
    {
      "id": "gaziantep-12",
      "name": "AYDOGAN ECZANESİ",
      "address": "25 Aralık Mahallesi (Deva Hastanesi Civarı-25 Aralık ASM karşısı)",
      "phone": "03422306227",
      "district": "Şehi̇tkami̇l",
      "city": "Gaziantep",
      "latitude": 37.062599,
      "longitude": 37.39629,
      "dutyStart": "2026-02-23T08:30:00.000Z",
      "dutyEnd": "2026-02-24T08:30:00.000Z"
    },
    {
      "id": "gaziantep-13",
      "name": "BESTE ECZANESİ",
      "address": "Pirsultan Mahallesi 59088 Nolu Sokak No:6/B (Şehitkamil devlet hastanesi poliklinik kapısı karşısı)",
      "phone": "05331910342",
      "district": "Şehi̇tkami̇l",
      "city": "Gaziantep",
      "latitude": 37.06675232813354,
      "longitude": 37.38321304321289,
      "dutyStart": "2026-02-23T08:30:00.000Z",
      "dutyEnd": "2026-02-24T08:30:00.000Z"
    },
    {
      "id": "gaziantep-14",
      "name": "KÖRFEZ ECZANESİ",
      "address": "Beykent 2.ETAP (Çamlıtepe mah) 153040 nolu CAD toki 2. Etap ticaret merkezi no 5 /G",
      "phone": "05550012727",
      "district": "Şehi̇tkami̇l",
      "city": "Gaziantep",
      "latitude": 37.06675232813354,
      "longitude": 37.38321304321289,
      "dutyStart": "2026-02-23T08:30:00.000Z",
      "dutyEnd": "2026-02-24T08:30:00.000Z"
    },
    {
      "id": "gaziantep-15",
      "name": "BOZKURT ECZANESİ",
      "address": "F.Sultan Mh. Barak Sk.No.43/A (Devlet Hast. Karşısı)",
      "phone": "03425176536",
      "district": "Ni̇zi̇p",
      "city": "Gaziantep",
      "latitude": 37.06675232813354,
      "longitude": 37.38321304321289,
      "dutyStart": "2026-02-23T08:30:00.000Z",
      "dutyEnd": "2026-02-24T08:30:00.000Z"
    },
    {
      "id": "gaziantep-16",
      "name": "MUHTAR ECZANESI",
      "address": "Mehmet Gökçek Mahallesi Dr.Asım Güzelbey Caddesi No:28/A-ARABAN",
      "phone": "03426113234",
      "district": "Araban",
      "city": "Gaziantep",
      "latitude": 37.425385,
      "longitude": 37.689556,
      "dutyStart": "2026-02-23T08:30:00.000Z",
      "dutyEnd": "2026-02-24T08:30:00.000Z"
    },
    {
      "id": "gaziantep-17",
      "name": "SAĞLIK ECZANESİ",
      "address": "OGUZLAR MAH.VILAYET CAD. N:2",
      "phone": "03425713144",
      "district": "Oğuzeli̇",
      "city": "Gaziantep",
      "latitude": 36.965438,
      "longitude": 37.51015,
      "dutyStart": "2026-02-23T08:30:00.000Z",
      "dutyEnd": "2026-02-24T08:30:00.000Z"
    },
    {
      "id": "gaziantep-18",
      "name": "SEÇKİN ECZANESİ",
      "address": "CUMHURİYET MAH. HAKKI DEMİREL CAD. NO:50/A İSLAHİYE",
      "phone": "03428631187",
      "district": "İslahi̇ye",
      "city": "Gaziantep",
      "latitude": 0,
      "longitude": 0,
      "dutyStart": "2026-02-23T08:30:00.000Z",
      "dutyEnd": "2026-02-24T08:30:00.000Z"
    },
    {
      "id": "gaziantep-19",
      "name": "AMANOS ECZANESİ",
      "address": "Bahçelievler Mahallesi Hilmi Kutlubay Caddesi No:3/Z01",
      "phone": "03426712029",
      "district": "Nurdaği",
      "city": "Gaziantep",
      "latitude": 37.185209,
      "longitude": 36.733781,
      "dutyStart": "2026-02-23T08:30:00.000Z",
      "dutyEnd": "2026-02-24T08:30:00.000Z"
    },
    {
      "id": "gaziantep-20",
      "name": "ÖZNUR ECZANESİ",
      "address": "Sultan Selim Mahallesi Hacı Sait Korkmaz Caddesi No:1/B/28",
      "phone": "03426412147",
      "district": "Yavuzeli̇",
      "city": "Gaziantep",
      "latitude": 37.06675232813354,
      "longitude": 37.38321304321289,
      "dutyStart": "2026-02-23T08:30:00.000Z",
      "dutyEnd": "2026-02-24T08:30:00.000Z"
    }
  ]
}