{
  "city": "mersin",
  "cityName": "Mersin",
  "cityId": 33,
  "date": "2026-02-23",
  "updatedAt": "2026-02-23T14:30:31.308Z",
  "count": 23,
  "pharmacies": [
    {
      "id": "mersin-0",
      "name": "AYBEN ECZANESİ",
      "address": "MENDERES MAH.CEVAT KUTLU CAD. N0:15/D",
      "phone": "03243571142",
      "district": "Mezi̇tli̇",
      "city": "Mersin",
      "latitude": 36.740617,
      "longitude": 34.525764,
      "dutyStart": "2026-02-23T08:30:00.000Z",
      "dutyEnd": "2026-02-24T08:30:00.000Z"
    },
    {
      "id": "mersin-1",
      "name": "BOTAN ECZANESİ",
      "address": "GÜNEŞ MH. 5822 SK. NO:6/A1",
      "phone": "03242342566",
      "district": "Akdeni̇z",
      "city": "Mersin",
      "latitude": 36.822551,
      "longitude": 34.637745,
      "dutyStart": "2026-02-23T08:30:00.000Z",
      "dutyEnd": "2026-02-24T08:30:00.000Z"
    },
    {
      "id": "mersin-2",
      "name": "BURCU ECZANESİ",
      "address": "CUMHURİYET MH. 1650 SK. SEKİZLER APT. A BLOK NO:5A",
      "phone": "03243267378",
      "district": "Yeni̇şehi̇r",
      "city": "Mersin",
      "latitude": 36.78597,
      "longitude": 34.601622,
      "dutyStart": "2026-02-23T08:30:00.000Z",
      "dutyEnd": "2026-02-24T08:30:00.000Z"
    },
    {
      "id": "mersin-3",
      "name": "EGE ECZANESİ",
      "address": "GÜVENEVLER MH. 1. CD. No:145/C",
      "phone": "03245020304",
      "district": "Yeni̇şehi̇r",
      "city": "Mersin",
      "latitude": 36.783271,
      "longitude": 34.58754,
      "dutyStart": "2026-02-23T08:30:00.000Z",
      "dutyEnd": "2026-02-24T08:30:00.000Z"
    },
    {
      "id": "mersin-4",
      "name": "EMEK ECZANESİ",
      "address": "KELVELI CAD.ZIYA ÜNSAL SITESI ALTI.NO:23/B",
      "phone": "03243595175",
      "district": "Mezi̇tli̇",
      "city": "Mersin",
      "latitude": 36.756164,
      "longitude": 34.537659,
      "dutyStart": "2026-02-23T08:30:00.000Z",
      "dutyEnd": "2026-02-24T08:30:00.000Z"
    },
    {
      "id": "mersin-5",
      "name": "İZMİR ECZANESİ",
      "address": "ÇAĞDAŞKENT MAH. 93134 SOK. NO:37/B",
      "phone": "03242233536",
      "district": "Toroslar",
      "city": "Mersin",
      "latitude": 36.848795,
      "longitude": 34.610872,
      "dutyStart": "2026-02-23T08:30:00.000Z",
      "dutyEnd": "2026-02-24T08:30:00.000Z"
    },
    {
      "id": "mersin-6",
      "name": "KUTLUAY ECZANESİ",
      "address": "TOZKOPARAN MH. 87045 SK. NO:21/A-B",
      "phone": "03243212437",
      "district": "Toroslar",
      "city": "Mersin",
      "latitude": 36.819553,
      "longitude": 34.614865,
      "dutyStart": "2026-02-23T08:30:00.000Z",
      "dutyEnd": "2026-02-24T08:30:00.000Z"
    },
    {
      "id": "mersin-7",
      "name": "MERSİN ECZANESİ",
      "address": "İHSANİYE MH. KUVAİ MİLLİYE CD. NO.109F",
      "phone": "03243371017",
      "district": "Akdeni̇z",
      "city": "Mersin",
      "latitude": 36.804386,
      "longitude": 34.623624,
      "dutyStart": "2026-02-23T08:30:00.000Z",
      "dutyEnd": "2026-02-24T08:30:00.000Z"
    },
    {
      "id": "mersin-8",
      "name": "TOROS ECZANESİ",
      "address": "YENİ MH. 5314 SK. NO:10/A",
      "phone": "03242335624",
      "district": "Akdeni̇z",
      "city": "Mersin",
      "latitude": 36.80713,
      "longitude": 34.635298,
      "dutyStart": "2026-02-23T08:30:00.000Z",
      "dutyEnd": "2026-02-24T08:30:00.000Z"
    },
    {
      "id": "mersin-9",
      "name": "YİĞİT ECZANESİ",
      "address": "ÇİFTLİKKÖY MAH. ÜNİVERSİTE CAD. SAVAŞKANLAR APT. NO:68/A",
      "phone": "03243593999",
      "district": "Yeni̇şehi̇r",
      "city": "Mersin",
      "latitude": 36.768483,
      "longitude": 34.542875,
      "dutyStart": "2026-02-23T08:30:00.000Z",
      "dutyEnd": "2026-02-24T08:30:00.000Z"
    },
    {
      "id": "mersin-10",
      "name": "GÜNEY ECZANESİ",
      "address": "SEHITKERIM MAH. 3427 SOK.NO:5",
      "phone": "03246141454",
      "district": "Tarsus",
      "city": "Mersin",
      "latitude": 36.916899,
      "longitude": 34.896619,
      "dutyStart": "2026-02-23T08:30:00.000Z",
      "dutyEnd": "2026-02-24T08:30:00.000Z"
    },
    {
      "id": "mersin-11",
      "name": "ÖRSAN ECZANESİ",
      "address": "TEKKE MH. TÜRKMENİSTAN CD. NO:58BH",
      "phone": "03246133323",
      "district": "Tarsus",
      "city": "Mersin",
      "latitude": 36.91427,
      "longitude": 34.912666,
      "dutyStart": "2026-02-23T08:30:00.000Z",
      "dutyEnd": "2026-02-24T08:30:00.000Z"
    },
    {
      "id": "mersin-12",
      "name": "SEKMEN ECZANESİ",
      "address": "ATATÜRK CAD.ELIYESIL APT.NO:68/C",
      "phone": "03246222108",
      "district": "Tarsus",
      "city": "Mersin",
      "latitude": 36.917635,
      "longitude": 34.886917,
      "dutyStart": "2026-02-23T08:30:00.000Z",
      "dutyEnd": "2026-02-24T08:30:00.000Z"
    },
    {
      "id": "mersin-13",
      "name": "SIHHAT ECZANESİ",
      "address": "AKŞEMSETTİN MH. 0135 SK. A/1 NO:15",
      "phone": "03245020806",
      "district": "Tarsus",
      "city": "Mersin",
      "latitude": 36.93522,
      "longitude": 34.877828,
      "dutyStart": "2026-02-23T08:30:00.000Z",
      "dutyEnd": "2026-02-24T08:30:00.000Z"
    },
    {
      "id": "mersin-14",
      "name": "FIRAT ECZANESİ",
      "address": "CUMHURIYET MAH.MUTLULAR İŞ HANI NO:16/H TASUCU",
      "phone": "03247412600",
      "district": "Si̇li̇fke",
      "city": "Mersin",
      "latitude": 36.319363,
      "longitude": 33.879895,
      "dutyStart": "2026-02-23T08:30:00.000Z",
      "dutyEnd": "2026-02-24T08:30:00.000Z"
    },
    {
      "id": "mersin-15",
      "name": "SİLİFKE ECZANESİ",
      "address": "SARAY MH. FEVZİ ÇAKMAK CD. NO:107",
      "phone": "03247141194",
      "district": "Si̇li̇fke",
      "city": "Mersin",
      "latitude": 36.378141,
      "longitude": 33.925224,
      "dutyStart": "2026-02-23T08:30:00.000Z",
      "dutyEnd": "2026-02-24T08:30:00.000Z"
    },
    {
      "id": "mersin-16",
      "name": "ÜMİT ATSAN ECZANESİ",
      "address": "PINARBAŞI MH. KARACAOĞLAN CD. NO:13G",
      "phone": "03247747433",
      "district": "Mut",
      "city": "Mersin",
      "latitude": 36.643187,
      "longitude": 33.442053,
      "dutyStart": "2026-02-23T08:30:00.000Z",
      "dutyEnd": "2026-02-24T08:30:00.000Z"
    },
    {
      "id": "mersin-17",
      "name": "BÜŞRA ECZANESİ",
      "address": "HACIPINAR MH. ATATÜRK CD. NO:45",
      "phone": "05335469098",
      "district": "Gülnar",
      "city": "Mersin",
      "latitude": 36.338377,
      "longitude": 33.40094,
      "dutyStart": "2026-02-23T08:30:00.000Z",
      "dutyEnd": "2026-02-24T08:30:00.000Z"
    },
    {
      "id": "mersin-18",
      "name": "KOÇAK ECZANESİ",
      "address": "MERKEZ MAH.ABDURAHMANSEVK CAD.NO:I29/A",
      "phone": "03245153353",
      "district": "Erdemli̇",
      "city": "Mersin",
      "latitude": 36.604326,
      "longitude": 34.314169,
      "dutyStart": "2026-02-23T08:30:00.000Z",
      "dutyEnd": "2026-02-24T08:30:00.000Z"
    },
    {
      "id": "mersin-19",
      "name": "SEZEN ECZANESİ",
      "address": "AKDENİZ MH. KAZIM KARABEKİR CD. ANNEM EVLERİ B BLOK NO:49/D",
      "phone": "03245163030",
      "district": "Erdemli̇",
      "city": "Mersin",
      "latitude": 36.608996,
      "longitude": 34.30354,
      "dutyStart": "2026-02-23T08:30:00.000Z",
      "dutyEnd": "2026-02-24T08:30:00.000Z"
    },
    {
      "id": "mersin-20",
      "name": "BİRGÜL ECZANESİ",
      "address": "ÇOPURLU MAH.ŞEHITLER CAD.NO:89/b",
      "phone": "03248514477",
      "district": "Bozyazi",
      "city": "Mersin",
      "latitude": 36.114573,
      "longitude": 32.972049,
      "dutyStart": "2026-02-23T08:30:00.000Z",
      "dutyEnd": "2026-02-24T08:30:00.000Z"
    },
    {
      "id": "mersin-21",
      "name": "DEVA ECZANESİ",
      "address": "CUMHURIYET MAH. KENAN EVREN CD. NO:1/C",
      "phone": "03248412224",
      "district": "Aydincik",
      "city": "Mersin",
      "latitude": 36.152833,
      "longitude": 33.338789,
      "dutyStart": "2026-02-23T08:30:00.000Z",
      "dutyEnd": "2026-02-24T08:30:00.000Z"
    },
    {
      "id": "mersin-22",
      "name": "ERDEM ECZANESİ",
      "address": "SAĞLIK MAH. AKDENİZ CAD. NO:134/B",
      "phone": "03248141163",
      "district": "Anamur",
      "city": "Mersin",
      "latitude": 36.081337,
      "longitude": 32.840187,
      "dutyStart": "2026-02-23T08:30:00.000Z",
      "dutyEnd": "2026-02-24T08:30:00.000Z"
    }
  ]
}