{
  "city": "samsun",
  "cityName": "Samsun",
  "cityId": 55,
  "date": "2026-02-23",
  "updatedAt": "2026-02-23T03:30:41.791Z",
  "count": 21,
  "pharmacies": [
    {
      "id": "samsun-0",
      "name": "ŞURA ECZANESİ",
      "address": "KIRAN MAH. 709. SOK.NO8/B",
      "phone": "03624405326",
      "district": "İlkadım",
      "city": "Samsun",
      "latitude": 41.285017,
      "longitude": 36.306136,
      "dutyStart": "2026-02-23T08:30:00.000Z",
      "dutyEnd": "2026-02-24T08:30:00.000Z"
    },
    {
      "id": "samsun-1",
      "name": "ATAKAN BEY ECZANESİ",
      "address": "İSTASYON MAH.CUMHURİYET CAD. NO:130/1",
      "phone": "03622335557",
      "district": "İlkadım",
      "city": "Samsun",
      "latitude": 41.284123,
      "longitude": 36.34242,
      "dutyStart": "2026-02-23T08:30:00.000Z",
      "dutyEnd": "2026-02-24T08:30:00.000Z"
    },
    {
      "id": "samsun-2",
      "name": "OKAN ECZANESİ",
      "address": "YENİDOĞAN MAH: AZİZİYE CAD: 106/1",
      "phone": "03622333322",
      "district": "İlkadım",
      "city": "Samsun",
      "latitude": 41.278302,
      "longitude": 36.330122,
      "dutyStart": "2026-02-23T08:30:00.000Z",
      "dutyEnd": "2026-02-24T08:30:00.000Z"
    },
    {
      "id": "samsun-3",
      "name": "GENÇALİOĞLU ECZANESİ",
      "address": "YENİMAHALLE MAH. 100.YIL BULVARI NO.7/13",
      "phone": "03622280200",
      "district": "Canik",
      "city": "Samsun",
      "latitude": 41.272506,
      "longitude": 36.350561,
      "dutyStart": "2026-02-23T08:30:00.000Z",
      "dutyEnd": "2026-02-24T08:30:00.000Z"
    },
    {
      "id": "samsun-4",
      "name": "UMUT ECZANESİ",
      "address": "CUMHURIYET MAH. ALPARSLAN BULVARI NO:22",
      "phone": "03624384121",
      "district": "Atakum",
      "city": "Samsun",
      "latitude": 41.334378,
      "longitude": 36.271349,
      "dutyStart": "2026-02-23T08:30:00.000Z",
      "dutyEnd": "2026-02-24T08:30:00.000Z"
    },
    {
      "id": "samsun-5",
      "name": "MİLA ECZANESİ",
      "address": "BÜYÜKOYUMCA MAH. ŞENTEPE CAD. NO:78/A",
      "phone": "03624590059",
      "district": "Atakum",
      "city": "Samsun",
      "latitude": 41.355695,
      "longitude": 36.205741,
      "dutyStart": "2026-02-23T08:30:00.000Z",
      "dutyEnd": "2026-02-24T08:30:00.000Z"
    },
    {
      "id": "samsun-6",
      "name": "SARAL ECZANESİ",
      "address": "19 MAYIS MAH. ŞEYH ZEYNETTİN CAD. NO:85/A",
      "phone": "03622561333",
      "district": "Tekkeköy",
      "city": "Samsun",
      "latitude": 41.215219,
      "longitude": 36.455937,
      "dutyStart": "2026-02-23T08:30:00.000Z",
      "dutyEnd": "2026-02-24T08:30:00.000Z"
    },
    {
      "id": "samsun-7",
      "name": "GAMZE ECZANESİ",
      "address": "YENİ CAMİ MAH. LİSE CAD. NO:64/A",
      "phone": "03626222619",
      "district": "Alaçam",
      "city": "Samsun",
      "latitude": 41.611041,
      "longitude": 35.600489,
      "dutyStart": "2026-02-23T08:30:00.000Z",
      "dutyEnd": "2026-02-24T08:30:00.000Z"
    },
    {
      "id": "samsun-8",
      "name": "CEDİT ECZANESİ",
      "address": "BİÇİMCİK MAH.ESEN SOK.NO:11",
      "phone": "03627913256",
      "district": "Asarcık",
      "city": "Samsun",
      "latitude": 41.036344,
      "longitude": 36.225344,
      "dutyStart": "2026-02-23T08:30:00.000Z",
      "dutyEnd": "2026-02-24T08:30:00.000Z"
    },
    {
      "id": "samsun-9",
      "name": "YİĞİT ECZANESİ",
      "address": "EYÜP SULTAN MAH. ŞEYH ŞAMİL SOK. NO:1AA",
      "phone": "03628132140",
      "district": "Ayvacık",
      "city": "Samsun",
      "latitude": 41.00293,
      "longitude": 36.630838,
      "dutyStart": "2026-02-23T08:30:00.000Z",
      "dutyEnd": "2026-02-24T08:30:00.000Z"
    },
    {
      "id": "samsun-10",
      "name": "BEŞYOL ECZANESİ",
      "address": "ALAÇAM CAD.NO:70",
      "phone": "03625432490",
      "district": "Bafra",
      "city": "Samsun",
      "latitude": 41.566641,
      "longitude": 35.89901,
      "dutyStart": "2026-02-23T08:30:00.000Z",
      "dutyEnd": "2026-02-24T08:30:00.000Z"
    },
    {
      "id": "samsun-11",
      "name": "YAŞAM ECZANESİ",
      "address": "EMİREFENDİ MAH. SÜLEYMAN TÜRK CAD. NO:13/B",
      "phone": "03625443322",
      "district": "Bafra",
      "city": "Samsun",
      "latitude": 41.559326,
      "longitude": 35.903985,
      "dutyStart": "2026-02-23T08:30:00.000Z",
      "dutyEnd": "2026-02-24T08:30:00.000Z"
    },
    {
      "id": "samsun-12",
      "name": "DEĞİRMENBAŞI ECZANESİ",
      "address": "SARICALI MAH. YUNUS EMRE CAD. NO:27",
      "phone": "03628331738",
      "district": "Çarşamba",
      "city": "Samsun",
      "latitude": 41.19848,
      "longitude": 36.721482,
      "dutyStart": "2026-02-23T08:30:00.000Z",
      "dutyEnd": "2026-02-24T08:30:00.000Z"
    },
    {
      "id": "samsun-13",
      "name": "DÖRTYOL ECZANESİ",
      "address": "25 MAYIS MAH. KAZIM PAŞA CAD. NO:4/1",
      "phone": "03627142264",
      "district": "Havza",
      "city": "Samsun",
      "latitude": 40.968212,
      "longitude": 35.667898,
      "dutyStart": "2026-02-23T08:30:00.000Z",
      "dutyEnd": "2026-02-24T08:30:00.000Z"
    },
    {
      "id": "samsun-14",
      "name": "YAŞARDOĞU ECZANESİ",
      "address": "19 MAYIS MAH. GÜNAY SOKAK NO:2/A",
      "phone": "03627412904",
      "district": "Kavak",
      "city": "Samsun",
      "latitude": 41.073098,
      "longitude": 36.035142,
      "dutyStart": "2026-02-23T08:30:00.000Z",
      "dutyEnd": "2026-02-24T08:30:00.000Z"
    },
    {
      "id": "samsun-15",
      "name": "LADİK ELİF ECZANESİ",
      "address": "BAHŞİ MAH.GAZİ CAD.NO:56/A",
      "phone": "03627713091",
      "district": "Ladik",
      "city": "Samsun",
      "latitude": 40.911071,
      "longitude": 35.894904,
      "dutyStart": "2026-02-23T08:30:00.000Z",
      "dutyEnd": "2026-02-24T08:30:00.000Z"
    },
    {
      "id": "samsun-16",
      "name": "ŞİFA ECZANESİ",
      "address": "PAZAR MAH. FATİH CAD. NO:36",
      "phone": "03625113278",
      "district": "Ondokuzmayıs",
      "city": "Samsun",
      "latitude": 41.492863,
      "longitude": 36.07451,
      "dutyStart": "2026-02-23T08:30:00.000Z",
      "dutyEnd": "2026-02-24T08:30:00.000Z"
    },
    {
      "id": "samsun-17",
      "name": "SEDA ECZANESİ",
      "address": "ORTA MAH. MUSA KÜÇÜKKURT CAD. NO:2/A",
      "phone": "03628213333",
      "district": "Salıpazarı",
      "city": "Samsun",
      "latitude": 41.081211,
      "longitude": 36.825702,
      "dutyStart": "2026-02-23T08:30:00.000Z",
      "dutyEnd": "2026-02-24T08:30:00.000Z"
    },
    {
      "id": "samsun-18",
      "name": "HÜLYA ECZANESİ",
      "address": "FENK MAHALLESİ MEVLANA SOKAK NO:5",
      "phone": "03628769929",
      "district": "Terme",
      "city": "Samsun",
      "latitude": 41.210093,
      "longitude": 36.974222,
      "dutyStart": "2026-02-23T08:30:00.000Z",
      "dutyEnd": "2026-02-24T08:30:00.000Z"
    },
    {
      "id": "samsun-19",
      "name": "BALIKÇIOĞLU  ECZANESİ",
      "address": "FAZIL AHMET PAŞA MAH. 121. SOK. NO:34/1",
      "phone": "03626463302",
      "district": "Vezirköprü",
      "city": "Samsun",
      "latitude": 41.142525,
      "longitude": 35.459873,
      "dutyStart": "2026-02-23T08:30:00.000Z",
      "dutyEnd": "2026-02-24T08:30:00.000Z"
    },
    {
      "id": "samsun-26",
      "name": "TÜRKELİ ECZANESİ",
      "address": "GÜZELYURT MAH. OSMAN GAZİ SOK. NO:9/B",
      "phone": "03686712420",
      "district": "Türkeli",
      "city": "Samsun",
      "latitude": 41.94604,
      "longitude": 34.337565,
      "dutyStart": "2026-02-23T08:30:00.000Z",
      "dutyEnd": "2026-02-24T08:30:00.000Z"
    }
  ]
}