{
  "city": "bursa",
  "cityName": "Bursa",
  "cityId": 16,
  "date": "2026-02-21",
  "updatedAt": "2026-02-21T14:30:39.433Z",
  "count": 35,
  "pharmacies": [
    {
      "id": "bursa-0",
      "name": "DEMİRİZ ECZANESİ",
      "address": "CUMHURİYET MAH. GAZİ CAD. NO:40/A,  (PODYUM PARK YOLU ÜZERİ) ,  2244528000 / 2245132974",
      "phone": "2244528000",
      "district": "NİLÜFER",
      "city": "Bursa",
      "latitude": 40.2212403,
      "longitude": 28.97235610000007,
      "dutyStart": "2026-02-21T17:00:00.000Z",
      "dutyEnd": "2026-02-22T08:30:00.000Z"
    },
    {
      "id": "bursa-1",
      "name": "TUĞÇE ECZANESİ",
      "address": "ÇAMLICA MAH. KAVAKDERE CAD. NO:146/1,  (ÇAMLICA AİLE SAĞLIĞI MERKEZİ KARŞISI) ,  0224 453 62 62",
      "phone": "02244536262",
      "district": "NİLÜFER",
      "city": "Bursa",
      "latitude": 40.19455888,
      "longitude": 28.98283482,
      "dutyStart": "2026-02-21T17:00:00.000Z",
      "dutyEnd": "2026-02-22T08:30:00.000Z"
    },
    {
      "id": "bursa-2",
      "name": "PETEK ECZANESİ",
      "address": "BEŞEVLER MAH. ACAR SOK. NO:9/A,  (ÖZEL ANADOLU HASTANESİ ACİL ÇIKIŞ KARŞISI) ,  0224 452 16 66",
      "phone": "02244521666",
      "district": "NİLÜFER",
      "city": "Bursa",
      "latitude": 40.21029602662561,
      "longitude": 28.976630185354225,
      "dutyStart": "2026-02-21T17:00:00.000Z",
      "dutyEnd": "2026-02-22T08:30:00.000Z"
    },
    {
      "id": "bursa-3",
      "name": "SEZGİ ECZANESİ",
      "address": "ALTINŞEHİR MAH. UĞUR MUMCU BULVARI NO:76A/D,  (TAŞYAKAN SİTESİ A-BLOK) ,  0224 413 50 75",
      "phone": "02244135075",
      "district": "NİLÜFER",
      "city": "Bursa",
      "latitude": 40.2209687,
      "longitude": 28.916533800000025,
      "dutyStart": "2026-02-21T17:00:00.000Z",
      "dutyEnd": "2026-02-22T08:30:00.000Z"
    },
    {
      "id": "bursa-4",
      "name": "ŞEN ECZANESİ",
      "address": "KARAMAN MAH. GÜRBÜZLER CAD. NO:22,  (İZMİR YOLU DURAK MUHALLEBİCİSİ ARKASI) ,  0224 246 00 06",
      "phone": "02242460006",
      "district": "NİLÜFER",
      "city": "Bursa",
      "latitude": 40.2148217404487,
      "longitude": 28.998745787014162,
      "dutyStart": "2026-02-21T17:00:00.000Z",
      "dutyEnd": "2026-02-22T08:30:00.000Z"
    },
    {
      "id": "bursa-5",
      "name": "BERİL ECZANESİ",
      "address": "30 AĞUSTOS ZAFER MAH. ÇAMLIK BULVARI NO:15A/D,  (KALE TREND SİTESİ ALTI - A101 MARKET YANI) ,  0224 999 24 30",
      "phone": "02249992430",
      "district": "NİLÜFER",
      "city": "Bursa",
      "latitude": 40.199573721989815,
      "longitude": 28.84281756736373,
      "dutyStart": "2026-02-21T17:00:00.000Z",
      "dutyEnd": "2026-02-22T08:30:00.000Z"
    },
    {
      "id": "bursa-6",
      "name": "GÖKÇEN ECZANESİ",
      "address": "HAMİTLER MAH. 1.FATİH CAD. NO:23/A,  (HAMİTLER YENİ KAPALI PAZAR KARŞISI) ,  0536 951 91 95",
      "phone": "05369519195",
      "district": "OSMANGAZİ",
      "city": "Bursa",
      "latitude": 40.25000990780761,
      "longitude": 28.992541035588033,
      "dutyStart": "2026-02-21T17:00:00.000Z",
      "dutyEnd": "2026-02-22T08:30:00.000Z"
    },
    {
      "id": "bursa-7",
      "name": "BAĞLARBAŞI CAN ECZANESİ",
      "address": "BAĞLARBAŞI MAH. HÜRRİYET CAD. NO:164/4,  (ESENTEPE KAVŞAĞI HÜRRİYET CAD. GİRİŞİ) ,  0224 247 32 94 / 5324676395",
      "phone": "02242473294",
      "district": "OSMANGAZİ",
      "city": "Bursa",
      "latitude": 40.231708,
      "longitude": 28.9860116,
      "dutyStart": "2026-02-21T17:00:00.000Z",
      "dutyEnd": "2026-02-22T08:30:00.000Z"
    },
    {
      "id": "bursa-8",
      "name": "UYAR ECZANESİ",
      "address": "EMEK FATİH SULTAN MEHMET MAH. ŞHT.JND.UZM.ÇVŞ.İLYAS GENEL CAD. NO:8/A ,  0543 776 02 55 ,  Eczaneyi haritada görüntülemek için tıklayınız...",
      "phone": "05437760255",
      "district": "OSMANGAZİ",
      "city": "Bursa",
      "latitude": 40.262435043989385,
      "longitude": 28.959088534256644,
      "dutyStart": "2026-02-21T17:00:00.000Z",
      "dutyEnd": "2026-02-22T08:30:00.000Z"
    },
    {
      "id": "bursa-9",
      "name": "DERELİ ECZANESİ",
      "address": "KIRCAALİ MAH. KAYALI SOK. NO:34/A,  (ÖZEL VM MEDİCALPARK ACİL ÇIKIŞI) ,  0224 999 55 01",
      "phone": "02249995501",
      "district": "OSMANGAZİ",
      "city": "Bursa",
      "latitude": 40.19346070418001,
      "longitude": 29.060626924037933,
      "dutyStart": "2026-02-21T17:00:00.000Z",
      "dutyEnd": "2026-02-22T08:30:00.000Z"
    },
    {
      "id": "bursa-10",
      "name": "SELAM ECZANESİ",
      "address": "HÜDAVENDİGAR MAH. DİKKALDIRIM CAD. NO:30,  (ÇEKİRGE DEVLET HASTANESİ YANI) ,  0224 236 10 04",
      "phone": "02242361004",
      "district": "OSMANGAZİ",
      "city": "Bursa",
      "latitude": 40.20419792,
      "longitude": 29.01643753,
      "dutyStart": "2026-02-21T17:00:00.000Z",
      "dutyEnd": "2026-02-22T08:30:00.000Z"
    },
    {
      "id": "bursa-11",
      "name": "MERİÇ ECZANESİ",
      "address": "YEŞİLOVA MAH. ÇEŞME SOK. NO:39,  (YEŞİLOVA SAĞLIK OCAĞI YANI) ,  0224-2521578",
      "phone": "02242521578",
      "district": "OSMANGAZİ",
      "city": "Bursa",
      "latitude": 40.21165008,
      "longitude": 29.06675577,
      "dutyStart": "2026-02-21T17:00:00.000Z",
      "dutyEnd": "2026-02-22T08:30:00.000Z"
    },
    {
      "id": "bursa-12",
      "name": "SEZER ECZANESİ",
      "address": "YILDIRIM MAH. BEYAZIT CAD. NO:1/B,  (GÖKDERE MEYDANI YANI) ,  0224-3275994",
      "phone": "02243275994",
      "district": "YILDIRIM",
      "city": "Bursa",
      "latitude": 40.1868815014832,
      "longitude": 29.07822087407112,
      "dutyStart": "2026-02-21T17:00:00.000Z",
      "dutyEnd": "2026-02-22T08:30:00.000Z"
    },
    {
      "id": "bursa-13",
      "name": "NURDAN SAĞLIK ECZANESİ",
      "address": "152 EVLER MAH. PROF.TEZOK CAD. NO:10,  (AKUĞUR MARKET YANI) ,  0224 360 44 44",
      "phone": "02243604444",
      "district": "YILDIRIM",
      "city": "Bursa",
      "latitude": 40.18993863,
      "longitude": 29.11057752,
      "dutyStart": "2026-02-21T17:00:00.000Z",
      "dutyEnd": "2026-02-22T08:30:00.000Z"
    },
    {
      "id": "bursa-14",
      "name": "HANSA ECZANESİ",
      "address": "BAĞLARALTI MAH. 2.CAD. NO:26B/9,  (ŞEVKET YILMAZ HASTANESİ ARKASI - ERİKLİ ÜSTÜ) ,  0224-3414741",
      "phone": "02243414741",
      "district": "YILDIRIM",
      "city": "Bursa",
      "latitude": 40.18044715758667,
      "longitude": 29.132866859436035,
      "dutyStart": "2026-02-21T17:00:00.000Z",
      "dutyEnd": "2026-02-22T08:30:00.000Z"
    },
    {
      "id": "bursa-15",
      "name": "YENİ ORHAN ECZANESİ",
      "address": "ORHAN MAH. DR.İBRAHİM ÖKTEM CAD. NO:35 ,  0506 226 03 44 ,  Eczaneyi haritada görüntülemek için tıklayınız...",
      "phone": "05062260344",
      "district": "BÜYÜKORHAN",
      "city": "Bursa",
      "latitude": 39.775043,
      "longitude": 28.881995,
      "dutyStart": "2026-02-21T17:00:00.000Z",
      "dutyEnd": "2026-02-22T08:30:00.000Z"
    },
    {
      "id": "bursa-16",
      "name": "ZEYNEP ÖZDEMİR ECZANESİ",
      "address": "DR.ZİYA KAYA MAH. HÜRRİYET CAD. DEDE KORKUT SOK. NO:26/A ,  0224 512 19 95 ,  Eczaneyi haritada görüntülemek için tıklayınız...",
      "phone": "02245121995",
      "district": "GEMLİK",
      "city": "Bursa",
      "latitude": 40.426023751931325,
      "longitude": 29.161636233329773,
      "dutyStart": "2026-02-21T15:00:00.000Z",
      "dutyEnd": "2026-02-22T00:00:00.000Z"
    },
    {
      "id": "bursa-17",
      "name": "BURAK ECZANESİ",
      "address": "EŞREF DİNÇER MAH. KUVAYİ MİLLİYE BULVARI NO:255/B ,  0224 504 51 86 ,  Eczaneyi haritada görüntülemek için tıklayınız...",
      "phone": "02245045186",
      "district": "GEMLİK",
      "city": "Bursa",
      "latitude": 40.430732699690786,
      "longitude": 29.17758512367669,
      "dutyStart": "2026-02-21T15:00:00.000Z",
      "dutyEnd": "2026-02-22T08:30:00.000Z"
    },
    {
      "id": "bursa-18",
      "name": "KÖSE ECZANESİ",
      "address": "ZAFER MAH. BARBAROS SOK. NO:13/A ,  0224-3719119 ,  Eczaneyi haritada görüntülemek için tıklayınız...",
      "phone": "02243719119",
      "district": "GÜRSU",
      "city": "Bursa",
      "latitude": 40.21948235499387,
      "longitude": 29.190829396247864,
      "dutyStart": "2026-02-21T15:30:00.000Z",
      "dutyEnd": "2026-02-22T09:00:00.000Z"
    },
    {
      "id": "bursa-19",
      "name": "ULAŞ ECZANESİ",
      "address": "MERKEZ MAH. FEVZİ PAŞA CAD. NO:9/A ,  0224-8812272 ,  Eczaneyi haritada görüntülemek için tıklayınız...",
      "phone": "02248812272",
      "district": "HARMANCIK",
      "city": "Bursa",
      "latitude": 39.679027,
      "longitude": 29.154901999999993,
      "dutyStart": "2026-02-21T08:30:00.000Z",
      "dutyEnd": "2026-02-22T08:30:00.000Z"
    },
    {
      "id": "bursa-20",
      "name": "YAŞAM ECZANESİ",
      "address": "YENİ MAH. KENT CAD. NO:9/B ALANYURT,  (SGK KAVŞAĞI) ,  0224 719 27 26",
      "phone": "02247192726",
      "district": "İNEGÖL",
      "city": "Bursa",
      "latitude": 40.10731,
      "longitude": 29.51666,
      "dutyStart": "2026-02-21T17:00:00.000Z",
      "dutyEnd": "2026-02-22T01:00:00.000Z"
    },
    {
      "id": "bursa-21",
      "name": "MUSTAFA ECZANESİ",
      "address": "KEMALPAŞA MAH. HOCAKÖY YOLU SOK. NO:42/BC ,  0224 711 57 37 ,  Eczaneyi haritada görüntülemek için tıklayınız...",
      "phone": "02247115737",
      "district": "İNEGÖL",
      "city": "Bursa",
      "latitude": 40.07318,
      "longitude": 29.48957,
      "dutyStart": "2026-02-21T17:00:00.000Z",
      "dutyEnd": "2026-02-22T08:30:00.000Z"
    },
    {
      "id": "bursa-22",
      "name": "LİMON ECZANESİ",
      "address": "MAHMUDİYE MAH. EDEP ALİ CAD. NO:1/A,  (İSRA MARKET KARŞISI) ,  0546 463 15 10",
      "phone": "05464631510",
      "district": "İNEGÖL",
      "city": "Bursa",
      "latitude": 40.065899,
      "longitude": 29.514094,
      "dutyStart": "2026-02-21T17:00:00.000Z",
      "dutyEnd": "2026-02-22T01:00:00.000Z"
    },
    {
      "id": "bursa-23",
      "name": "İLGİ ECZANESİ",
      "address": "MAHMUT ÇELEBİ MAH. ATATÜRK CAD. LALE SOK. NO:2/B ,  0224 757 24 83 ,  Eczaneyi haritada görüntülemek için tıklayınız...",
      "phone": "02247572483",
      "district": "İZNİK",
      "city": "Bursa",
      "latitude": 40.428685,
      "longitude": 29.719999,
      "dutyStart": "2026-02-21T08:30:00.000Z",
      "dutyEnd": "2026-02-22T08:30:00.000Z"
    },
    {
      "id": "bursa-24",
      "name": "EROL ECZANESİ",
      "address": "ESENTEPE MAH. 189/1.SOK. NO:10/7 ,  0224 676 55 55 ,  Eczaneyi haritada görüntülemek için tıklayınız...",
      "phone": "02246765555",
      "district": "KARACABEY",
      "city": "Bursa",
      "latitude": 40.217080948258996,
      "longitude": 28.369023352861404,
      "dutyStart": "2026-02-21T15:00:00.000Z",
      "dutyEnd": "2026-02-22T08:30:00.000Z"
    },
    {
      "id": "bursa-25",
      "name": "ÇINAR ECZANESİ",
      "address": "CUMA MAH. TAHİR HOCA CAD. NO:1 ,  0224 861 30 72 ,  Eczaneyi haritada görüntülemek için tıklayınız...",
      "phone": "02248613072",
      "district": "KELES",
      "city": "Bursa",
      "latitude": 39.9132,
      "longitude": 29.2329,
      "dutyStart": "2026-02-21T00:00:00.000Z",
      "dutyEnd": "2026-02-22T00:00:00.000Z"
    },
    {
      "id": "bursa-26",
      "name": "HARUN ECZANESİ",
      "address": "VANİ MEHMET MAH. ŞEHİT MUSTAFA KURT CAD. NO:13/A ,  0224 372 21 28 ,  Eczaneyi haritada görüntülemek için tıklayınız...",
      "phone": "02243722128",
      "district": "KESTEL",
      "city": "Bursa",
      "latitude": 40.196873,
      "longitude": 29.215825,
      "dutyStart": "2026-02-21T14:00:00.000Z",
      "dutyEnd": "2026-02-22T08:30:00.000Z"
    },
    {
      "id": "bursa-27",
      "name": "MÜGE ECZANESİ",
      "address": "ÇALI MAH. SARIYERLER CAD. ÇAĞATAY APT. NO:3/A,  (İCAP NÖBETÇİDİR) ,  0224 222 13 33",
      "phone": "02242221333",
      "district": "NİLÜFER",
      "city": "Bursa",
      "latitude": 40.17236264233075,
      "longitude": 28.920752680037072,
      "dutyStart": "2026-02-21T10:00:00.000Z",
      "dutyEnd": "2026-02-21T20:00:00.000Z"
    },
    {
      "id": "bursa-28",
      "name": "BEGONYA ECZANESİ",
      "address": "GÜZELYALI SİTELER MAH. ORHANGAZİ CAD. NO:19 ,  0224 234 66 92 ,  Eczaneyi haritada görüntülemek için tıklayınız...",
      "phone": "02242346692",
      "district": "MUDANYA",
      "city": "Bursa",
      "latitude": 40.35203160765238,
      "longitude": 28.91594201966851,
      "dutyStart": "2026-02-21T08:30:00.000Z",
      "dutyEnd": "2026-02-22T08:30:00.000Z"
    },
    {
      "id": "bursa-29",
      "name": "GÜMÜŞ ECZANESİ",
      "address": "ÖMERBEY MAH. İPAR CAD. NO:55/B ,  0224 544 66 55 ,  Eczaneyi haritada görüntülemek için tıklayınız...",
      "phone": "02245446655",
      "district": "MUDANYA",
      "city": "Bursa",
      "latitude": 40.374902,
      "longitude": 28.885785,
      "dutyStart": "2026-02-21T08:30:00.000Z",
      "dutyEnd": "2026-02-22T08:30:00.000Z"
    },
    {
      "id": "bursa-30",
      "name": "ERGİN ECZANESİ",
      "address": "TATKAVAKLI MAH. KIRYOLU SOK. NO:13/1 ,  0224 614 35 89 / 0224 618 02 03 ,  Eczaneyi haritada görüntülemek için tıklayınız...",
      "phone": "02246143589",
      "district": "MUSTAFAKEMALPAŞA",
      "city": "Bursa",
      "latitude": 40.02989623475198,
      "longitude": 28.365639067459142,
      "dutyStart": "2026-02-21T17:00:00.000Z",
      "dutyEnd": "2026-02-22T08:30:00.000Z"
    },
    {
      "id": "bursa-31",
      "name": "ÜMİT ECZANESİ",
      "address": "İSMETPAŞA MAH. HASTANE CAD. NO:11/A ,  0224-8171999 ,  Eczaneyi haritada görüntülemek için tıklayınız...",
      "phone": "02248171999",
      "district": "ORHANELİ",
      "city": "Bursa",
      "latitude": 39.90137947427627,
      "longitude": 28.987212725210384,
      "dutyStart": "2026-02-21T08:30:00.000Z",
      "dutyEnd": "2026-02-22T08:30:00.000Z"
    },
    {
      "id": "bursa-32",
      "name": "BAŞER ECZANESİ",
      "address": "HÜRRİYET MAH. DOLMACI 1 NOLU SOK. NO:2,  (MEZARLIK YANI) ,  0224 573 72 32",
      "phone": "02245737232",
      "district": "ORHANGAZİ",
      "city": "Bursa",
      "latitude": 40.485351,
      "longitude": 29.305031999999983,
      "dutyStart": "2026-02-21T15:00:00.000Z",
      "dutyEnd": "2026-02-22T08:30:00.000Z"
    },
    {
      "id": "bursa-33",
      "name": "BAYKAL ECZANESİ",
      "address": "DEMİRTAŞ DUMLUPINAR MAH. 47.CAD. NO:64 ,  0224-2611584 ,  Eczaneyi haritada görüntülemek için tıklayınız...",
      "phone": "02242611584",
      "district": "OSMANGAZİ",
      "city": "Bursa",
      "latitude": 40.270554288827945,
      "longitude": 29.080762267112732,
      "dutyStart": "2026-02-21T17:00:00.000Z",
      "dutyEnd": "2026-02-22T08:30:00.000Z"
    },
    {
      "id": "bursa-34",
      "name": "UYSAL ECZANESİ",
      "address": "ÇAYIR MAH. CUMHURİYET CAD. NO:38 16900 ,  0224 773 03 55 ,  Eczaneyi haritada görüntülemek için tıklayınız...",
      "phone": "02247730355",
      "district": "YENİŞEHİR",
      "city": "Bursa",
      "latitude": 40.262624,
      "longitude": 29.649992999999995,
      "dutyStart": "2026-02-21T08:00:00.000Z",
      "dutyEnd": "2026-02-22T08:00:00.000Z"
    }
  ]
}