{
  "city": "gaziantep",
  "cityName": "Gaziantep",
  "cityId": 27,
  "date": "2026-02-21",
  "updatedAt": "2026-02-21T02:00:43.442Z",
  "count": 21,
  "pharmacies": [
    {
      "id": "gaziantep-0",
      "name": "SÜRÜCÜ ECZANESİ",
      "address": "Eski Garajlar Türkmenler Cd.No:50 (Büyük Veliç Oteli 200 mt.Yukarısı,iran pazarı yanı)",
      "phone": "05334306274",
      "district": "Şahi̇nbey",
      "city": "Gaziantep",
      "latitude": 37.06675232813354,
      "longitude": 37.38321304321289,
      "dutyStart": "2026-02-21T08:30:00.000Z",
      "dutyEnd": "2026-02-22T08:30:00.000Z"
    },
    {
      "id": "gaziantep-1",
      "name": "ÖZDEN ECZANESİ",
      "address": "75.YIL MAH. 140. CAD. 86052. SOK. NO:11 (YEŞİLEVLER CAMİ YANI, ALLEBEN ROTARY SAĞLIK OCAĞI KARŞISI)",
      "phone": "03423605525",
      "district": "Şahi̇nbey",
      "city": "Gaziantep",
      "latitude": 37.04149767839064,
      "longitude": 37.35002374650839,
      "dutyStart": "2026-02-21T08:30:00.000Z",
      "dutyEnd": "2026-02-22T08:30:00.000Z"
    },
    {
      "id": "gaziantep-2",
      "name": "BARAK ECZANESİ",
      "address": "OCAKLAR MAH. 6 NOLU SOK NO:8 (Ocaklar Karakolu Arkası) (yıldız düğün salonu karşısı, sembol market çaprazı)",
      "phone": "03422711050",
      "district": "Şahi̇nbey",
      "city": "Gaziantep",
      "latitude": 37.04694,
      "longitude": 37.40826,
      "dutyStart": "2026-02-21T08:30:00.000Z",
      "dutyEnd": "2026-02-22T08:30:00.000Z"
    },
    {
      "id": "gaziantep-3",
      "name": "DENİZ ECZANESİ",
      "address": "Üniversite Bul. No:229/A(Şahinbey Polis Karakolu Yanı)",
      "phone": "03423360990",
      "district": "Şahi̇nbey",
      "city": "Gaziantep",
      "latitude": 0,
      "longitude": 0,
      "dutyStart": "2026-02-21T08:30:00.000Z",
      "dutyEnd": "2026-02-22T08:30:00.000Z"
    },
    {
      "id": "gaziantep-4",
      "name": "CİHAN ECZANESİ",
      "address": "Mavikent Mahallesi 135015 Nolu Cadde No:10/P",
      "phone": "03424851555",
      "district": "Şahi̇nbey",
      "city": "Gaziantep",
      "latitude": 37.06675232813354,
      "longitude": 37.38321304321289,
      "dutyStart": "2026-02-21T08:30:00.000Z",
      "dutyEnd": "2026-02-22T08:30:00.000Z"
    },
    {
      "id": "gaziantep-5",
      "name": "YILMAZ ECZANESİ",
      "address": "Güneykent Mah. 282 Nolu Sok. No:7/B (500 Evler Sağlık Ocağı Bitişiği-Sembol Market Karşısı)",
      "phone": "05491324746",
      "district": "Şahi̇nbey",
      "city": "Gaziantep",
      "latitude": 37.02565,
      "longitude": 37.322891,
      "dutyStart": "2026-02-21T08:30:00.000Z",
      "dutyEnd": "2026-02-22T08:30:00.000Z"
    },
    {
      "id": "gaziantep-6",
      "name": "TÜMAY ECZANESİ",
      "address": "GAZİANTEP ÜNİVERSİTE HASTANESİ POLİKLİNİKLER KARŞISI 15 Temmuz Mahallesi 148255 Nolu Cadde No:6/H / ŞAHİNBEY",
      "phone": "05449195717",
      "district": "Şahi̇nbey",
      "city": "Gaziantep",
      "latitude": 37.041401,
      "longitude": 37.319092,
      "dutyStart": "2026-02-21T08:30:00.000Z",
      "dutyEnd": "2026-02-22T08:30:00.000Z"
    },
    {
      "id": "gaziantep-7",
      "name": "ALBAYRAM ECZANESİ",
      "address": "Karataş Mahallesi 1 bölge Barbaros camii arkası Winmar Market Civarı",
      "phone": "08502232664",
      "district": "Şahi̇nbey",
      "city": "Gaziantep",
      "latitude": 37.013959,
      "longitude": 37.351094,
      "dutyStart": "2026-02-21T08:30:00.000Z",
      "dutyEnd": "2026-02-22T08:30:00.000Z"
    },
    {
      "id": "gaziantep-8",
      "name": "SEDA ECZANESİ",
      "address": "Mücahitler Mah.63 Nolu Cd.(Medical Park Hastanesi Acil Karşısı)",
      "phone": "03423230355",
      "district": "Şehi̇tkami̇l",
      "city": "Gaziantep",
      "latitude": 37.0756,
      "longitude": 37.370739,
      "dutyStart": "2026-02-21T08:30:00.000Z",
      "dutyEnd": "2026-02-22T08:30:00.000Z"
    },
    {
      "id": "gaziantep-9",
      "name": "ŞEYDA ECZANESİ",
      "address": "Değirmiçem mah.Ökkeş Bahri cad.Altun Et lokantası yanı-Topkapı Sarayı arkası.No30/A Şehitkamil/Gaziantep",
      "phone": "03424083163",
      "district": "Şehi̇tkami̇l",
      "city": "Gaziantep",
      "latitude": 37.06675232813354,
      "longitude": 37.38321304321289,
      "dutyStart": "2026-02-21T08:30:00.000Z",
      "dutyEnd": "2026-02-22T08:30:00.000Z"
    },
    {
      "id": "gaziantep-10",
      "name": "IHLAMUR ECZANESİ",
      "address": "Şehirgösteren Mahallesi 68002 Nolu Cadde No:13/B (Celile Refik Danış ASM Yanı / Taylan Doğan Koleji)",
      "phone": "05310123636",
      "district": "Şehi̇tkami̇l",
      "city": "Gaziantep",
      "latitude": 37.093917,
      "longitude": 37.324634,
      "dutyStart": "2026-02-21T08:30:00.000Z",
      "dutyEnd": "2026-02-22T08:30:00.000Z"
    },
    {
      "id": "gaziantep-11",
      "name": "NİLAY ECZANESİ",
      "address": "Pancarlı Mah, Acıoğlu et lokantası ilerisi, Sanko Okulları arkası, Hilmi Salime Kırşan cami yanı",
      "phone": "05362612170",
      "district": "Şehi̇tkami̇l",
      "city": "Gaziantep",
      "latitude": 37.068581,
      "longitude": 37.344589,
      "dutyStart": "2026-02-21T08:30:00.000Z",
      "dutyEnd": "2026-02-22T08:30:00.000Z"
    },
    {
      "id": "gaziantep-12",
      "name": "ÖMER ARSLAN ECZANESİ",
      "address": "SEYRANTEPE MAHALLESİ 65112 NOLU SOKAK NO:1/A (ÖZEL LİV HOSPİTAL YANI )",
      "phone": "03424089145",
      "district": "Şehi̇tkami̇l",
      "city": "Gaziantep",
      "latitude": 37.07085,
      "longitude": 37.414073,
      "dutyStart": "2026-02-21T08:30:00.000Z",
      "dutyEnd": "2026-02-22T08:30:00.000Z"
    },
    {
      "id": "gaziantep-13",
      "name": "CAN ECZANESI",
      "address": "KAYAÖNÜ MAHALLESİ 42021 NOLU SOKAK NO:51/B (Safir ve Elit Otel Arkası-Aytemiz Petrol Arkası- Güvenpark Karşısı)",
      "phone": "03422205887",
      "district": "Şehi̇tkami̇l",
      "city": "Gaziantep",
      "latitude": 37.081939,
      "longitude": 37.365612,
      "dutyStart": "2026-02-21T08:30:00.000Z",
      "dutyEnd": "2026-02-22T08:30:00.000Z"
    },
    {
      "id": "gaziantep-14",
      "name": "GAZİKENT ECZANESİ",
      "address": "Gazikent-Atakent Mah. 15. Cd. Pınar Apt.12 Nolu ASM Yanı (Sevgi Parkı Karşısı)",
      "phone": "03422411305",
      "district": "Şehi̇tkami̇l",
      "city": "Gaziantep",
      "latitude": 37.090523,
      "longitude": 37.424484,
      "dutyStart": "2026-02-21T08:30:00.000Z",
      "dutyEnd": "2026-02-22T08:30:00.000Z"
    },
    {
      "id": "gaziantep-15",
      "name": "AYŞEGÜL ÇETİN (NİZİP)",
      "address": "FATİH SULTAN MH. FUNDA SK. NO.3/A (HASTANE CAMİİSİ ÇAPRAZI)",
      "phone": "05365167413",
      "district": "Ni̇zi̇p",
      "city": "Gaziantep",
      "latitude": 37.06675232813354,
      "longitude": 37.38321304321289,
      "dutyStart": "2026-02-21T08:30:00.000Z",
      "dutyEnd": "2026-02-22T08:30:00.000Z"
    },
    {
      "id": "gaziantep-16",
      "name": "EKREM ECZANESİ",
      "address": "TURGUT ÖZAL MAHALLESİ BABUŞOĞLU CADDESİ NO:27/A",
      "phone": "03425026998",
      "district": "Araban",
      "city": "Gaziantep",
      "latitude": 37.06675232813354,
      "longitude": 37.38321304321289,
      "dutyStart": "2026-02-21T08:30:00.000Z",
      "dutyEnd": "2026-02-22T08:30:00.000Z"
    },
    {
      "id": "gaziantep-17",
      "name": "SÜNDÜZ ECZANESİ",
      "address": "OĞUZLAR MAHALLESİ ALÇİÇEK SOKAK NO:4/4A ( Hastane Poliklinik Giriş Kapısının Yanı )-OĞUZELİ",
      "phone": "05445546318",
      "district": "Oğuzeli̇",
      "city": "Gaziantep",
      "latitude": 37.06675232813354,
      "longitude": 37.38321304321289,
      "dutyStart": "2026-02-21T08:30:00.000Z",
      "dutyEnd": "2026-02-22T08:30:00.000Z"
    },
    {
      "id": "gaziantep-18",
      "name": "GAMZE ECZANESİ",
      "address": "AYDINLIK MAH. GÖZ CAD. NO:50/A",
      "phone": "03428623642",
      "district": "İslahi̇ye",
      "city": "Gaziantep",
      "latitude": 37.06675232813354,
      "longitude": 37.38321304321289,
      "dutyStart": "2026-02-21T08:30:00.000Z",
      "dutyEnd": "2026-02-22T08:30:00.000Z"
    },
    {
      "id": "gaziantep-19",
      "name": "GÜNEŞ ECZANESİ",
      "address": "6 Şubat Mah. 136 Nolu Sokak. No:5/1 İÇ KAPI NO:Z/1",
      "phone": "05538960408",
      "district": "Nurdaği",
      "city": "Gaziantep",
      "latitude": 37.06675232813354,
      "longitude": 37.38321304321289,
      "dutyStart": "2026-02-21T08:30:00.000Z",
      "dutyEnd": "2026-02-22T08:30:00.000Z"
    },
    {
      "id": "gaziantep-20",
      "name": "ECE ECZANESİ",
      "address": "SULTANSELİM MAH. ARABAN CAD . NO :68/BC (YAVUZELİ İLÇE DEVLET HASTANESİ CİVARI, MEHMET KAYA İNŞAAT ALTI )",
      "phone": "05010092978",
      "district": "Yavuzeli̇",
      "city": "Gaziantep",
      "latitude": 37.06675232813354,
      "longitude": 37.38321304321289,
      "dutyStart": "2026-02-21T08:30:00.000Z",
      "dutyEnd": "2026-02-22T08:30:00.000Z"
    }
  ]
}