{
  "city": "gaziantep",
  "cityName": "Gaziantep",
  "cityId": 27,
  "date": "2026-02-21",
  "updatedAt": "2026-02-21T16:01:01.501Z",
  "count": 21,
  "pharmacies": [
    {
      "id": "gaziantep-0",
      "name": "DEMET ECZANESI",
      "address": "Eski Garajlar Büyük Veliç Oteli Yukarısı(Sağlık Ocağı Karş.)",
      "phone": "03422517412",
      "district": "Şahi̇nbey",
      "city": "Gaziantep",
      "latitude": 37.052818,
      "longitude": 37.372311,
      "dutyStart": "2026-02-21T08:30:00.000Z",
      "dutyEnd": "2026-02-22T08:30:00.000Z"
    },
    {
      "id": "gaziantep-1",
      "name": "BÜLBÜLZADE ECZANESİ",
      "address": "BÜLBÜLZADE ECZANESİ 75.YIL MAH.YEŞİL VADİ BUL.NO314/F(YILMAZLAR DÜGÜN SALONU KARŞIŞI)",
      "phone": "05346011179",
      "district": "Şahi̇nbey",
      "city": "Gaziantep",
      "latitude": 37.06675232813354,
      "longitude": 37.38321304321289,
      "dutyStart": "2026-02-21T08:30:00.000Z",
      "dutyEnd": "2026-02-22T08:30:00.000Z"
    },
    {
      "id": "gaziantep-2",
      "name": "IŞIK EMRE ECZANESİ",
      "address": "Güzelvadi mahallesi 90252 nolu sokak kapı no 17a Gaziantep/ Şahinbey (Şahinbey 12 nolu sağlık ocağı karşısı yaren taksi civarı)",
      "phone": "05530872801",
      "district": "Şahi̇nbey",
      "city": "Gaziantep",
      "latitude": 37.019668,
      "longitude": 37.367855,
      "dutyStart": "2026-02-21T08:30:00.000Z",
      "dutyEnd": "2026-02-22T08:30:00.000Z"
    },
    {
      "id": "gaziantep-3",
      "name": "NERMİN ECZANESİ",
      "address": "23 Nisan Mahallesi 82025 Nolu Sokak No:1AA (Kemal Bayındır Hastanesi yanı)",
      "phone": "05063575327",
      "district": "Şahi̇nbey",
      "city": "Gaziantep",
      "latitude": 37.047578,
      "longitude": 37.331523,
      "dutyStart": "2026-02-21T08:30:00.000Z",
      "dutyEnd": "2026-02-22T08:30:00.000Z"
    },
    {
      "id": "gaziantep-4",
      "name": "YALÇINKAYA ECZANESİ",
      "address": "İbni Sina Mahallesi 400 Nolu CADDE No 79 A/J Şehir Hastanesi Civarı , Türkcell Ayaz İletişim Yanı",
      "phone": "05395777093",
      "district": "Şahi̇nbey",
      "city": "Gaziantep",
      "latitude": 37.015701,
      "longitude": 37.38132,
      "dutyStart": "2026-02-21T08:30:00.000Z",
      "dutyEnd": "2026-02-22T08:30:00.000Z"
    },
    {
      "id": "gaziantep-5",
      "name": "ÖRNEK ECZANESİ",
      "address": "Güneykent Mah. 102282 Nolu Sokak. Kapı No: 2F-A (Defa Life Hastanesi civarı,Beşyüzevler sağlık ocağı çaprazı )",
      "phone": "03422205736",
      "district": "Şahi̇nbey",
      "city": "Gaziantep",
      "latitude": 37.025558,
      "longitude": 37.32222,
      "dutyStart": "2026-02-21T08:30:00.000Z",
      "dutyEnd": "2026-02-22T08:30:00.000Z"
    },
    {
      "id": "gaziantep-6",
      "name": "ÖZGEM ECZANESİ",
      "address": "Yeditepe mahallesi 85280 nolu cadde Şahinbey ilçe sağlık müdürlüğü yani no:17/c winmar arkasi",
      "phone": "03425034400",
      "district": "Şahi̇nbey",
      "city": "Gaziantep",
      "latitude": 37.028104,
      "longitude": 37.335618,
      "dutyStart": "2026-02-21T08:30:00.000Z",
      "dutyEnd": "2026-02-22T08:30:00.000Z"
    },
    {
      "id": "gaziantep-7",
      "name": "REŞAT ECZANESİ",
      "address": "Karataş 1.Bölge BARBAROS ERSAATÇİ CAMİ ARKASI BAĞLARBAŞI ASM KARŞISI",
      "phone": "0342371069291",
      "district": "Şahi̇nbey",
      "city": "Gaziantep",
      "latitude": 37.014481,
      "longitude": 37.352322,
      "dutyStart": "2026-02-21T08:30:00.000Z",
      "dutyEnd": "2026-02-22T08:30:00.000Z"
    },
    {
      "id": "gaziantep-8",
      "name": "ZER ECZANESİ",
      "address": "Mücahitler Mh.Medical Park Hastanesi Acil Karşısı",
      "phone": "03422326265",
      "district": "Şehi̇tkami̇l",
      "city": "Gaziantep",
      "latitude": 37.075439,
      "longitude": 37.370602,
      "dutyStart": "2026-02-21T08:30:00.000Z",
      "dutyEnd": "2026-02-22T08:30:00.000Z"
    },
    {
      "id": "gaziantep-9",
      "name": "MEDİKAN ECZANESİ",
      "address": "Değirmiçem Mahallesi 16049 Nolu Sokak No:1/A &quot; Sanko hastanesi arkası Uğur plaza Altı &quot;",
      "phone": "03423262646",
      "district": "Şehi̇tkami̇l",
      "city": "Gaziantep",
      "latitude": 37.06675232813354,
      "longitude": 37.38321304321289,
      "dutyStart": "2026-02-21T08:30:00.000Z",
      "dutyEnd": "2026-02-22T08:30:00.000Z"
    },
    {
      "id": "gaziantep-10",
      "name": "SELÇUK ECZANESİ",
      "address": "İbrahimli Mah. 35153 Nolu Cadde No:13/C (Celile Refik Danış Sağlık Ocağı Bitişiği, Taylan Doğan Koleji Yanı)",
      "phone": "05336362767",
      "district": "Şehi̇tkami̇l",
      "city": "Gaziantep",
      "latitude": 37.093887,
      "longitude": 37.324623,
      "dutyStart": "2026-02-21T08:30:00.000Z",
      "dutyEnd": "2026-02-22T08:30:00.000Z"
    },
    {
      "id": "gaziantep-11",
      "name": "DILAY ECZANESI",
      "address": "Kemal Köker Cd.45(Ulu Cami Karşısı-Hatem Hastanesi Yanı)",
      "phone": "03422323776",
      "district": "Şehi̇tkami̇l",
      "city": "Gaziantep",
      "latitude": 37.063038,
      "longitude": 37.36795,
      "dutyStart": "2026-02-21T08:30:00.000Z",
      "dutyEnd": "2026-02-22T08:30:00.000Z"
    },
    {
      "id": "gaziantep-12",
      "name": "LİVA ECZANESİ",
      "address": "Seyrantepe Mahallesi 65112 Nolu Sokak No:1/B ( LİV Hospital Yanı)",
      "phone": "03424088818",
      "district": "Şehi̇tkami̇l",
      "city": "Gaziantep",
      "latitude": 37.07085,
      "longitude": 37.414073,
      "dutyStart": "2026-02-21T08:30:00.000Z",
      "dutyEnd": "2026-02-22T08:30:00.000Z"
    },
    {
      "id": "gaziantep-13",
      "name": "KOÇER ECZANESİ",
      "address": "Zeytinli Mh.(Zeytinli Sağ.Ocğ.Kar.Nuri Maviş Cami Yanı)",
      "phone": "03423241244",
      "district": "Şehi̇tkami̇l",
      "city": "Gaziantep",
      "latitude": 37.086639,
      "longitude": 37.360641,
      "dutyStart": "2026-02-21T08:30:00.000Z",
      "dutyEnd": "2026-02-22T08:30:00.000Z"
    },
    {
      "id": "gaziantep-14",
      "name": "HACIBABA EMEK ECZANESİ",
      "address": "Tekel Cad. Hasırcıoğlu Mah. 13 Nolu Sok. Hasırcıoğlu Tıp Merkezi yanı (Hacıbaba Su Deposu Altı)",
      "phone": "03423235491",
      "district": "Şehi̇tkami̇l",
      "city": "Gaziantep",
      "latitude": 37.082084,
      "longitude": 37.387294,
      "dutyStart": "2026-02-21T08:30:00.000Z",
      "dutyEnd": "2026-02-22T08:30:00.000Z"
    },
    {
      "id": "gaziantep-15",
      "name": "AYŞENUR ECZANESİ",
      "address": "Fatih Sultan Mahallesi Barak Sokak No:50A- 50 B",
      "phone": "03425176175",
      "district": "Ni̇zi̇p",
      "city": "Gaziantep",
      "latitude": 37.00520318725427,
      "longitude": 37.799522340094526,
      "dutyStart": "2026-02-21T08:30:00.000Z",
      "dutyEnd": "2026-02-22T08:30:00.000Z"
    },
    {
      "id": "gaziantep-16",
      "name": "SENA ECZANESİ",
      "address": "GAZİANTEP CADDESİ NO:2 ARABAN",
      "phone": "03423249095",
      "district": "Araban",
      "city": "Gaziantep",
      "latitude": 37.424757,
      "longitude": 37.682476,
      "dutyStart": "2026-02-21T08:30:00.000Z",
      "dutyEnd": "2026-02-22T08:30:00.000Z"
    },
    {
      "id": "gaziantep-17",
      "name": "HİLAL ECZANESİ",
      "address": "Subaşı Mah.Alparslan Türkeş Bulv.No:2/16 Eski Karakol Karşısı Oğuzeli",
      "phone": "05314219590",
      "district": "Oğuzeli̇",
      "city": "Gaziantep",
      "latitude": 36.965409,
      "longitude": 37.508171,
      "dutyStart": "2026-02-21T08:30:00.000Z",
      "dutyEnd": "2026-02-22T08:30:00.000Z"
    },
    {
      "id": "gaziantep-18",
      "name": "ATICI ECZANESİ",
      "address": "Çamlıca Mahallesi Kemal Balıkesirli Caddesi No:28/C (Merkez Sağlık Ocağı Altı )-İSLAHİYE",
      "phone": "03428693535",
      "district": "İslahi̇ye",
      "city": "Gaziantep",
      "latitude": 37.018818,
      "longitude": 36.631736,
      "dutyStart": "2026-02-21T08:30:00.000Z",
      "dutyEnd": "2026-02-22T08:30:00.000Z"
    },
    {
      "id": "gaziantep-19",
      "name": "EDA BOLAT ECZANESİ",
      "address": "Karşıyaka Mah Çamtepe Caddesi No:29/4",
      "phone": "03425021864",
      "district": "Nurdaği",
      "city": "Gaziantep",
      "latitude": 37.06675232813354,
      "longitude": 37.38321304321289,
      "dutyStart": "2026-02-21T08:30:00.000Z",
      "dutyEnd": "2026-02-22T08:30:00.000Z"
    },
    {
      "id": "gaziantep-20",
      "name": "KÜNDEŞ ECZANESİ",
      "address": "Sultan Selim Mah. Araban Caddesi No:56/2D",
      "phone": "05434606056",
      "district": "Yavuzeli̇",
      "city": "Gaziantep",
      "latitude": 37.06675232813354,
      "longitude": 37.38321304321289,
      "dutyStart": "2026-02-21T08:30:00.000Z",
      "dutyEnd": "2026-02-22T08:30:00.000Z"
    }
  ]
}