{
  "city": "istanbul",
  "cityName": "İstanbul",
  "cityId": 34,
  "date": "2026-02-21",
  "updatedAt": "2026-02-21T15:30:48.533Z",
  "count": 132,
  "pharmacies": [
    {
      "id": "istanbul-21198",
      "name": "ACAR ECZANESİ",
      "address": "Cami Mahallesi, İstasyon Caddesi, 102",
      "phone": "+902164468378",
      "district": "TUZLA",
      "city": "İstanbul",
      "latitude": 40.820912797199604,
      "longitude": 29.308627312114993,
      "dutyStart": "2026-02-20T21:00:00.000Z",
      "dutyEnd": "2026-02-21T20:59:59.000Z"
    },
    {
      "id": "istanbul-12444",
      "name": "AK ECZANESİ",
      "address": "Soğuksu Mahallesi, Mehmet Akif Ersoy Caddesi, 107",
      "phone": "+902164256819",
      "district": "BEYKOZ",
      "city": "İstanbul",
      "latitude": 41.114170587999666,
      "longitude": 29.108031625699137,
      "dutyStart": "2026-02-20T21:00:00.000Z",
      "dutyEnd": "2026-02-21T20:59:59.000Z"
    },
    {
      "id": "istanbul-22904",
      "name": "AKASYA ECZANESİ",
      "address": "Yeni Mahallesi, Nedim Beyazgül Sokak, 5/A",
      "phone": "+902127290059",
      "district": "SİLİVRİ",
      "city": "İstanbul",
      "latitude": 41.07766499998489,
      "longitude": 28.24934799984436,
      "dutyStart": "2026-02-20T21:00:00.000Z",
      "dutyEnd": "2026-02-21T20:59:59.000Z"
    },
    {
      "id": "istanbul-13306",
      "name": "ALPDENİZ ECZANESİ",
      "address": "Halkalı Merkez Mahallesi, 1438. Sokak, No:2AC",
      "phone": "+905063924545",
      "district": "KÜÇÜKÇEKMECE",
      "city": "İstanbul",
      "latitude": 41.02849784403934,
      "longitude": 28.777940372101266,
      "dutyStart": "2026-02-20T21:00:00.000Z",
      "dutyEnd": "2026-02-21T20:59:59.000Z"
    },
    {
      "id": "istanbul-25240",
      "name": "ANADOLU ECZANESİ",
      "address": "Karayolları Mahallesi, 621. Sokak, 42A",
      "phone": "+902126491666",
      "district": "GAZİOSMANPAŞA",
      "city": "İstanbul",
      "latitude": 41.08763926152471,
      "longitude": 28.898197954905193,
      "dutyStart": "2026-02-20T21:00:00.000Z",
      "dutyEnd": "2026-02-21T20:59:59.000Z"
    },
    {
      "id": "istanbul-20772",
      "name": "ATAMAN ECZANESİ",
      "address": "Hamidiye Mahallesi, Barış Yolu Caddesi, 4/6",
      "phone": "+902166420312",
      "district": "ÇEKMEKÖY",
      "city": "İstanbul",
      "latitude": 41.02771424157432,
      "longitude": 29.191349667721706,
      "dutyStart": "2026-02-20T21:00:00.000Z",
      "dutyEnd": "2026-02-21T20:59:59.000Z"
    },
    {
      "id": "istanbul-30146",
      "name": "ATASOY ECZANESİ",
      "address": "Gökevler Mahallesi, Adnan Kahveci Bulvarı, 5 İç Kapı No:153",
      "phone": "+902129990847",
      "district": "ESENYURT",
      "city": "İstanbul",
      "latitude": 41.02283899961255,
      "longitude": 28.63629699993886,
      "dutyStart": "2026-02-20T21:00:00.000Z",
      "dutyEnd": "2026-02-21T20:59:59.000Z"
    },
    {
      "id": "istanbul-21620",
      "name": "ATLAS ECZANESİ",
      "address": "Altıntepe Mahallesi, Bağdat Caddesi, 15-33 AS",
      "phone": "+905422768199",
      "district": "MALTEPE",
      "city": "İstanbul",
      "latitude": 40.952747999741995,
      "longitude": 29.096899000286015,
      "dutyStart": "2026-02-20T21:00:00.000Z",
      "dutyEnd": "2026-02-21T20:59:59.000Z"
    },
    {
      "id": "istanbul-20388",
      "name": "AVAROĞLU ECZANESİ",
      "address": "Kazım Karabekir Mahallesi, Adem Yavuz Caddesi, 18E",
      "phone": "+902166301003",
      "district": "ÜMRANİYE",
      "city": "İstanbul",
      "latitude": 41.03265598979984,
      "longitude": 29.103204604902654,
      "dutyStart": "2026-02-20T21:00:00.000Z",
      "dutyEnd": "2026-02-21T20:59:59.000Z"
    },
    {
      "id": "istanbul-6056",
      "name": "AYAZ ECZANESİ (V)",
      "address": "Telsizler Mahallesi, Boğazkale Sokak, 1/A",
      "phone": "+902122345141",
      "district": "KAĞITHANE",
      "city": "İstanbul",
      "latitude": 41.078451274832766,
      "longitude": 28.99723849238976,
      "dutyStart": "2026-02-20T21:00:00.000Z",
      "dutyEnd": "2026-02-21T20:59:59.000Z"
    },
    {
      "id": "istanbul-20116",
      "name": "AYAZMA ECZANESİ",
      "address": "Dikilitaş Mahallesi, Ayazmaderesi Sokak, No:6/2A",
      "phone": "+902128032515",
      "district": "BEŞİKTAŞ",
      "city": "İstanbul",
      "latitude": 41.057935000358235,
      "longitude": 29.002962000499338,
      "dutyStart": "2026-02-20T21:00:00.000Z",
      "dutyEnd": "2026-02-21T20:59:59.000Z"
    },
    {
      "id": "istanbul-19496",
      "name": "AYLİN ECZANESİ",
      "address": "Muratçeşme Mahallesi, Hünkartepe Caddesi, 36/3",
      "phone": "+902128631704",
      "district": "BÜYÜKÇEKMECE",
      "city": "İstanbul",
      "latitude": 41.01591807509024,
      "longitude": 28.53177725593687,
      "dutyStart": "2026-02-20T21:00:00.000Z",
      "dutyEnd": "2026-02-21T20:59:59.000Z"
    },
    {
      "id": "istanbul-18640",
      "name": "BAHAR ECZANESİ",
      "address": "Doğu Mahallesi, Ortanca Caddesi, 61/A",
      "phone": "+902164834386",
      "district": "PENDİK",
      "city": "İstanbul",
      "latitude": 40.878198640346724,
      "longitude": 29.234633802384717,
      "dutyStart": "2026-02-20T21:00:00.000Z",
      "dutyEnd": "2026-02-21T20:59:59.000Z"
    },
    {
      "id": "istanbul-28822",
      "name": "BAKIRKÖY SEVGİ ECZANESİ",
      "address": "Cevizlik Mahallesi, Kırmızı Şebboy Sokak, 13/A",
      "phone": "+902125437634",
      "district": "BAKIRKÖY",
      "city": "İstanbul",
      "latitude": 40.97738905142022,
      "longitude": 28.877160457907525,
      "dutyStart": "2026-02-20T21:00:00.000Z",
      "dutyEnd": "2026-02-21T20:59:59.000Z"
    },
    {
      "id": "istanbul-34276",
      "name": "BAYAR ECZANESİ",
      "address": "Ataköy 3-4-11.  Kısım Mahallesi, Cevat Dursunoğlu Caddesi, No:24/A",
      "phone": "+902126619414",
      "district": "BAKIRKÖY",
      "city": "İstanbul",
      "latitude": 40.98219699979102,
      "longitude": 28.85985199952156,
      "dutyStart": "2026-02-20T21:00:00.000Z",
      "dutyEnd": "2026-02-21T20:59:59.000Z"
    },
    {
      "id": "istanbul-28722",
      "name": "BAĞ ECZANESİ",
      "address": "Sultançiftliği Mahallesi, Atatürk Caddesi, 63A",
      "phone": "+905523920303",
      "district": "ÇEKMEKÖY",
      "city": "İstanbul",
      "latitude": 41.03465599971448,
      "longitude": 29.21963600028901,
      "dutyStart": "2026-02-20T21:00:00.000Z",
      "dutyEnd": "2026-02-21T20:59:59.000Z"
    },
    {
      "id": "istanbul-26416",
      "name": "BAĞLAR ECZANESİ",
      "address": "Gültepe Mahallesi, Bağlar Caddesi, No:65/A",
      "phone": "+905526985636",
      "district": "KÜÇÜKÇEKMECE",
      "city": "İstanbul",
      "latitude": 40.996076000436794,
      "longitude": 28.791589000088713,
      "dutyStart": "2026-02-20T21:00:00.000Z",
      "dutyEnd": "2026-02-21T20:59:59.000Z"
    },
    {
      "id": "istanbul-13740",
      "name": "BERRAK ECZANESİ",
      "address": "Atalar Mahallesi, Tecerdağı Caddesi, 61/B",
      "phone": "+902163875087",
      "district": "KARTAL",
      "city": "İstanbul",
      "latitude": 40.90588099961679,
      "longitude": 29.17831299955198,
      "dutyStart": "2026-02-20T21:00:00.000Z",
      "dutyEnd": "2026-02-21T20:59:59.000Z"
    },
    {
      "id": "istanbul-30158",
      "name": "BERİL ECZANESİ",
      "address": "Dereağzı Mahallesi, Karacaoğlan Caddesi, 42/1",
      "phone": "+902128805232",
      "district": "BEYLİKDÜZÜ",
      "city": "İstanbul",
      "latitude": 40.986737999825436,
      "longitude": 28.61645300003353,
      "dutyStart": "2026-02-20T21:00:00.000Z",
      "dutyEnd": "2026-02-21T20:59:59.000Z"
    },
    {
      "id": "istanbul-30136",
      "name": "BEŞİKCİ ECZANESİ",
      "address": "Fevzi Çakmak Mahallesi, 2101 Sokak, 6/A",
      "phone": "+902126293498",
      "district": "BAĞCILAR",
      "city": "İstanbul",
      "latitude": 41.05051789651068,
      "longitude": 28.857921921353572,
      "dutyStart": "2026-02-20T21:00:00.000Z",
      "dutyEnd": "2026-02-21T20:59:59.000Z"
    },
    {
      "id": "istanbul-29490",
      "name": "BOĞAZKÖY ŞİFA ECZANESİ",
      "address": "Yunus Emre Mahallesi, 30 Ağustos Caddesi, 98/C",
      "phone": "+902125971808",
      "district": "ARNAVUTKÖY",
      "city": "İstanbul",
      "latitude": 41.184259000414265,
      "longitude": 28.759240000311966,
      "dutyStart": "2026-02-20T21:00:00.000Z",
      "dutyEnd": "2026-02-21T20:59:59.000Z"
    },
    {
      "id": "istanbul-37360",
      "name": "BURCU ŞİFA ECZANESİ",
      "address": "Turgutreis Mahallesi, İbrahim Hakkı Sokak, 15/B",
      "phone": "+902167715051",
      "district": "SULTANBEYLİ",
      "city": "İstanbul",
      "latitude": 40.96678299971916,
      "longitude": 29.280146999637832,
      "dutyStart": "2026-02-20T21:00:00.000Z",
      "dutyEnd": "2026-02-21T20:59:59.000Z"
    },
    {
      "id": "istanbul-2338",
      "name": "BURGAZADA ECZANESİ",
      "address": "Burgazadası Mahallesi, Çınarlık Sokak, 3",
      "phone": "+902163812112",
      "district": "ADALAR",
      "city": "İstanbul",
      "latitude": 40.87998754997831,
      "longitude": 29.06919493887321,
      "dutyStart": "2026-02-20T21:00:00.000Z",
      "dutyEnd": "2026-02-21T20:59:59.000Z"
    },
    {
      "id": "istanbul-29192",
      "name": "BUSE MELEK ECZANESİ",
      "address": "Eyüp Sultan Mahallesi, Mehmet Akif Caddesi, 29-31A",
      "phone": "+905521867464",
      "district": "SANCAKTEPE",
      "city": "İstanbul",
      "latitude": 40.97805800009782,
      "longitude": 29.21579099989208,
      "dutyStart": "2026-02-20T21:00:00.000Z",
      "dutyEnd": "2026-02-21T20:59:59.000Z"
    },
    {
      "id": "istanbul-30648",
      "name": "BİLGE ECZANESİ",
      "address": "Sarıgazi Mahallesi, Topçular Caddesi, 3A",
      "phone": "+905063238736",
      "district": "SANCAKTEPE",
      "city": "İstanbul",
      "latitude": 41.005631000122264,
      "longitude": 29.211515000286848,
      "dutyStart": "2026-02-20T21:00:00.000Z",
      "dutyEnd": "2026-02-21T20:59:59.000Z"
    },
    {
      "id": "istanbul-17058",
      "name": "BİRBEN ECZANESİ",
      "address": "Seyit Nizam Mahallesi, Balıklı Çırpıcı Yolu Sokak, 15",
      "phone": "+902124150474",
      "district": "ZEYTİNBURNU",
      "city": "İstanbul",
      "latitude": 41.00759194631932,
      "longitude": 28.908198428377563,
      "dutyStart": "2026-02-20T21:00:00.000Z",
      "dutyEnd": "2026-02-21T20:59:59.000Z"
    },
    {
      "id": "istanbul-31042",
      "name": "CAN ECZANESİ",
      "address": "Alibey Mahallesi, Turgut Özal Bulvarı, 15/A",
      "phone": "+902127281191",
      "district": "SİLİVRİ",
      "city": "İstanbul",
      "latitude": 41.072028999796736,
      "longitude": 28.257846000382195,
      "dutyStart": "2026-02-20T21:00:00.000Z",
      "dutyEnd": "2026-02-21T20:59:59.000Z"
    },
    {
      "id": "istanbul-16682",
      "name": "CAN ŞİFA ECZANESİ",
      "address": "Bağlarbaşı Mahallesi, Feyzullah Caddesi, 26/C",
      "phone": "+902163527418",
      "district": "MALTEPE",
      "city": "İstanbul",
      "latitude": 40.924737790280325,
      "longitude": 29.135185896268478,
      "dutyStart": "2026-02-20T21:00:00.000Z",
      "dutyEnd": "2026-02-21T20:59:59.000Z"
    },
    {
      "id": "istanbul-23756",
      "name": "CANPARK ECZANESİ",
      "address": "Yamanevler Mahallesi, Alemdağ Caddesi, 169",
      "phone": "+902165104248",
      "district": "ÜMRANİYE",
      "city": "İstanbul",
      "latitude": 41.025063306223686,
      "longitude": 29.10579748136075,
      "dutyStart": "2026-02-20T21:00:00.000Z",
      "dutyEnd": "2026-02-21T20:59:59.000Z"
    },
    {
      "id": "istanbul-3666",
      "name": "CEM ECZANESİ",
      "address": "Bebek Mahallesi, Cevdet Paşa Sokak, 43/A",
      "phone": "+902122633072",
      "district": "BEŞİKTAŞ",
      "city": "İstanbul",
      "latitude": 41.07597583126172,
      "longitude": 29.04294725380835,
      "dutyStart": "2026-02-20T21:00:00.000Z",
      "dutyEnd": "2026-02-21T20:59:59.000Z"
    },
    {
      "id": "istanbul-34646",
      "name": "CEMAL ECZANESİ",
      "address": "Emek Mahallesi, Namık Kemal Caddesi, 113/E",
      "phone": "+905375847992",
      "district": "SANCAKTEPE",
      "city": "İstanbul",
      "latitude": 41.004992000025034,
      "longitude": 29.196064000094513,
      "dutyStart": "2026-02-20T21:00:00.000Z",
      "dutyEnd": "2026-02-21T20:59:59.000Z"
    },
    {
      "id": "istanbul-9164",
      "name": "CEYLAN ECZANESİ",
      "address": "Fatih Mahallesi Aksaray Caddesi 16/A",
      "phone": "+902125690529",
      "district": "ESENLER",
      "city": "İstanbul",
      "latitude": 41.03933718788213,
      "longitude": 28.870038709504367,
      "dutyStart": "2026-02-20T21:00:00.000Z",
      "dutyEnd": "2026-02-21T20:59:59.000Z"
    },
    {
      "id": "istanbul-13222",
      "name": "CİHAN ECZANESİ",
      "address": "Fetihtepe Mahallesi, Dereiçi Sokak, 226-C",
      "phone": "+902122553872",
      "district": "BEYOĞLU",
      "city": "İstanbul",
      "latitude": 41.052985276014624,
      "longitude": 28.958467595018252,
      "dutyStart": "2026-02-20T21:00:00.000Z",
      "dutyEnd": "2026-02-21T20:59:59.000Z"
    },
    {
      "id": "istanbul-25024",
      "name": "DEMİR ECZANESİ",
      "address": "Üniversite Mahallesi, Mareşal Caddesi, 18B-18C",
      "phone": "+902125932105",
      "district": "AVCILAR",
      "city": "İstanbul",
      "latitude": 40.99711800035068,
      "longitude": 28.707721999715513,
      "dutyStart": "2026-02-20T21:00:00.000Z",
      "dutyEnd": "2026-02-21T20:59:59.000Z"
    },
    {
      "id": "istanbul-11452",
      "name": "DENİZ ECZANESİ",
      "address": "Akat Mahallesi, Selçuklar Sokak, 13/B",
      "phone": "+902123514307",
      "district": "BEŞİKTAŞ",
      "city": "İstanbul",
      "latitude": 41.0780814428223,
      "longitude": 29.026658649320467,
      "dutyStart": "2026-02-20T21:00:00.000Z",
      "dutyEnd": "2026-02-21T20:59:59.000Z"
    },
    {
      "id": "istanbul-6638",
      "name": "DENİZ ECZANESİ",
      "address": "Kınalıada Mahallesi, İskele Sokak, 3/B",
      "phone": "+902163815181",
      "district": "ADALAR",
      "city": "İstanbul",
      "latitude": 40.91038290210339,
      "longitude": 29.05476093340845,
      "dutyStart": "2026-02-20T21:00:00.000Z",
      "dutyEnd": "2026-02-21T20:59:59.000Z"
    },
    {
      "id": "istanbul-34210",
      "name": "DOĞAPARK ECZANESİ",
      "address": "Sahrayıcedit Mahallesi, Halk Sokak, 8/A-B",
      "phone": "+902163603797",
      "district": "KADIKÖY",
      "city": "İstanbul",
      "latitude": 40.98494099987764,
      "longitude": 29.086073999922682,
      "dutyStart": "2026-02-20T21:00:00.000Z",
      "dutyEnd": "2026-02-21T20:59:59.000Z"
    },
    {
      "id": "istanbul-28320",
      "name": "DİDEM ECZANESİ",
      "address": "75. Yıl Mahallesi, 1335. Sokak, 44/A",
      "phone": "+902125365045",
      "district": "SULTANGAZİ",
      "city": "İstanbul",
      "latitude": 41.098923999693845,
      "longitude": 28.90017699994503,
      "dutyStart": "2026-02-20T21:00:00.000Z",
      "dutyEnd": "2026-02-21T20:59:59.000Z"
    },
    {
      "id": "istanbul-19126",
      "name": "DİLA ECZANESİ",
      "address": "Fevzi Çakmak Mahallesi, Cengiz Topel Caddesi, 168/B",
      "phone": "+902125636997",
      "district": "GAZİOSMANPAŞA",
      "city": "İstanbul",
      "latitude": 41.0716004366585,
      "longitude": 28.90139624487678,
      "dutyStart": "2026-02-20T21:00:00.000Z",
      "dutyEnd": "2026-02-21T20:59:59.000Z"
    },
    {
      "id": "istanbul-29690",
      "name": "ECEM ECZANESİ",
      "address": "Cevatpaşa Mahallesi, Eski Edirne Asfaltı Sokak, NO:377/A",
      "phone": "+902124793258",
      "district": "BAYRAMPAŞA",
      "city": "İstanbul",
      "latitude": 41.072736000009,
      "longitude": 28.88732200015493,
      "dutyStart": "2026-02-20T21:00:00.000Z",
      "dutyEnd": "2026-02-21T20:59:59.000Z"
    },
    {
      "id": "istanbul-20056",
      "name": "ECZANE BEHİCE",
      "address": "Saray Mahallesi, Alemdağ Caddesi, Sezer Sokak, 7/1",
      "phone": "+902166320636",
      "district": "ÜMRANİYE",
      "city": "İstanbul",
      "latitude": 41.021973146169984,
      "longitude": 29.12004194859514,
      "dutyStart": "2026-02-20T21:00:00.000Z",
      "dutyEnd": "2026-02-21T20:59:59.000Z"
    },
    {
      "id": "istanbul-24136",
      "name": "ECZANE SEVTAP",
      "address": "Süleymaniye Mahallesi, Hacı Bektaş Veli Caddesi, 41/A",
      "phone": "+902126202000",
      "district": "ESENYURT",
      "city": "İstanbul",
      "latitude": 41.04301655834609,
      "longitude": 28.681359887581596,
      "dutyStart": "2026-02-20T21:00:00.000Z",
      "dutyEnd": "2026-02-21T20:59:59.000Z"
    },
    {
      "id": "istanbul-24966",
      "name": "EDA NUR ECZANESİ",
      "address": "Mehterçeşme Mahallesi, Ufuk Caddesi, 72A",
      "phone": "+902128533589",
      "district": "ESENYURT",
      "city": "İstanbul",
      "latitude": 41.01818815649998,
      "longitude": 28.660987864585167,
      "dutyStart": "2026-02-20T21:00:00.000Z",
      "dutyEnd": "2026-02-21T20:59:59.000Z"
    },
    {
      "id": "istanbul-19116",
      "name": "EGEM ECZANESİ",
      "address": "Mimar Sinan Mahallesi, Başak Sokak (G.74 Sk.), 10A/10B",
      "phone": "+905522451426",
      "district": "TUZLA",
      "city": "İstanbul",
      "latitude": 40.840346267875596,
      "longitude": 29.36020992089113,
      "dutyStart": "2026-02-20T21:00:00.000Z",
      "dutyEnd": "2026-02-21T20:59:59.000Z"
    },
    {
      "id": "istanbul-24074",
      "name": "EKŞİNAR ECZANESİ",
      "address": "Şenlikköy Mahallesi, Florya Caddesi, 59C",
      "phone": "+902126011144",
      "district": "BAKIRKÖY",
      "city": "İstanbul",
      "latitude": 40.98517120219209,
      "longitude": 28.795836308254124,
      "dutyStart": "2026-02-20T21:00:00.000Z",
      "dutyEnd": "2026-02-21T20:59:59.000Z"
    },
    {
      "id": "istanbul-23604",
      "name": "ELMA ECZANESİ",
      "address": "Barış Mahallesi Akdeniz Caddesi 15",
      "phone": "+902128739686",
      "district": "BEYLİKDÜZÜ",
      "city": "İstanbul",
      "latitude": 41.00487386070213,
      "longitude": 28.65653596950997,
      "dutyStart": "2026-02-20T21:00:00.000Z",
      "dutyEnd": "2026-02-21T20:59:59.000Z"
    },
    {
      "id": "istanbul-9060",
      "name": "ERBİL ECZANESİ",
      "address": "Ferhatpaşa Mahallesi, Mescit Sokak, 28",
      "phone": "+902127892011",
      "district": "ÇATALCA",
      "city": "İstanbul",
      "latitude": 41.14280885733702,
      "longitude": 28.459756201022543,
      "dutyStart": "2026-02-20T21:00:00.000Z",
      "dutyEnd": "2026-02-21T20:59:59.000Z"
    },
    {
      "id": "istanbul-14364",
      "name": "ERDİL ECZANESİ",
      "address": "Mehmet Akif Mahallesi, Onur Sokak, 44/A",
      "phone": "+902126116482",
      "district": "KÜÇÜKÇEKMECE",
      "city": "İstanbul",
      "latitude": 41.057638397783215,
      "longitude": 28.80097252343508,
      "dutyStart": "2026-02-20T21:00:00.000Z",
      "dutyEnd": "2026-02-21T20:59:59.000Z"
    },
    {
      "id": "istanbul-28850",
      "name": "ESRA ECZANESİ",
      "address": "Dizdariye Mahallesi, Karaağaç Sokak, 1/A",
      "phone": "+902128820282",
      "district": "BÜYÜKÇEKMECE",
      "city": "İstanbul",
      "latitude": 41.023781952719816,
      "longitude": 28.581769000249057,
      "dutyStart": "2026-02-20T21:00:00.000Z",
      "dutyEnd": "2026-02-21T20:59:59.000Z"
    },
    {
      "id": "istanbul-16530",
      "name": "EVRİM ECZANESİ",
      "address": "Mustafa Kemal Mahallesi, 3001. Caddesi, 75/B",
      "phone": "+902164725526",
      "district": "ATAŞEHİR",
      "city": "İstanbul",
      "latitude": 41.00399099989998,
      "longitude": 29.093485999934707,
      "dutyStart": "2026-02-20T21:00:00.000Z",
      "dutyEnd": "2026-02-21T20:59:59.000Z"
    },
    {
      "id": "istanbul-34308",
      "name": "FLORA ECZANESİ",
      "address": "Göktürk Merkez Mahallesi, Göktürk Caddesi, No:45/2",
      "phone": "+902123222276",
      "district": "EYÜPSULTAN",
      "city": "İstanbul",
      "latitude": 41.1816214328078,
      "longitude": 28.88921791729929,
      "dutyStart": "2026-02-20T21:00:00.000Z",
      "dutyEnd": "2026-02-21T20:59:59.000Z"
    },
    {
      "id": "istanbul-14920",
      "name": "FUAYE ECZANESİ",
      "address": "Zümrütevler Mahallesi, Ertuğrul Gazi Caddesi, No: 10/ Dükkan No:2",
      "phone": "+902162901880",
      "district": "MALTEPE",
      "city": "İstanbul",
      "latitude": 40.94989800233927,
      "longitude": 29.163895000373437,
      "dutyStart": "2026-02-20T21:00:00.000Z",
      "dutyEnd": "2026-02-21T20:59:59.000Z"
    },
    {
      "id": "istanbul-37476",
      "name": "GECE ECZANESİ",
      "address": "Kozyatağı Mahallesi, Şemsettin Günaltay Caddesi, 44-A",
      "phone": "+905397095755",
      "district": "KADIKÖY",
      "city": "İstanbul",
      "latitude": 40.96156699969841,
      "longitude": 29.093063000364296,
      "dutyStart": "2026-02-20T21:00:00.000Z",
      "dutyEnd": "2026-02-21T20:59:59.000Z"
    },
    {
      "id": "istanbul-6170",
      "name": "GÖKSU ECZANESİ",
      "address": "Göksu Mahallesi, Göksu Caddesi, 60A",
      "phone": "+902163321046",
      "district": "BEYKOZ",
      "city": "İstanbul",
      "latitude": 41.0792984503336,
      "longitude": 29.074913529498136,
      "dutyStart": "2026-02-20T21:00:00.000Z",
      "dutyEnd": "2026-02-21T20:59:59.000Z"
    },
    {
      "id": "istanbul-36312",
      "name": "GÖRAL ECZANESİ",
      "address": "Esentepe Mahallesi, 2418. Sokak, No:61/63A",
      "phone": "+902124793425",
      "district": "SULTANGAZİ",
      "city": "İstanbul",
      "latitude": 41.10130899956287,
      "longitude": 28.881303999639307,
      "dutyStart": "2026-02-20T21:00:00.000Z",
      "dutyEnd": "2026-02-21T20:59:59.000Z"
    },
    {
      "id": "istanbul-26998",
      "name": "GÖZDEM ECZANESİ",
      "address": "Cennet Mahallesi, Yahya Kemal Beyatlı Caddesi, 4B",
      "phone": "+905448233377",
      "district": "KÜÇÜKÇEKMECE",
      "city": "İstanbul",
      "latitude": 40.991802000400085,
      "longitude": 28.77826700023086,
      "dutyStart": "2026-02-20T21:00:00.000Z",
      "dutyEnd": "2026-02-21T20:59:59.000Z"
    },
    {
      "id": "istanbul-14356",
      "name": "GÜL ECZANESİ",
      "address": "Abdurrahman Nafiz Gürman Mahallesi, Kınalıtepe Sokak, 25/27 D",
      "phone": "+902125045486",
      "district": "GÜNGÖREN",
      "city": "İstanbul",
      "latitude": 41.00473300008071,
      "longitude": 28.887960000363407,
      "dutyStart": "2026-02-20T21:00:00.000Z",
      "dutyEnd": "2026-02-21T20:59:59.000Z"
    },
    {
      "id": "istanbul-16276",
      "name": "GÜNEŞ MASLAK ECZANESİ",
      "address": "Çamlıtepe Mahallesi, Akgün Sokak, 10/A",
      "phone": "+902122586878",
      "district": "SARIYER",
      "city": "İstanbul",
      "latitude": 41.12841599978445,
      "longitude": 29.02666900028747,
      "dutyStart": "2026-02-20T21:00:00.000Z",
      "dutyEnd": "2026-02-21T20:59:59.000Z"
    },
    {
      "id": "istanbul-19030",
      "name": "GÜNEŞLİ İPEK ECZANESİ",
      "address": "15 Temmuz Mahallesi, Fevzi Çakmak Caddesi, 37/A",
      "phone": "+902126555411",
      "district": "BAĞCILAR",
      "city": "İstanbul",
      "latitude": 41.03483200027941,
      "longitude": 28.822724000389538,
      "dutyStart": "2026-02-20T21:00:00.000Z",
      "dutyEnd": "2026-02-21T20:59:59.000Z"
    },
    {
      "id": "istanbul-21716",
      "name": "HADIMKÖY ECZANESİ",
      "address": "Hastane Mahallesi Ayasofya Caddesi 9/A",
      "phone": "+902127712325",
      "district": "ARNAVUTKÖY",
      "city": "İstanbul",
      "latitude": 41.15590215538701,
      "longitude": 28.621677730009484,
      "dutyStart": "2026-02-20T21:00:00.000Z",
      "dutyEnd": "2026-02-21T20:59:59.000Z"
    },
    {
      "id": "istanbul-25424",
      "name": "HALK ECZANESİ",
      "address": "Battalgazi Mahallesi, Cumhuriyet Caddesi, 23/A",
      "phone": "+902126896869",
      "district": "ESENYURT",
      "city": "İstanbul",
      "latitude": 41.03827399987501,
      "longitude": 28.654129000056948,
      "dutyStart": "2026-02-20T21:00:00.000Z",
      "dutyEnd": "2026-02-21T20:59:59.000Z"
    },
    {
      "id": "istanbul-29032",
      "name": "HALİLOĞLU  ECZANESİ",
      "address": "Muratpaşa Mahallesi, 106. Sokak, 11/A",
      "phone": "+902126149990",
      "district": "BAYRAMPAŞA",
      "city": "İstanbul",
      "latitude": 41.053555999702745,
      "longitude": 28.907911999526895,
      "dutyStart": "2026-02-20T21:00:00.000Z",
      "dutyEnd": "2026-02-21T20:59:59.000Z"
    },
    {
      "id": "istanbul-6296",
      "name": "HEYBELİADA ECZANESİ",
      "address": "Heybeliada Mahallesi, Ayyıldız Caddesi, No:25/D",
      "phone": "+902163518415",
      "district": "ADALAR",
      "city": "İstanbul",
      "latitude": 40.87751817989951,
      "longitude": 29.1001562048735,
      "dutyStart": "2026-02-20T21:00:00.000Z",
      "dutyEnd": "2026-02-21T20:59:59.000Z"
    },
    {
      "id": "istanbul-29420",
      "name": "HOROZ ECZANESİ",
      "address": "Sultançiftliği Mahallesi, Eski Edirne Asfaltı Caddesi, 567/A",
      "phone": "+902128091219",
      "district": "SULTANGAZİ",
      "city": "İstanbul",
      "latitude": 41.09910416912684,
      "longitude": 28.862824386285332,
      "dutyStart": "2026-02-20T21:00:00.000Z",
      "dutyEnd": "2026-02-21T20:59:59.000Z"
    },
    {
      "id": "istanbul-18660",
      "name": "HİZMET ECZANESİ",
      "address": "Çamlık Mahallesi, Selçuklu Caddesi, 24C",
      "phone": "+902166464607",
      "district": "PENDİK",
      "city": "İstanbul",
      "latitude": 40.92359173957436,
      "longitude": 29.290588967624107,
      "dutyStart": "2026-02-20T21:00:00.000Z",
      "dutyEnd": "2026-02-21T20:59:59.000Z"
    },
    {
      "id": "istanbul-27768",
      "name": "IRMAK ECZANESİ",
      "address": "Bahçelievler Mahallesi, Zübeyde Hanım Caddesi, 38/2",
      "phone": "+908502027834",
      "district": "ÜSKÜDAR",
      "city": "İstanbul",
      "latitude": 41.054140499916166,
      "longitude": 29.075708030164265,
      "dutyStart": "2026-02-20T21:00:00.000Z",
      "dutyEnd": "2026-02-21T20:59:59.000Z"
    },
    {
      "id": "istanbul-18564",
      "name": "IŞIK ECZANESİ",
      "address": "Kocasinan Merkez Mahallesi, Ara Sokak, 4/A",
      "phone": "+902125709482",
      "district": "BAHÇELİEVLER",
      "city": "İstanbul",
      "latitude": 41.00997299974016,
      "longitude": 28.84446400031248,
      "dutyStart": "2026-02-20T21:00:00.000Z",
      "dutyEnd": "2026-02-21T20:59:59.000Z"
    },
    {
      "id": "istanbul-18000",
      "name": "IŞIL ECZANESİ",
      "address": "Mimar Sinan Mahallesi, Atatürk Caddesi, 33/A",
      "phone": "+902126108683",
      "district": "ESENLER",
      "city": "İstanbul",
      "latitude": 41.0340220021709,
      "longitude": 28.887766999597396,
      "dutyStart": "2026-02-20T21:00:00.000Z",
      "dutyEnd": "2026-02-21T20:59:59.000Z"
    },
    {
      "id": "istanbul-17494",
      "name": "KARDELEN ECZANESİ",
      "address": "Fevzi Çakmak Mahallesi Selanik Sokak 5-F",
      "phone": "+902163964500",
      "district": "PENDİK",
      "city": "İstanbul",
      "latitude": 40.88671848430975,
      "longitude": 29.260214100367108,
      "dutyStart": "2026-02-20T21:00:00.000Z",
      "dutyEnd": "2026-02-21T20:59:59.000Z"
    },
    {
      "id": "istanbul-22000",
      "name": "KARTAL ECZANESİ",
      "address": "Gümüşpınar Mahallesi, Defneli Caddesi, 4/1A",
      "phone": "+902164880045",
      "district": "KARTAL",
      "city": "İstanbul",
      "latitude": 40.918482256898734,
      "longitude": 29.205290608889044,
      "dutyStart": "2026-02-20T21:00:00.000Z",
      "dutyEnd": "2026-02-21T20:59:59.000Z"
    },
    {
      "id": "istanbul-30928",
      "name": "KELEBEK ECZANESİ",
      "address": "Kanarya Mahallesi, Şahin Caddesi, No:45/C",
      "phone": "+902128062114",
      "district": "KÜÇÜKÇEKMECE",
      "city": "İstanbul",
      "latitude": 41.01081457614943,
      "longitude": 28.780057956471893,
      "dutyStart": "2026-02-20T21:00:00.000Z",
      "dutyEnd": "2026-02-21T20:59:59.000Z"
    },
    {
      "id": "istanbul-22086",
      "name": "KENT ECZANESİ",
      "address": "Siyavuşpaşa Mahallesi, Barbaros Caddesi, 40/A",
      "phone": "+902124424642",
      "district": "BAHÇELİEVLER",
      "city": "İstanbul",
      "latitude": 40.999171477661775,
      "longitude": 28.85228685980811,
      "dutyStart": "2026-02-20T21:00:00.000Z",
      "dutyEnd": "2026-02-21T20:59:59.000Z"
    },
    {
      "id": "istanbul-19488",
      "name": "MAVİ ECZANESİ",
      "address": "Bahçeşehir 1.  Kısım Mahallesi Kemal Sunal Caddesi 2/2B",
      "phone": "+902126695951",
      "district": "BAŞAKŞEHİR",
      "city": "İstanbul",
      "latitude": 41.06336971133635,
      "longitude": 28.6880623000404,
      "dutyStart": "2026-02-20T21:00:00.000Z",
      "dutyEnd": "2026-02-21T20:59:59.000Z"
    },
    {
      "id": "istanbul-11200",
      "name": "MEHMET ANADOLU ECZANESİ",
      "address": "Atatürk Mahallesi, Sütçü İmam Caddesi, 17/A",
      "phone": "+902163289420",
      "district": "ÜMRANİYE",
      "city": "İstanbul",
      "latitude": 41.02420000014593,
      "longitude": 29.086127999731946,
      "dutyStart": "2026-02-20T21:00:00.000Z",
      "dutyEnd": "2026-02-21T20:59:59.000Z"
    },
    {
      "id": "istanbul-33748",
      "name": "MELİKE ECZANESİ",
      "address": "Halkalı Merkez Mahallesi, 1. İkitelli Caddesi, 23E",
      "phone": "+905011821335",
      "district": "KÜÇÜKÇEKMECE",
      "city": "İstanbul",
      "latitude": 41.03817199981721,
      "longitude": 28.78794199994199,
      "dutyStart": "2026-02-20T21:00:00.000Z",
      "dutyEnd": "2026-02-21T20:59:59.000Z"
    },
    {
      "id": "istanbul-31328",
      "name": "MELİS HANLI ECZANESİ",
      "address": "Erenköy Mahallesi, Ömerpaşa Sokak, 54/A",
      "phone": "+902165507777",
      "district": "KADIKÖY",
      "city": "İstanbul",
      "latitude": 40.974279000325055,
      "longitude": 29.07037200018141,
      "dutyStart": "2026-02-20T21:00:00.000Z",
      "dutyEnd": "2026-02-21T20:59:59.000Z"
    },
    {
      "id": "istanbul-17892",
      "name": "MELİSSA ECZANESİ",
      "address": "Atatürk Mahallesi, Ataşehir Bulvarı, 10H",
      "phone": "+902164554886",
      "district": "ATAŞEHİR",
      "city": "İstanbul",
      "latitude": 40.992491783291825,
      "longitude": 29.12105441071158,
      "dutyStart": "2026-02-20T21:00:00.000Z",
      "dutyEnd": "2026-02-21T20:59:59.000Z"
    },
    {
      "id": "istanbul-8680",
      "name": "MERKEZ ECZANESİ",
      "address": "Nizam Mahallesi, 23 Nisan Caddesi, 12",
      "phone": "+902163826392",
      "district": "ADALAR",
      "city": "İstanbul",
      "latitude": 40.87385668832126,
      "longitude": 29.127998108028326,
      "dutyStart": "2026-02-20T21:00:00.000Z",
      "dutyEnd": "2026-02-21T20:59:59.000Z"
    },
    {
      "id": "istanbul-30204",
      "name": "MEVSİM ECZANESİ",
      "address": "Göztepe Mahallesi, Maslak Caddesi, 137/138",
      "phone": "+902128905431",
      "district": "BAĞCILAR",
      "city": "İstanbul",
      "latitude": 41.05353942512025,
      "longitude": 28.831592936824574,
      "dutyStart": "2026-02-20T21:00:00.000Z",
      "dutyEnd": "2026-02-21T20:59:59.000Z"
    },
    {
      "id": "istanbul-8260",
      "name": "MEYDAN ECZANESİ",
      "address": "Sultan Selim Mahallesi, Şen Kardeşler Sokak, 15A",
      "phone": "+902122846576",
      "district": "KAĞITHANE",
      "city": "İstanbul",
      "latitude": 41.08954992860912,
      "longitude": 28.99956081106412,
      "dutyStart": "2026-02-20T21:00:00.000Z",
      "dutyEnd": "2026-02-21T20:59:59.000Z"
    },
    {
      "id": "istanbul-36022",
      "name": "MODA SAHİL ECZANESİ",
      "address": "Caferağa Mahallesi, Ferittek Sokak, 60/C",
      "phone": "+905330229491",
      "district": "KADIKÖY",
      "city": "İstanbul",
      "latitude": 40.98131179437954,
      "longitude": 29.022739266655535,
      "dutyStart": "2026-02-20T21:00:00.000Z",
      "dutyEnd": "2026-02-21T20:59:59.000Z"
    },
    {
      "id": "istanbul-30706",
      "name": "MİRAY ECZANESİ",
      "address": "Aydınlı Mahallesi, Gürpınar Caddesi, 37B",
      "phone": "+902163932520",
      "district": "TUZLA",
      "city": "İstanbul",
      "latitude": 40.87063515479407,
      "longitude": 29.32918524164853,
      "dutyStart": "2026-02-20T21:00:00.000Z",
      "dutyEnd": "2026-02-21T20:59:59.000Z"
    },
    {
      "id": "istanbul-17398",
      "name": "NAMOĞLU ECZANESİ",
      "address": "Uğur Mumcu Mahallesi, Akşemsettin Caddesi, 52/C",
      "phone": "+902164753385",
      "district": "KARTAL",
      "city": "İstanbul",
      "latitude": 40.93551448017994,
      "longitude": 29.215058642710698,
      "dutyStart": "2026-02-20T21:00:00.000Z",
      "dutyEnd": "2026-02-21T20:59:59.000Z"
    },
    {
      "id": "istanbul-31644",
      "name": "NEFESİM ECZANESİ",
      "address": "İnönü Mahallesi, 19 Mayıs Caddesi, 28/B",
      "phone": "+902164690090",
      "district": "ATAŞEHİR",
      "city": "İstanbul",
      "latitude": 40.976664169641126,
      "longitude": 29.13021620256509,
      "dutyStart": "2026-02-20T21:00:00.000Z",
      "dutyEnd": "2026-02-21T20:59:59.000Z"
    },
    {
      "id": "istanbul-14638",
      "name": "NURAN ECZANESİ",
      "address": "Çukur Mahallesi, Kalyoncu Kulluğu Caddesi, 6",
      "phone": "+905331652225",
      "district": "BEYOĞLU",
      "city": "İstanbul",
      "latitude": 41.03620669705613,
      "longitude": 28.977258282180888,
      "dutyStart": "2026-02-20T21:00:00.000Z",
      "dutyEnd": "2026-02-21T20:59:59.000Z"
    },
    {
      "id": "istanbul-11892",
      "name": "NİŞANCA ECZANESİ",
      "address": "Nişanca Mahallesi, Nazırağa Yokuşu Sokak, 35",
      "phone": "+902125445142",
      "district": "EYÜPSULTAN",
      "city": "İstanbul",
      "latitude": 41.040456810048155,
      "longitude": 28.931145404486404,
      "dutyStart": "2026-02-20T21:00:00.000Z",
      "dutyEnd": "2026-02-21T20:59:59.000Z"
    },
    {
      "id": "istanbul-28820",
      "name": "OSMANBEY ECZANESİ",
      "address": "Halaskargazi Mahallesi, Halaskargazi Caddesi, 82/A",
      "phone": "+902122969296",
      "district": "ŞİŞLİ",
      "city": "İstanbul",
      "latitude": 41.053053000408575,
      "longitude": 28.98754700046188,
      "dutyStart": "2026-02-20T21:00:00.000Z",
      "dutyEnd": "2026-02-21T20:59:59.000Z"
    },
    {
      "id": "istanbul-25058",
      "name": "OĞUZ ECZANESİ",
      "address": "Kadı Mehmet Mahallesi, Değirmen Arkası Sokak, 1A",
      "phone": "+902122383734",
      "district": "BEYOĞLU",
      "city": "İstanbul",
      "latitude": 41.03413940081196,
      "longitude": 28.96574252104757,
      "dutyStart": "2026-02-20T21:00:00.000Z",
      "dutyEnd": "2026-02-21T20:59:59.000Z"
    },
    {
      "id": "istanbul-33514",
      "name": "PAPATYA ECZANESİ",
      "address": "Yeşilpınar Mahallesi, Şükran Sokak, 30/B",
      "phone": "+902126177773",
      "district": "EYÜPSULTAN",
      "city": "İstanbul",
      "latitude": 41.08144958946551,
      "longitude": 28.91612945103271,
      "dutyStart": "2026-02-20T21:00:00.000Z",
      "dutyEnd": "2026-02-21T20:59:59.000Z"
    },
    {
      "id": "istanbul-37372",
      "name": "PINAR ECZANESİ",
      "address": "Adil Mahallesi, Bosna Bulvarı, 33-35C",
      "phone": "+902165153144",
      "district": "SULTANBEYLİ",
      "city": "İstanbul",
      "latitude": 40.97377600031402,
      "longitude": 29.26353700043122,
      "dutyStart": "2026-02-20T21:00:00.000Z",
      "dutyEnd": "2026-02-21T20:59:59.000Z"
    },
    {
      "id": "istanbul-14740",
      "name": "SAFA ECZANESİ",
      "address": "Bağcılar Merkez Mahallesi, 677. Sokak, 21/B",
      "phone": "+902124334130",
      "district": "BAĞCILAR",
      "city": "İstanbul",
      "latitude": 41.03200823556774,
      "longitude": 28.860670757915045,
      "dutyStart": "2026-02-20T21:00:00.000Z",
      "dutyEnd": "2026-02-21T20:59:59.000Z"
    },
    {
      "id": "istanbul-31348",
      "name": "SAKURA ECZANESİ",
      "address": "Kayabaşı Mahallesi, Veysel Karani Caddesi, Park Mavera 3 Sitesi A1 Blok No:7AK ",
      "phone": "+902129249965",
      "district": "BAŞAKŞEHİR",
      "city": "İstanbul",
      "latitude": 41.12277099993234,
      "longitude": 28.77961399983193,
      "dutyStart": "2026-02-20T21:00:00.000Z",
      "dutyEnd": "2026-02-21T20:59:59.000Z"
    },
    {
      "id": "istanbul-27682",
      "name": "SAMATYA ARUÇ ECZANESİ",
      "address": "Kocamustafapaşa Mahallesi, Pulcu Sokak, 28/A",
      "phone": "+902125894043",
      "district": "FATİH",
      "city": "İstanbul",
      "latitude": 41.00028461350795,
      "longitude": 28.931099224410183,
      "dutyStart": "2026-02-20T21:00:00.000Z",
      "dutyEnd": "2026-02-21T20:59:59.000Z"
    },
    {
      "id": "istanbul-30280",
      "name": "SANCAKTEPE ECZANESİ",
      "address": "Safa Mahallesi, Takva Caddesi, 16/A-B",
      "phone": "+905466572939",
      "district": "SANCAKTEPE",
      "city": "İstanbul",
      "latitude": 41.0090023014588,
      "longitude": 29.24884259852099,
      "dutyStart": "2026-02-20T21:00:00.000Z",
      "dutyEnd": "2026-02-21T20:59:59.000Z"
    },
    {
      "id": "istanbul-28386",
      "name": "SEDEF ECZANESİ",
      "address": "Arnavutköy Merkez Mahallesi, Demircan Sokak, 25/A",
      "phone": "+902128435173",
      "district": "ARNAVUTKÖY",
      "city": "İstanbul",
      "latitude": 41.18139017168494,
      "longitude": 28.73719177867101,
      "dutyStart": "2026-02-20T21:00:00.000Z",
      "dutyEnd": "2026-02-21T20:59:59.000Z"
    },
    {
      "id": "istanbul-4410",
      "name": "SEVGİ ECZANESİ",
      "address": "Fulya Mahallesi Ortaklar Caddesi Galip Bey Sok. No:6 B",
      "phone": "+902122124253",
      "district": "ŞİŞLİ",
      "city": "İstanbul",
      "latitude": 41.06267775857916,
      "longitude": 28.998682751247454,
      "dutyStart": "2026-02-20T21:00:00.000Z",
      "dutyEnd": "2026-02-21T20:59:59.000Z"
    },
    {
      "id": "istanbul-27742",
      "name": "SİTE ECZANESİ",
      "address": "Yakuplu Mahallesi, 176. Sokak, 1/3",
      "phone": "+902129248151",
      "district": "BEYLİKDÜZÜ",
      "city": "İstanbul",
      "latitude": 41.000694926516935,
      "longitude": 28.675172254341984,
      "dutyStart": "2026-02-20T21:00:00.000Z",
      "dutyEnd": "2026-02-21T20:59:59.000Z"
    },
    {
      "id": "istanbul-21262",
      "name": "TAN ECZANESİ",
      "address": "Reşitpaşa Mahallesi, Eski Büyükdere Caddesi, 26/2",
      "phone": "+902125103334",
      "district": "SARIYER",
      "city": "İstanbul",
      "latitude": 41.108355000410555,
      "longitude": 29.01952700006674,
      "dutyStart": "2026-02-20T21:00:00.000Z",
      "dutyEnd": "2026-02-21T20:59:59.000Z"
    },
    {
      "id": "istanbul-30024",
      "name": "TERECE ECZANESİ",
      "address": "Caddebostan Mahallesi, Bağdat Caddesi, 350/A",
      "phone": "+902163605059",
      "district": "KADIKÖY",
      "city": "İstanbul",
      "latitude": 40.964223000208676,
      "longitude": 29.07322000020635,
      "dutyStart": "2026-02-20T21:00:00.000Z",
      "dutyEnd": "2026-02-21T20:59:59.000Z"
    },
    {
      "id": "istanbul-23986",
      "name": "TERMİNAL KADIKÖY ECZANESİ",
      "address": "Hasanpaşa Mahallesi, Kurbağalıdere Caddesi, No:2/8 İç Kapı No:3",
      "phone": "+902165193484",
      "district": "KADIKÖY",
      "city": "İstanbul",
      "latitude": 40.99172745246742,
      "longitude": 29.037255816857474,
      "dutyStart": "2026-02-20T21:00:00.000Z",
      "dutyEnd": "2026-02-21T20:59:59.000Z"
    },
    {
      "id": "istanbul-4518",
      "name": "UFUK ECZANESİ",
      "address": "Yeşilköy Mahallesi, İstasyon Caddesi, 79/E",
      "phone": "+902126630325",
      "district": "BAKIRKÖY",
      "city": "İstanbul",
      "latitude": 40.95824152495579,
      "longitude": 28.821499173731713,
      "dutyStart": "2026-02-20T21:00:00.000Z",
      "dutyEnd": "2026-02-21T20:59:59.000Z"
    },
    {
      "id": "istanbul-20856",
      "name": "UMUT ECZANESİ",
      "address": "Yıldıztabya Mahallesi, Yıldıztabya Caddesi, 56/A",
      "phone": "+902125450052",
      "district": "GAZİOSMANPAŞA",
      "city": "İstanbul",
      "latitude": 41.06219413567141,
      "longitude": 28.92905840219457,
      "dutyStart": "2026-02-20T21:00:00.000Z",
      "dutyEnd": "2026-02-21T20:59:59.000Z"
    },
    {
      "id": "istanbul-26326",
      "name": "VADİYAKA ECZANESİ",
      "address": "Başakşehir Mahallesi, Şehzade Sokak, 1/1C",
      "phone": "+902128037353",
      "district": "BAŞAKŞEHİR",
      "city": "İstanbul",
      "latitude": 41.112295600554454,
      "longitude": 28.7854973006374,
      "dutyStart": "2026-02-20T21:00:00.000Z",
      "dutyEnd": "2026-02-21T20:59:59.000Z"
    },
    {
      "id": "istanbul-27614",
      "name": "VATAN ECZANESİ",
      "address": "Akşemsettin Mahallesi, Hakperest Sokak, 18/A",
      "phone": "+902126211556",
      "district": "FATİH",
      "city": "İstanbul",
      "latitude": 41.01627045035046,
      "longitude": 28.943575190257423,
      "dutyStart": "2026-02-20T21:00:00.000Z",
      "dutyEnd": "2026-02-21T20:59:59.000Z"
    },
    {
      "id": "istanbul-28220",
      "name": "VİTAMİN ECZANESİ",
      "address": "50. Yıl Mahallesi, C Caddesi, No:43B Zemin Bağımsız Bölüm No:11",
      "phone": "+905360351290",
      "district": "SULTANGAZİ",
      "city": "İstanbul",
      "latitude": 41.092621985888265,
      "longitude": 28.87448266970971,
      "dutyStart": "2026-02-20T21:00:00.000Z",
      "dutyEnd": "2026-02-21T20:59:59.000Z"
    },
    {
      "id": "istanbul-19158",
      "name": "YAĞMUR ECZANESİ",
      "address": "Zeynep Kamil Mahallesi, Dr. Fahri Atabey Caddesi, No:132-B",
      "phone": "+902165303938",
      "district": "ÜSKÜDAR",
      "city": "İstanbul",
      "latitude": 41.01651929200873,
      "longitude": 29.024284717815533,
      "dutyStart": "2026-02-20T21:00:00.000Z",
      "dutyEnd": "2026-02-21T20:59:59.000Z"
    },
    {
      "id": "istanbul-28098",
      "name": "YAŞAM ECZANESİ",
      "address": "Avcılar Merkez Mahallesi, Harmanyeri Sokak, 12/B",
      "phone": "+902125931129",
      "district": "AVCILAR",
      "city": "İstanbul",
      "latitude": 40.97854800034644,
      "longitude": 28.71932800025936,
      "dutyStart": "2026-02-20T21:00:00.000Z",
      "dutyEnd": "2026-02-21T20:59:59.000Z"
    },
    {
      "id": "istanbul-11258",
      "name": "YAŞAM ECZANESİ",
      "address": "Selimpaşa Merkez Mahallesi, Halaskargazi Cad., 31/A",
      "phone": "+902127316038",
      "district": "SİLİVRİ",
      "city": "İstanbul",
      "latitude": 41.055566454111926,
      "longitude": 28.3677121953202,
      "dutyStart": "2026-02-20T21:00:00.000Z",
      "dutyEnd": "2026-02-21T20:59:59.000Z"
    },
    {
      "id": "istanbul-28894",
      "name": "YENİ ATALAR ECZANESİ",
      "address": "Petroliş Mahallesi, Rahvanlar Caddesi, 60A",
      "phone": "+902165176720",
      "district": "KARTAL",
      "city": "İstanbul",
      "latitude": 40.90008800041351,
      "longitude": 29.175610000584026,
      "dutyStart": "2026-02-20T21:00:00.000Z",
      "dutyEnd": "2026-02-21T20:59:59.000Z"
    },
    {
      "id": "istanbul-28194",
      "name": "YENİ ECZANESİ",
      "address": "İnönü Mahallesi, 399. Sokak, 2-4A",
      "phone": "+905398261004",
      "district": "ESENYURT",
      "city": "İstanbul",
      "latitude": 41.02724800019579,
      "longitude": 28.687016000311424,
      "dutyStart": "2026-02-20T21:00:00.000Z",
      "dutyEnd": "2026-02-21T20:59:59.000Z"
    },
    {
      "id": "istanbul-24388",
      "name": "YENİ EYLÜL ECZANESİ",
      "address": "Yüzyıl Mahallesi, 2158. Sokak, 15",
      "phone": "+902126290272",
      "district": "BAĞCILAR",
      "city": "İstanbul",
      "latitude": 41.06073940888557,
      "longitude": 28.85356843484265,
      "dutyStart": "2026-02-20T21:00:00.000Z",
      "dutyEnd": "2026-02-21T20:59:59.000Z"
    },
    {
      "id": "istanbul-20838",
      "name": "YENİ HAYAT ECZANESİ",
      "address": "Kartaltepe Mahallesi, Namık Kemal Caddesi, 18A",
      "phone": "+902124262063",
      "district": "KÜÇÜKÇEKMECE",
      "city": "İstanbul",
      "latitude": 41.00260621242072,
      "longitude": 28.799085099091513,
      "dutyStart": "2026-02-20T21:00:00.000Z",
      "dutyEnd": "2026-02-21T20:59:59.000Z"
    },
    {
      "id": "istanbul-22910",
      "name": "YETKİN ECZANESİ",
      "address": "Şehremini Mahallesi, Necip Asım Sokak, 28A",
      "phone": "+902125858515",
      "district": "FATİH",
      "city": "İstanbul",
      "latitude": 41.013416687761335,
      "longitude": 28.933866861802482,
      "dutyStart": "2026-02-20T21:00:00.000Z",
      "dutyEnd": "2026-02-21T20:59:59.000Z"
    },
    {
      "id": "istanbul-25182",
      "name": "YEŞİL VADİ ECZANESİ",
      "address": "Merkez Mahallesi, Seçkin Sokak, Z Ofis No:2-4A İç Kapı No:2",
      "phone": "+902122952138",
      "district": "KAĞITHANE",
      "city": "İstanbul",
      "latitude": 41.076958646725686,
      "longitude": 28.971231647316507,
      "dutyStart": "2026-02-20T21:00:00.000Z",
      "dutyEnd": "2026-02-21T20:59:59.000Z"
    },
    {
      "id": "istanbul-12782",
      "name": "YÜCEL ECZANESİ",
      "address": "Sanayi Mahallesi, Gaziosmanpaşa Caddesi, Neşeli Sok. No:1/3A",
      "phone": "+905340884899",
      "district": "GÜNGÖREN",
      "city": "İstanbul",
      "latitude": 41.01799499990645,
      "longitude": 28.876363000337673,
      "dutyStart": "2026-02-20T21:00:00.000Z",
      "dutyEnd": "2026-02-21T20:59:59.000Z"
    },
    {
      "id": "istanbul-26976",
      "name": "ZEYTİN ECZANESİ",
      "address": "İçerenköy Mahallesi, Aydın Sokak, 26",
      "phone": "+902165766616",
      "district": "ATAŞEHİR",
      "city": "İstanbul",
      "latitude": 40.9722510002008,
      "longitude": 29.11656300006083,
      "dutyStart": "2026-02-20T21:00:00.000Z",
      "dutyEnd": "2026-02-21T20:59:59.000Z"
    },
    {
      "id": "istanbul-24732",
      "name": "ZEYTİNBURNU DOĞA ECZANESİ",
      "address": "Sümer Mahallesi, Şehit Piyade Er Yaşar Yeşilkır Sokak, 19A",
      "phone": "+902126644661",
      "district": "ZEYTİNBURNU",
      "city": "İstanbul",
      "latitude": 40.986077793214534,
      "longitude": 28.89658838456187,
      "dutyStart": "2026-02-20T21:00:00.000Z",
      "dutyEnd": "2026-02-21T20:59:59.000Z"
    },
    {
      "id": "istanbul-28068",
      "name": "ÇAMLICA ŞİFA ECZANESİ",
      "address": "Kısıklı Mahallesi, Alemdağ Yan Yolu Caddesi, 24/B",
      "phone": "+902163299755",
      "district": "ÜSKÜDAR",
      "city": "İstanbul",
      "latitude": 41.02449199979361,
      "longitude": 29.08117000038049,
      "dutyStart": "2026-02-20T21:00:00.000Z",
      "dutyEnd": "2026-02-21T20:59:59.000Z"
    },
    {
      "id": "istanbul-21572",
      "name": "ÇINAR ECZANESİ",
      "address": "Türkoba Mahallesi, Atatürk Caddesi, 247/B",
      "phone": "+902128590710",
      "district": "BÜYÜKÇEKMECE",
      "city": "İstanbul",
      "latitude": 41.03383983802346,
      "longitude": 28.52220334580865,
      "dutyStart": "2026-02-20T21:00:00.000Z",
      "dutyEnd": "2026-02-21T20:59:59.000Z"
    },
    {
      "id": "istanbul-28086",
      "name": "ÇINAR ECZANESİ",
      "address": "Zafer Mahallesi, Ziya Gökalp 1 Sokak, No:8/A",
      "phone": "+902126390017",
      "district": "BAHÇELİEVLER",
      "city": "İstanbul",
      "latitude": 41.0015889996295,
      "longitude": 28.835570000064873,
      "dutyStart": "2026-02-20T21:00:00.000Z",
      "dutyEnd": "2026-02-21T20:59:59.000Z"
    },
    {
      "id": "istanbul-21870",
      "name": "ÇINARLI ECZANESİ",
      "address": "Madenler Mahallesi, Arafat Sokak, 3",
      "phone": "+905306001012",
      "district": "ÜMRANİYE",
      "city": "İstanbul",
      "latitude": 41.01304120419062,
      "longitude": 29.19062299629417,
      "dutyStart": "2026-02-20T21:00:00.000Z",
      "dutyEnd": "2026-02-21T20:59:59.000Z"
    },
    {
      "id": "istanbul-29220",
      "name": "ÖNDER ECZANESİ",
      "address": "Acıbadem Mahallesi, Acıbadem Caddesi, 125/1B",
      "phone": "+902163277131",
      "district": "ÜSKÜDAR",
      "city": "İstanbul",
      "latitude": 41.00705399980371,
      "longitude": 29.047796999681346,
      "dutyStart": "2026-02-20T21:00:00.000Z",
      "dutyEnd": "2026-02-21T20:59:59.000Z"
    },
    {
      "id": "istanbul-27534",
      "name": "ÖZTEKİN ECZANESİ",
      "address": "Molla Hüsrev Mahallesi, Atatürk Bulvarı, 58",
      "phone": "+902125143119",
      "district": "FATİH",
      "city": "İstanbul",
      "latitude": 41.016742176404875,
      "longitude": 28.956712092798103,
      "dutyStart": "2026-02-20T21:00:00.000Z",
      "dutyEnd": "2026-02-21T20:59:59.000Z"
    },
    {
      "id": "istanbul-9634",
      "name": "İFFET ECZANESİ",
      "address": "Bahçelievler Mahallesi, Hacer Hanım Sokak, 15A",
      "phone": "+902124411012",
      "district": "BAHÇELİEVLER",
      "city": "İstanbul",
      "latitude": 40.997876131746295,
      "longitude": 28.86492113879228,
      "dutyStart": "2026-02-20T21:00:00.000Z",
      "dutyEnd": "2026-02-21T20:59:59.000Z"
    },
    {
      "id": "istanbul-15270",
      "name": "İLKYAZ ECZANESİ",
      "address": "Mehmet Akif Mahallesi, Cami Caddesi, 24/A",
      "phone": "+902163980760",
      "district": "SULTANBEYLİ",
      "city": "İstanbul",
      "latitude": 40.965462414975605,
      "longitude": 29.265694432017135,
      "dutyStart": "2026-02-20T21:00:00.000Z",
      "dutyEnd": "2026-02-21T20:59:59.000Z"
    },
    {
      "id": "istanbul-29802",
      "name": "İNCİ ECZANESİ",
      "address": "Yeni Mahalle Mahallesi, Tavukçu Köprü Caddesi, 30/B",
      "phone": "+902126551329",
      "district": "BAĞCILAR",
      "city": "İstanbul",
      "latitude": 41.03955999996399,
      "longitude": 28.84207399994721,
      "dutyStart": "2026-02-20T21:00:00.000Z",
      "dutyEnd": "2026-02-21T20:59:59.000Z"
    },
    {
      "id": "istanbul-34664",
      "name": "İREM ECZANESİ",
      "address": "Teşvikiye Mahallesi, Büyük Çiftlik Sokak, 6C",
      "phone": "+902122475739",
      "district": "ŞİŞLİ",
      "city": "İstanbul",
      "latitude": 41.05254300041477,
      "longitude": 28.996171000531778,
      "dutyStart": "2026-02-20T21:00:00.000Z",
      "dutyEnd": "2026-02-21T20:59:59.000Z"
    },
    {
      "id": "istanbul-28994",
      "name": "ŞEBNEM ECZANESİ",
      "address": "Güvercintepe Mahallesi, Ahmet Yesevi Caddesi, 98/A",
      "phone": "+902122400102",
      "district": "BAŞAKŞEHİR",
      "city": "İstanbul",
      "latitude": 41.08318399998744,
      "longitude": 28.752349999738346,
      "dutyStart": "2026-02-20T21:00:00.000Z",
      "dutyEnd": "2026-02-21T20:59:59.000Z"
    },
    {
      "id": "istanbul-8976",
      "name": "ŞİFA ECZANESİ",
      "address": "Ağva Merkez Mahallesi, Yakuplu Caddesi, 7",
      "phone": "+902167218169",
      "district": "ŞİLE",
      "city": "İstanbul",
      "latitude": 41.139166752321906,
      "longitude": 29.85684207593813,
      "dutyStart": "2026-02-20T21:00:00.000Z",
      "dutyEnd": "2026-02-21T20:59:59.000Z"
    },
    {
      "id": "istanbul-21950",
      "name": "ŞİFA SUYU ECZANESİ",
      "address": "Maden Mahallesi, Şifa Yolu Üstü Sokak, 2/B",
      "phone": "+902122712260",
      "district": "SARIYER",
      "city": "İstanbul",
      "latitude": 41.17441284972259,
      "longitude": 29.048226835846332,
      "dutyStart": "2026-02-20T21:00:00.000Z",
      "dutyEnd": "2026-02-21T20:59:59.000Z"
    },
    {
      "id": "istanbul-14328",
      "name": "ŞİLE ECZANESİ",
      "address": "Çavuş Mahallesi, Cumhuriyet Caddesi, 67/B",
      "phone": "+902167114357",
      "district": "ŞİLE",
      "city": "İstanbul",
      "latitude": 41.17249797611738,
      "longitude": 29.609468818315975,
      "dutyStart": "2026-02-20T21:00:00.000Z",
      "dutyEnd": "2026-02-21T20:59:59.000Z"
    },
    {
      "id": "istanbul-25570",
      "name": "ŞİŞLİ ECZANESİ",
      "address": "Şişli Merkez Mahallesi, Büyükdere Caddesi, 5/B",
      "phone": "+902122314181",
      "district": "ŞİŞLİ",
      "city": "İstanbul",
      "latitude": 41.06202913025171,
      "longitude": 28.9884609826812,
      "dutyStart": "2026-02-20T21:00:00.000Z",
      "dutyEnd": "2026-02-21T20:59:59.000Z"
    }
  ]
}