{
  "city": "kocaeli",
  "cityName": "Kocaeli",
  "cityId": 41,
  "date": "2026-02-21",
  "updatedAt": "2026-02-21T11:00:43.124Z",
  "count": 34,
  "pharmacies": [
    {
      "id": "kocaeli-0",
      "name": "ÖZMAN ECZANESİ",
      "address": "ÖMERAGA MAH. ALEMDAR CAD. NO:51 İZMİT",
      "phone": "02623224192",
      "district": "İzmit",
      "city": "Kocaeli",
      "latitude": 40.764954,
      "longitude": 29.92816,
      "dutyStart": "2026-02-21T08:30:00.000Z",
      "dutyEnd": "2026-02-22T08:30:00.000Z"
    },
    {
      "id": "kocaeli-1",
      "name": "ZELİHA ECZANESİ",
      "address": "CEDİT MAH. BOSTANLAR SOK. NO:10/C İZMİT",
      "phone": "02623111136",
      "district": "İzmit",
      "city": "Kocaeli",
      "latitude": 40.766138,
      "longitude": 29.937897,
      "dutyStart": "2026-02-21T08:30:00.000Z",
      "dutyEnd": "2026-02-22T08:30:00.000Z"
    },
    {
      "id": "kocaeli-2",
      "name": "ÇELİK ECZANESİ",
      "address": "ALİKAHYA FATİH MAH.SAKIP SABANCI BULVARI NO:48/B",
      "phone": "05306726386",
      "district": "İzmit",
      "city": "Kocaeli",
      "latitude": 40.771567,
      "longitude": 29.999789,
      "dutyStart": "2026-02-21T08:30:00.000Z",
      "dutyEnd": "2026-02-22T08:30:00.000Z"
    },
    {
      "id": "kocaeli-3",
      "name": "ÖZKAN ECZANESİ",
      "address": "YENIDOGAN MAH. MÜRSELPASA CAD. NO:2/B İZMİT",
      "phone": "02623236837",
      "district": "İzmit",
      "city": "Kocaeli",
      "latitude": 40.767173,
      "longitude": 29.903697,
      "dutyStart": "2026-02-21T08:30:00.000Z",
      "dutyEnd": "2026-02-22T08:30:00.000Z"
    },
    {
      "id": "kocaeli-4",
      "name": "ŞİRİN ECZANESİ",
      "address": "ŞİRİNTEPE MAH.ŞİRİN SK.NO:3/A İZMİT",
      "phone": "05332005041",
      "district": "İzmit",
      "city": "Kocaeli",
      "latitude": 40.761156,
      "longitude": 29.861117,
      "dutyStart": "2026-02-21T08:30:00.000Z",
      "dutyEnd": "2026-02-22T08:30:00.000Z"
    },
    {
      "id": "kocaeli-5",
      "name": "KAÇMAZ ECZANESİ",
      "address": "YEŞİLOVA MAH.TURAN GÜNEŞ CAD.NO:474/A İZMİT",
      "phone": "02623242048",
      "district": "İzmit",
      "city": "Kocaeli",
      "latitude": 40.789043,
      "longitude": 29.973237,
      "dutyStart": "2026-02-21T08:30:00.000Z",
      "dutyEnd": "2026-02-22T08:30:00.000Z"
    },
    {
      "id": "kocaeli-6",
      "name": "DERYA DENİZ ECZANESİ",
      "address": "ATAKENT MAH.17 AĞUSTOS CAD.NO:5/A",
      "phone": "02623414477",
      "district": "Başiskele",
      "city": "Kocaeli",
      "latitude": 40.704714,
      "longitude": 29.887146,
      "dutyStart": "2026-02-21T08:30:00.000Z",
      "dutyEnd": "2026-02-22T08:30:00.000Z"
    },
    {
      "id": "kocaeli-7",
      "name": "FİDAN ECZANESİ",
      "address": "VEZİRÇİFTLİĞİ MAH.MUALLİM SK.NO:1/A",
      "phone": "02623121110",
      "district": "Başiskele",
      "city": "Kocaeli",
      "latitude": 40.7409,
      "longitude": 29.957388,
      "dutyStart": "2026-02-21T08:30:00.000Z",
      "dutyEnd": "2026-02-22T08:30:00.000Z"
    },
    {
      "id": "kocaeli-8",
      "name": "KARŞIYAKA ECZANESİ",
      "address": "BARBAROS MAH.YOLDAŞ SOK.NO:12/A KARŞIYAKA/BAŞİSKELE",
      "phone": "02623432660",
      "district": "Başiskele",
      "city": "Kocaeli",
      "latitude": 40.706848,
      "longitude": 29.930667,
      "dutyStart": "2026-02-21T08:30:00.000Z",
      "dutyEnd": "2026-02-22T08:30:00.000Z"
    },
    {
      "id": "kocaeli-9",
      "name": "ORGANİK ECZANESİ",
      "address": "YEŞİLYURT MAH. GALİP ERENOĞLU CAD. A BLOK NO:25/D BAŞİSKELE",
      "phone": "02625021826",
      "district": "Başiskele",
      "city": "Kocaeli",
      "latitude": 40.710409,
      "longitude": 29.965233,
      "dutyStart": "2026-02-21T08:30:00.000Z",
      "dutyEnd": "2026-02-22T08:30:00.000Z"
    },
    {
      "id": "kocaeli-10",
      "name": "ÜSTÜNTAŞ ECZANESİ",
      "address": "ÖZGÜRLÜK MAH.ADNAN KAHVECİ CAD.NO:36/C ÇAYIROVA",
      "phone": "05459107855",
      "district": "Çayırova",
      "city": "Kocaeli",
      "latitude": 40.829368,
      "longitude": 29.377858,
      "dutyStart": "2026-02-21T08:30:00.000Z",
      "dutyEnd": "2026-02-22T08:30:00.000Z"
    },
    {
      "id": "kocaeli-11",
      "name": "SEMA ECZANESİ",
      "address": "ÖZGÜRLÜK MAH. UĞUR MUMCU CAD. 232.SOK. NO:1/B ÇAYIROVA",
      "phone": "02627435942",
      "district": "Çayırova",
      "city": "Kocaeli",
      "latitude": 40.825547,
      "longitude": 29.383781,
      "dutyStart": "2026-02-21T08:30:00.000Z",
      "dutyEnd": "2026-02-22T08:30:00.000Z"
    },
    {
      "id": "kocaeli-12",
      "name": "DEVA ECZANESİ",
      "address": "OSMANGAZİ MAH. MORAL SOK. NO:11/A",
      "phone": "05461704081",
      "district": "Darıca",
      "city": "Kocaeli",
      "latitude": 40.786785,
      "longitude": 29.375116,
      "dutyStart": "2026-02-21T08:30:00.000Z",
      "dutyEnd": "2026-02-22T08:30:00.000Z"
    },
    {
      "id": "kocaeli-13",
      "name": "PALANDÖKEN ECZANESİ",
      "address": "FEVZİ ÇAKMAK MAH. DR.ZEKI ACAR CAD. KÖRFEZ EVLER SIT. A-1 DARICA",
      "phone": "02626562825",
      "district": "Dilovası",
      "city": "Kocaeli",
      "latitude": 40.772684,
      "longitude": 29.407338,
      "dutyStart": "2026-02-21T08:30:00.000Z",
      "dutyEnd": "2026-02-22T08:30:00.000Z"
    },
    {
      "id": "kocaeli-14",
      "name": "ARIN ECZANESİ",
      "address": "CUMHURİYET MAH.BAĞDAT CAD.NO:68/E DİLOVASI",
      "phone": "02627542001",
      "district": "Kartepe",
      "city": "Kocaeli",
      "latitude": 40.785878,
      "longitude": 29.538682,
      "dutyStart": "2026-02-21T08:30:00.000Z",
      "dutyEnd": "2026-02-22T08:30:00.000Z"
    },
    {
      "id": "kocaeli-15",
      "name": "SERRA ECZANESİ",
      "address": "DUMLUPINAR MAH. SAKIP SABANCI CAD. NO:69/B KARTEPE",
      "phone": "05526334100",
      "district": "Kartepe",
      "city": "Kocaeli",
      "latitude": 40.755118,
      "longitude": 30.022979,
      "dutyStart": "2026-02-21T08:30:00.000Z",
      "dutyEnd": "2026-02-22T08:30:00.000Z"
    },
    {
      "id": "kocaeli-16",
      "name": "AYDIN ECZANESİ",
      "address": "EMEKEVLER MAH. CENGİZ TOPEL CAD. 30/A KARTEPE",
      "phone": "02623711528",
      "district": "Gebze",
      "city": "Kocaeli",
      "latitude": 40.743443,
      "longitude": 30.054782,
      "dutyStart": "2026-02-21T08:30:00.000Z",
      "dutyEnd": "2026-02-22T08:30:00.000Z"
    },
    {
      "id": "kocaeli-17",
      "name": "ÖZGÜL ECZANESİ",
      "address": "HACIHALIL MAH. ISMETPASA CAD. H.AGA IS MRK.9/6",
      "phone": "02626423442",
      "district": "Gebze",
      "city": "Kocaeli",
      "latitude": 40.797184,
      "longitude": 29.43468,
      "dutyStart": "2026-02-21T08:30:00.000Z",
      "dutyEnd": "2026-02-22T08:30:00.000Z"
    },
    {
      "id": "kocaeli-18",
      "name": "ABUHAYAT ECZANESİ",
      "address": "GAZİLER MAH. ISSIKGÖL CAD. NO:58/B GEBZE",
      "phone": "02626417515",
      "district": "Gebze",
      "city": "Kocaeli",
      "latitude": 40.810263,
      "longitude": 29.425867,
      "dutyStart": "2026-02-21T08:30:00.000Z",
      "dutyEnd": "2026-02-22T08:30:00.000Z"
    },
    {
      "id": "kocaeli-19",
      "name": "YENİ HAYAT ECZANESİ",
      "address": "MUSTAFA PASA MAH. BAGDAT CAD. 712. SOK. NO:2",
      "phone": "02626423232",
      "district": "Gölcük",
      "city": "Kocaeli",
      "latitude": 40.80024,
      "longitude": 29.430742,
      "dutyStart": "2026-02-21T08:30:00.000Z",
      "dutyEnd": "2026-02-22T08:30:00.000Z"
    },
    {
      "id": "kocaeli-20",
      "name": "DEVA ECZANESİ",
      "address": "MERKEZ MAH. 19 MAYIS CAD. NO:47 GÖLCÜK",
      "phone": "02624125660",
      "district": "Gebze",
      "city": "Kocaeli",
      "latitude": 40.718914,
      "longitude": 29.822356,
      "dutyStart": "2026-02-21T08:30:00.000Z",
      "dutyEnd": "2026-02-22T08:30:00.000Z"
    },
    {
      "id": "kocaeli-21",
      "name": "ÇINAR ECZANESİ",
      "address": "CUMHURİYET MAH.NECİP FAZIL CAD.NO:127/A GEBZE",
      "phone": "05301436241",
      "district": "Gebze",
      "city": "Kocaeli",
      "latitude": 40.809168,
      "longitude": 29.379346,
      "dutyStart": "2026-02-21T08:30:00.000Z",
      "dutyEnd": "2026-02-22T08:30:00.000Z"
    },
    {
      "id": "kocaeli-22",
      "name": "NEŞE ECZANESİ",
      "address": "HÜRRIYET MAH. YASA CAD. NO: 20",
      "phone": "02627430041",
      "district": "Gölcük",
      "city": "Kocaeli",
      "latitude": 40.800118,
      "longitude": 29.402508,
      "dutyStart": "2026-02-21T08:30:00.000Z",
      "dutyEnd": "2026-02-22T08:30:00.000Z"
    },
    {
      "id": "kocaeli-23",
      "name": "GAYE ECZANESİ",
      "address": "D.DERE MERKEZ MAH. PROF. NUSRET FISEK SOK. NO: 6/A GÖLCÜK",
      "phone": "02624270661",
      "district": "Gölcük",
      "city": "Kocaeli",
      "latitude": 40.720406,
      "longitude": 29.794159,
      "dutyStart": "2026-02-21T08:30:00.000Z",
      "dutyEnd": "2026-02-22T08:30:00.000Z"
    },
    {
      "id": "kocaeli-24",
      "name": "İHSANİYE ECZANESİ",
      "address": "İHSANİYE MERKEZ MAH. BEYOĞLU CAD. NO: 36/A GÖLCÜK",
      "phone": "02624357570",
      "district": "Kandıra",
      "city": "Kocaeli",
      "latitude": 40.690477,
      "longitude": 29.831367,
      "dutyStart": "2026-02-21T08:30:00.000Z",
      "dutyEnd": "2026-02-22T08:30:00.000Z"
    },
    {
      "id": "kocaeli-25",
      "name": "GENÇ ECZANESİ",
      "address": "4 TEMMUZ MAH. SELAHATTINBEY CAD. 40/A-40/C KARAMÜRSEL /KOCAELİ",
      "phone": "02625513031",
      "district": "Karamürsel",
      "city": "Kocaeli",
      "latitude": 41.070434,
      "longitude": 30.15181,
      "dutyStart": "2026-02-21T08:30:00.000Z",
      "dutyEnd": "2026-02-22T08:30:00.000Z"
    },
    {
      "id": "kocaeli-26",
      "name": "HAYAT ECZANESİ",
      "address": "YAVUZ SULTAN SELİM MAH.REYHAN CAD.NO:5/A",
      "phone": "02624522000",
      "district": "Karamürsel",
      "city": "Kocaeli",
      "latitude": 40.694332,
      "longitude": 29.617233,
      "dutyStart": "2026-02-21T08:30:00.000Z",
      "dutyEnd": "2026-02-22T08:30:00.000Z"
    },
    {
      "id": "kocaeli-27",
      "name": "BAHAR ECZANESİ",
      "address": "YENI YALI MAH. BELEN CAD. NO: 61/A KÖRFEZ",
      "phone": "02625033385",
      "district": "Körfez",
      "city": "Kocaeli",
      "latitude": 40.775209,
      "longitude": 29.803789,
      "dutyStart": "2026-02-21T08:30:00.000Z",
      "dutyEnd": "2026-02-22T08:30:00.000Z"
    },
    {
      "id": "kocaeli-28",
      "name": "HALUK ECZANESİ",
      "address": "GÜNEY MAH. ALBAY SOK. NO:6/B-C-D KÖRFEZ",
      "phone": "02625271331",
      "district": "Körfez",
      "city": "Kocaeli",
      "latitude": 40.766696,
      "longitude": 29.785337,
      "dutyStart": "2026-02-21T08:30:00.000Z",
      "dutyEnd": "2026-02-22T08:30:00.000Z"
    },
    {
      "id": "kocaeli-29",
      "name": "DEMET ECZANESİ",
      "address": "MIMAR SINAN MAH. SITE SOK. NO:11 KÖRFEZ",
      "phone": "02625266100",
      "district": "Körfez",
      "city": "Kocaeli",
      "latitude": 40.760275,
      "longitude": 29.787494,
      "dutyStart": "2026-02-21T08:30:00.000Z",
      "dutyEnd": "2026-02-22T08:30:00.000Z"
    },
    {
      "id": "kocaeli-30",
      "name": "YARIMCA MEHTAP ECZANESİ",
      "address": "SIRRIPAŞA MAH. DENIZCILER CAD. NO:198",
      "phone": "05314652622",
      "district": "Körfez",
      "city": "Kocaeli",
      "latitude": 40.771421,
      "longitude": 29.751399,
      "dutyStart": "2026-02-21T08:30:00.000Z",
      "dutyEnd": "2026-02-22T08:30:00.000Z"
    },
    {
      "id": "kocaeli-31",
      "name": "SEMRA ECZANESİ",
      "address": "İBNİ SİNA MAH. UFUK SOK. NO:52/1 DERİNCE",
      "phone": "02622396513",
      "district": "Derince",
      "city": "Kocaeli",
      "latitude": 40.75715,
      "longitude": 29.820579,
      "dutyStart": "2026-02-21T08:30:00.000Z",
      "dutyEnd": "2026-02-22T08:30:00.000Z"
    },
    {
      "id": "kocaeli-32",
      "name": "İBNİ SİNA ECZANESİ",
      "address": "YENİKENT MAH. KAZIM KARABEKİR CAD. DERİNCE PARK SİTESİ F BLOK NO:83/A",
      "phone": "02622332690",
      "district": "Derince",
      "city": "Kocaeli",
      "latitude": 40.763554,
      "longitude": 29.807537,
      "dutyStart": "2026-02-21T08:30:00.000Z",
      "dutyEnd": "2026-02-22T08:30:00.000Z"
    },
    {
      "id": "kocaeli-33",
      "name": "YAŞAM ECZANESİ",
      "address": "",
      "phone": "05400614041",
      "district": "Derince",
      "city": "Kocaeli",
      "latitude": 40.777378,
      "longitude": 29.813429,
      "dutyStart": "2026-02-21T08:30:00.000Z",
      "dutyEnd": "2026-02-22T08:30:00.000Z"
    }
  ]
}