{
  "city": "mersin",
  "cityName": "Mersin",
  "cityId": 33,
  "date": "2026-02-21",
  "updatedAt": "2026-02-21T03:00:46.829Z",
  "count": 16,
  "pharmacies": [
    {
      "id": "mersin-0",
      "name": "AKDAŞ ECZANESİ",
      "address": "Barbaros Mah.2106 Sok. No:8/3",
      "phone": "03243271171",
      "district": "Yeni̇şehi̇r",
      "city": "Mersin",
      "latitude": 36.784912,
      "longitude": 34.579831,
      "dutyStart": "2026-02-21T08:30:00.000Z",
      "dutyEnd": "2026-02-22T08:30:00.000Z"
    },
    {
      "id": "mersin-1",
      "name": "CAN ECZANESİ",
      "address": "ATATÜRK MH. SK. BURCU APT. ALTI NO:23/A",
      "phone": "03244226180",
      "district": "Mezi̇tli̇",
      "city": "Mersin",
      "latitude": 36.765165,
      "longitude": 34.547194,
      "dutyStart": "2026-02-21T08:30:00.000Z",
      "dutyEnd": "2026-02-22T08:30:00.000Z"
    },
    {
      "id": "mersin-2",
      "name": "ÇAMLIBEL ECZANESİ",
      "address": "Yeni Mah.Cemalpaşa Cad. No:74/A",
      "phone": "03242373799",
      "district": "Akdeni̇z",
      "city": "Mersin",
      "latitude": 36.804489,
      "longitude": 34.632426,
      "dutyStart": "2026-02-21T08:30:00.000Z",
      "dutyEnd": "2026-02-22T08:30:00.000Z"
    },
    {
      "id": "mersin-3",
      "name": "GÜLNAR ECZANESİ",
      "address": "IHSANIYE MAH.SAİT ÇIFCI CAD.113.CAD. NO:5/A",
      "phone": "03243366180",
      "district": "Akdeni̇z",
      "city": "Mersin",
      "latitude": 36.808702,
      "longitude": 34.620334,
      "dutyStart": "2026-02-21T08:30:00.000Z",
      "dutyEnd": "2026-02-22T08:30:00.000Z"
    },
    {
      "id": "mersin-4",
      "name": "SEVİ ECZANESİ",
      "address": "Sağlık Mh. 86046 Sk. A Blok Bina No: 10/9",
      "phone": "03243223346",
      "district": "Toroslar",
      "city": "Mersin",
      "latitude": 36.813893,
      "longitude": 34.628889,
      "dutyStart": "2026-02-21T08:30:00.000Z",
      "dutyEnd": "2026-02-22T08:30:00.000Z"
    },
    {
      "id": "mersin-5",
      "name": "TATLIDİL ECZANESİ",
      "address": "ÇAĞDAŞKENT MH. 229. CD. BARAB MERT APT. NO:10/A",
      "phone": "05492241800",
      "district": "Toroslar",
      "city": "Mersin",
      "latitude": 36.835816,
      "longitude": 34.610989,
      "dutyStart": "2026-02-21T08:30:00.000Z",
      "dutyEnd": "2026-02-22T08:30:00.000Z"
    },
    {
      "id": "mersin-6",
      "name": "YASEMİN ECZANESİ",
      "address": "AKKENT MH. 34. CD. NO:54D",
      "phone": "05301901502",
      "district": "Yeni̇şehi̇r",
      "city": "Mersin",
      "latitude": 36.780492,
      "longitude": 34.546635,
      "dutyStart": "2026-02-21T08:30:00.000Z",
      "dutyEnd": "2026-02-22T08:30:00.000Z"
    },
    {
      "id": "mersin-7",
      "name": "OKUR ECZANESİ",
      "address": "TEKKE MAH. 3745 SOK. NO:1 AC",
      "phone": "03246254400",
      "district": "Tarsus",
      "city": "Mersin",
      "latitude": 36.914209,
      "longitude": 34.912366,
      "dutyStart": "2026-02-21T08:30:00.000Z",
      "dutyEnd": "2026-02-22T08:30:00.000Z"
    },
    {
      "id": "mersin-8",
      "name": "PAKSOY ECZANESİ",
      "address": "SEHIT MUSTAFA MAH.ISMET PASA BUL.UGURELLI AP.NO:66/B",
      "phone": "03246132111",
      "district": "Tarsus",
      "city": "Mersin",
      "latitude": 36.91293,
      "longitude": 34.891469,
      "dutyStart": "2026-02-21T08:30:00.000Z",
      "dutyEnd": "2026-02-22T08:30:00.000Z"
    },
    {
      "id": "mersin-9",
      "name": "AKDENİZ ECZANESİ",
      "address": "PAZARKAŞI MH. MENDERES CD. NO:151D",
      "phone": "03247142426",
      "district": "Si̇li̇fke",
      "city": "Mersin",
      "latitude": 36.376882,
      "longitude": 33.925444,
      "dutyStart": "2026-02-21T08:30:00.000Z",
      "dutyEnd": "2026-02-22T08:30:00.000Z"
    },
    {
      "id": "mersin-10",
      "name": "TANSEL ECZANESİ",
      "address": "BARABANLI MH. BARABANLI SK. NO:353/D",
      "phone": "03247741989",
      "district": "Mut",
      "city": "Mersin",
      "latitude": 36.662368,
      "longitude": 33.422055,
      "dutyStart": "2026-02-21T08:30:00.000Z",
      "dutyEnd": "2026-02-22T08:30:00.000Z"
    },
    {
      "id": "mersin-11",
      "name": "YENİ ŞİFA ECZANESİ",
      "address": "SARAY MAH.AKKAVAK CAD. NO:12/ABC",
      "phone": "03247517062",
      "district": "Gülnar",
      "city": "Mersin",
      "latitude": 36.338405,
      "longitude": 33.40321,
      "dutyStart": "2026-02-21T08:30:00.000Z",
      "dutyEnd": "2026-02-22T08:30:00.000Z"
    },
    {
      "id": "mersin-12",
      "name": "EMRAH ECZANESİ",
      "address": "MERKEZ MAH. KAZIM KARABEKİR CAD.NO:74/H",
      "phone": "03245157020",
      "district": "Erdemli̇",
      "city": "Mersin",
      "latitude": 36.610175,
      "longitude": 34.303134,
      "dutyStart": "2026-02-21T08:30:00.000Z",
      "dutyEnd": "2026-02-22T08:30:00.000Z"
    },
    {
      "id": "mersin-13",
      "name": "SAĞLIK ECZANESİ",
      "address": "MERKEZ MAH SAĞLIK CAD.NO:1",
      "phone": "03248514969",
      "district": "Bozyazi",
      "city": "Mersin",
      "latitude": 36.105681,
      "longitude": 32.970258,
      "dutyStart": "2026-02-21T08:30:00.000Z",
      "dutyEnd": "2026-02-22T08:30:00.000Z"
    },
    {
      "id": "mersin-14",
      "name": "GÜLER ECZANESİ",
      "address": "BAHÇELİEVLER MAH. AHMET YESEVİ BULV.ARDA SİTESİ C-BLOK NO:14",
      "phone": "03248145767",
      "district": "Anamur",
      "city": "Mersin",
      "latitude": 36.078244,
      "longitude": 32.84912,
      "dutyStart": "2026-02-21T08:30:00.000Z",
      "dutyEnd": "2026-02-22T08:30:00.000Z"
    },
    {
      "id": "mersin-15",
      "name": "ÜNAL ECZANESİ",
      "address": "CUMHURİYET MAH. BARBOROS CD.NO:3/B",
      "phone": "05538413084",
      "district": "Aydincik",
      "city": "Mersin",
      "latitude": 36.152856,
      "longitude": 33.339095,
      "dutyStart": "2026-02-21T08:30:00.000Z",
      "dutyEnd": "2026-02-22T08:30:00.000Z"
    }
  ]
}