{
  "city": "adana",
  "cityName": "Adana",
  "cityId": 1,
  "date": "2026-02-16",
  "updatedAt": "2026-02-16T15:30:05.831Z",
  "count": 34,
  "pharmacies": [
    {
      "id": "adana-0",
      "name": "DEVA ECZANESİ",
      "address": "SAYDAM CADDESİ SAYDAM ENDER MAĞAZASI ÇAPRAZI KASAPLAR ÇARŞISI GİRİŞİ SEÇAL MARKET KARŞISI , 03223511418 Harita Konum",
      "phone": "03223511418",
      "district": "Seyhan",
      "city": "Adana",
      "latitude": 36.984783,
      "longitude": 35.324863,
      "dutyStart": "2026-02-16T08:00:00.000Z",
      "dutyEnd": "2026-02-17T08:00:00.000Z"
    },
    {
      "id": "adana-1",
      "name": "ÖZDE ECZANESİ",
      "address": "ŞAKİRPAŞA UÇAK MH. UÇAK SAĞLIK OCAĞI KARŞISI NİLÜFER HATUN İLKÖĞRETİM OKULU CİVARI , 05464291950 03224291950 Harita Konum",
      "phone": "05464291950",
      "district": "Seyhan",
      "city": "Adana",
      "latitude": 36.981847,
      "longitude": 35.27306,
      "dutyStart": "2026-02-16T08:00:00.000Z",
      "dutyEnd": "2026-02-17T08:00:00.000Z"
    },
    {
      "id": "adana-2",
      "name": "MUCİZE ECZANESİ",
      "address": "BARIŞ MAH. BARIŞ ASM KARŞI ÇAPRAZI , 03224599777 05314957797 Harita Konum",
      "phone": "03224599777",
      "district": "Seyhan",
      "city": "Adana",
      "latitude": 37.00469366623043,
      "longitude": 35.2754864233385,
      "dutyStart": "2026-02-16T08:00:00.000Z",
      "dutyEnd": "2026-02-17T08:00:00.000Z"
    },
    {
      "id": "adana-3",
      "name": "HEKİMOĞLU ECZANESİ",
      "address": "GÜLBAHÇESİ MAH. AHMET CEVDET YAĞ CAD. GÜLBAHÇESİ 2 ASM HİZASI KARASU KÜÇÜKOBA MEZARLIK YOLU ÜZERİ , 03224310422 05556497177 Harita Konum",
      "phone": "03224310422",
      "district": "Seyhan",
      "city": "Adana",
      "latitude": 36.969529853393034,
      "longitude": 35.29583190983509,
      "dutyStart": "2026-02-16T08:00:00.000Z",
      "dutyEnd": "2026-02-17T08:00:00.000Z"
    },
    {
      "id": "adana-4",
      "name": "ARZUM ECZANESİ",
      "address": "MUSTAFA KEMAL PAŞA BULVARI ÖZEL MEDİCALPARK SEYHAN HASTANESİ ACİL ÇIKIŞI , 03229992001 Harita Konum",
      "phone": "03229992001",
      "district": "Seyhan",
      "city": "Adana",
      "latitude": 37.00504,
      "longitude": 35.315492,
      "dutyStart": "2026-02-16T08:00:00.000Z",
      "dutyEnd": "2026-02-17T08:00:00.000Z"
    },
    {
      "id": "adana-5",
      "name": "GONCA ECZANESİ",
      "address": "YEŞİLYURT MAH. 70154 SOK. YEŞİLYURT AİLE SAĞLIĞI MERKEZİ YANI FATİH EKMEK FIRINI KARŞISI , 03222242332 Harita Konum",
      "phone": "03222242332",
      "district": "Seyhan",
      "city": "Adana",
      "latitude": 37.02062,
      "longitude": 35.311766,
      "dutyStart": "2026-02-16T08:00:00.000Z",
      "dutyEnd": "2026-02-17T08:00:00.000Z"
    },
    {
      "id": "adana-6",
      "name": "YENİ ECZANESİ",
      "address": "ATATÜRK CAD. VALİYOLU KAVŞAĞI KUVEYT TÜRK BANK. ARKASI MAKİ KARŞISI , 03224590260 Harita Konum",
      "phone": "03224590260",
      "district": "Seyhan",
      "city": "Adana",
      "latitude": 36.999207,
      "longitude": 35.325374,
      "dutyStart": "2026-02-16T08:00:00.000Z",
      "dutyEnd": "2026-02-17T08:00:00.000Z"
    },
    {
      "id": "adana-7",
      "name": "UÇAR ECZANESİ",
      "address": "GÜRSELPAŞA MAH. GÜRSELPAŞA 3 NOLU SAĞLIK OCAĞI KARŞISI, YEŞİL FIRIN CİVARI , 03224229225 Harita Konum",
      "phone": "03224229225",
      "district": "Seyhan",
      "city": "Adana",
      "latitude": 37.024621,
      "longitude": 35.265054,
      "dutyStart": "2026-02-16T08:00:00.000Z",
      "dutyEnd": "2026-02-17T08:00:00.000Z"
    },
    {
      "id": "adana-8",
      "name": "FERAY ECZANESİ",
      "address": "HASTANELER KAVŞAĞI SÜMER SAĞLIK OCAĞI YANI, SEMT PAZARI GİRİŞİ ESKİ TOPEL DURAĞI , 03222242024 Harita Konum",
      "phone": "03222242024",
      "district": "Seyhan",
      "city": "Adana",
      "latitude": 37.014796,
      "longitude": 35.321941,
      "dutyStart": "2026-02-16T08:00:00.000Z",
      "dutyEnd": "2026-02-17T08:00:00.000Z"
    },
    {
      "id": "adana-9",
      "name": "SELİN ECZANESİ",
      "address": "PINAR MAH. TÜRKMENBAŞI ALİ BOZDOĞANOĞLU BULV. 12/E ODAK TIP MERKEZİ 100.MT İLERİSİ , 03229994944 Harita Konum",
      "phone": "03229994944",
      "district": "Seyhan",
      "city": "Adana",
      "latitude": 37.013702,
      "longitude": 35.287601,
      "dutyStart": "2026-02-16T08:00:00.000Z",
      "dutyEnd": "2026-02-17T08:00:00.000Z"
    },
    {
      "id": "adana-10",
      "name": "PARLAK ECZANESİ",
      "address": "T. ÖZAL BULVARI GÖKKUŞAĞI OYUN MERKEZİ YANINDAKİ STARBUCKS KARŞISI , 03222325371 Harita Konum",
      "phone": "03222325371",
      "district": "Çukurova",
      "city": "Adana",
      "latitude": 37.045407,
      "longitude": 35.307749,
      "dutyStart": "2026-02-16T08:00:00.000Z",
      "dutyEnd": "2026-02-17T08:00:00.000Z"
    },
    {
      "id": "adana-11",
      "name": "ERSEL ECZANESİ",
      "address": "TOROS MAHALLESİ AHMET SAPMAZ BULVARI HAYALPARK CİVARI SEZAR HASTANESİ DOMİNOS PİZZA YANI , 03222323237 Harita Konum",
      "phone": "03222323237",
      "district": "Çukurova",
      "city": "Adana",
      "latitude": 37.037078,
      "longitude": 35.298896,
      "dutyStart": "2026-02-16T08:00:00.000Z",
      "dutyEnd": "2026-02-17T08:00:00.000Z"
    },
    {
      "id": "adana-12",
      "name": "ELİF ÖZSAYDI ECZANESİ",
      "address": "100. YIL MAH. FAZLI METO BULV. KRİMİNAL POLİS LABORATUVARI İLERİSİ SALKIM SÖĞÜT VİLLALARI KARŞISI MİGROS YANI , 03225044704 Harita Konum",
      "phone": "03225044704",
      "district": "Çukurova",
      "city": "Adana",
      "latitude": 37.03368377685547,
      "longitude": 35.24081039428711,
      "dutyStart": "2026-02-16T08:00:00.000Z",
      "dutyEnd": "2026-02-17T08:00:00.000Z"
    },
    {
      "id": "adana-13",
      "name": "TAŞTEPE ECZANESİ",
      "address": "T.ÖZAL BULVARI SOSYETE PAZARI KARŞISI AGİAD ORTAOKULU KAPISININ KARŞISI ASLAN ALİ ŞENÖZ ASM YANI , 03222481199 Harita Konum",
      "phone": "03222481199",
      "district": "Çukurova",
      "city": "Adana",
      "latitude": 37.052964272945815,
      "longitude": 35.285358924827925,
      "dutyStart": "2026-02-16T08:00:00.000Z",
      "dutyEnd": "2026-02-17T08:00:00.000Z"
    },
    {
      "id": "adana-14",
      "name": "ŞEVKİ ECZANESİ",
      "address": "PTT EVLERİ SAĞLIK OCAĞI YANI , 03223291124 Harita Konum",
      "phone": "03223291124",
      "district": "Yüreği̇r",
      "city": "Adana",
      "latitude": 37.020142,
      "longitude": 35.371434,
      "dutyStart": "2026-02-16T08:00:00.000Z",
      "dutyEnd": "2026-02-17T08:00:00.000Z"
    },
    {
      "id": "adana-15",
      "name": "KANIK ECZANESİ",
      "address": "LEVENT MAH. LEVENT GÖÇMEN SAĞLIĞI MERKEZİ YANI KÖPRÜBAŞI KARAKOLU ÇAPRAZI , 05350510555 Harita Konum",
      "phone": "05350510555",
      "district": "Yüreği̇r",
      "city": "Adana",
      "latitude": 36.980417,
      "longitude": 35.370284,
      "dutyStart": "2026-02-16T08:00:00.000Z",
      "dutyEnd": "2026-02-17T08:00:00.000Z"
    },
    {
      "id": "adana-16",
      "name": "BOLAT ECZANESİ",
      "address": "YÜREĞİR BAŞKENT HASTANESİ KARŞISI DADALOĞLU LİSESİ YANI , 03223270817 Harita Konum",
      "phone": "03223270817",
      "district": "Yüreği̇r",
      "city": "Adana",
      "latitude": 37.004481,
      "longitude": 35.363535,
      "dutyStart": "2026-02-16T08:00:00.000Z",
      "dutyEnd": "2026-02-17T08:00:00.000Z"
    },
    {
      "id": "adana-17",
      "name": "VOLKAN ECZANESİ",
      "address": "AKINCILAR MAH.3967 SOK.4/A AKINCILAR SAĞ. OCAĞI YANI KOZAN YOLU , 03223246361 03223223222 Harita Konum",
      "phone": "03223246361",
      "district": "Yüreği̇r",
      "city": "Adana",
      "latitude": 36.995264,
      "longitude": 35.354178,
      "dutyStart": "2026-02-16T08:00:00.000Z",
      "dutyEnd": "2026-02-17T08:00:00.000Z"
    },
    {
      "id": "adana-18",
      "name": "YILDIZ ECZANESİ",
      "address": "YAVUZ SULTAN SELİM MAH. TUFANBEYLİ CAD. BEYCELİ YOLU ÜZERİ BURUK MEZARLIĞI VE BPET PETROL KARŞISI BEYCELİ ASM YANI , 03223413424 Harita Konum",
      "phone": "03223413424",
      "district": "Sariçam",
      "city": "Adana",
      "latitude": 37.042929,
      "longitude": 35.430194,
      "dutyStart": "2026-02-16T08:00:00.000Z",
      "dutyEnd": "2026-02-17T08:00:00.000Z"
    },
    {
      "id": "adana-19",
      "name": "EKİN ECZANESİ",
      "address": "GÜLTEPE MAH. FEVZİ ÇAKMAK CADDESİ TÜRKAN GİZER ASM KARŞISI ESKİ PERŞEMBE PAZARI YOLU ÜSTÜ , 03223410085 Harita Konum",
      "phone": "03223410085",
      "district": "Sariçam",
      "city": "Adana",
      "latitude": 37.034135,
      "longitude": 35.402765,
      "dutyStart": "2026-02-16T08:00:00.000Z",
      "dutyEnd": "2026-02-17T08:00:00.000Z"
    },
    {
      "id": "adana-20",
      "name": "DEVA ECZANESİ",
      "address": "SAİMBEYLİ KAYMAKAMLIĞI CİVARI , 03227612300 Harita Konum",
      "phone": "03227612300",
      "district": "Sai̇mbeyli̇",
      "city": "Adana",
      "latitude": 37.984965,
      "longitude": 36.089012,
      "dutyStart": "2026-02-16T08:00:00.000Z",
      "dutyEnd": "2026-02-17T08:00:00.000Z"
    },
    {
      "id": "adana-21",
      "name": "KEKLİK ECZANESİ",
      "address": "ALADAĞ SAĞLIK OCAĞI CİVARI , 03225912424 Harita Konum",
      "phone": "03225912424",
      "district": "Aladağ",
      "city": "Adana",
      "latitude": 37.551095,
      "longitude": 35.392546,
      "dutyStart": "2026-02-16T08:00:00.000Z",
      "dutyEnd": "2026-02-17T08:00:00.000Z"
    },
    {
      "id": "adana-22",
      "name": "ORHUN ECZANESİ",
      "address": "EMNİYET MÜDÜRLÜĞÜ ARKASI 5 NOLU SAĞLIK OCAĞI KARŞISI , 3225165352 Harita Konum",
      "phone": "3225165352",
      "district": "Kozan",
      "city": "Adana",
      "latitude": 37.460614,
      "longitude": 35.81727,
      "dutyStart": "2026-02-16T08:00:00.000Z",
      "dutyEnd": "2026-02-17T08:00:00.000Z"
    },
    {
      "id": "adana-23",
      "name": "NEVİN ECZANESİ",
      "address": "DEVLET HASTANESİ FEKE YOLU , 03225162562 Harita Konum",
      "phone": "03225162562",
      "district": "Kozan",
      "city": "Adana",
      "latitude": 37.464298,
      "longitude": 35.825882,
      "dutyStart": "2026-02-16T08:00:00.000Z",
      "dutyEnd": "2026-02-17T08:00:00.000Z"
    },
    {
      "id": "adana-24",
      "name": "POZANTI ECZANESİ",
      "address": "HALK BANKASI CİVARI , 03225813066 Harita Konum",
      "phone": "03225813066",
      "district": "Pozanti",
      "city": "Adana",
      "latitude": 37.423956,
      "longitude": 34.872752,
      "dutyStart": "2026-02-16T08:00:00.000Z",
      "dutyEnd": "2026-02-17T08:00:00.000Z"
    },
    {
      "id": "adana-25",
      "name": "İSKELE ECZANESİ",
      "address": "KARATAŞ BELEDİYESİ KARŞISI SAĞLIK OCAĞI YANI , 03226814681 Harita Konum",
      "phone": "03226814681",
      "district": "Karataş",
      "city": "Adana",
      "latitude": 36.565614,
      "longitude": 35.384287,
      "dutyStart": "2026-02-16T08:00:00.000Z",
      "dutyEnd": "2026-02-17T08:00:00.000Z"
    },
    {
      "id": "adana-26",
      "name": "MERVE ECZANESİ",
      "address": "FEKE İLÇE DEVLET HASTANESİ KARŞI ÇAPRAZI , 03227412424 Harita Konum",
      "phone": "03227412424",
      "district": "Feke",
      "city": "Adana",
      "latitude": 37.81665761790038,
      "longitude": 35.92016834603217,
      "dutyStart": "2026-02-16T08:00:00.000Z",
      "dutyEnd": "2026-02-17T08:00:00.000Z"
    },
    {
      "id": "adana-27",
      "name": "ECE ECZANESİ",
      "address": "ÖZEL ÇINAR HASTANESİ ARKASI , 3226115109 Harita Konum",
      "phone": "3226115109",
      "district": "Ceyhan",
      "city": "Adana",
      "latitude": 37.018906,
      "longitude": 35.824437,
      "dutyStart": "2026-02-16T08:00:00.000Z",
      "dutyEnd": "2026-02-17T08:00:00.000Z"
    },
    {
      "id": "adana-28",
      "name": "PINAR ECZANESİ",
      "address": "İSTİKLAL MAH. İBRAHİM METE BLV. NO:143/1 CEYHAN OTOGAR İLERİSİ MEZARLIK 3. KAPI KARŞISI , 03226114844 Harita Konum",
      "phone": "03226114844",
      "district": "Ceyhan",
      "city": "Adana",
      "latitude": 37.026754,
      "longitude": 35.819837,
      "dutyStart": "2026-02-16T08:00:00.000Z",
      "dutyEnd": "2026-02-17T08:00:00.000Z"
    },
    {
      "id": "adana-29",
      "name": "SALBAŞ ECZANESİ",
      "address": "PTT KARŞISI , 03225612044 Harita Konum",
      "phone": "03225612044",
      "district": "Ceyhan",
      "city": "Adana",
      "latitude": 37.10995010760612,
      "longitude": 35.11178128466055,
      "dutyStart": "2026-02-16T08:00:00.000Z",
      "dutyEnd": "2026-02-17T08:00:00.000Z"
    },
    {
      "id": "adana-30",
      "name": "ÇELİK ECZANESİ",
      "address": "İMAMOĞLU DEVLET HASTANESİ KARŞISI , 3228913535 Harita Konum",
      "phone": "3228913535",
      "district": "İmamoğlu",
      "city": "Adana",
      "latitude": 37.251919,
      "longitude": 35.647987,
      "dutyStart": "2026-02-16T08:00:00.000Z",
      "dutyEnd": "2026-02-17T08:00:00.000Z"
    },
    {
      "id": "adana-31",
      "name": "YENİ TUFANBEYLİ ECZANESİ",
      "address": "TUFANBEYLİ DEVLET HASTANESİ KARŞISI , 03227818252 Harita Konum",
      "phone": "03227818252",
      "district": "Tufanbeyli̇",
      "city": "Adana",
      "latitude": 0,
      "longitude": 0,
      "dutyStart": "2026-02-16T08:00:00.000Z",
      "dutyEnd": "2026-02-17T08:00:00.000Z"
    },
    {
      "id": "adana-32",
      "name": "AYAS ECZANESİ",
      "address": "BAYRAK DİREĞİ CİVARI ŞOK MARKET YANI , 03226714343 Harita Konum",
      "phone": "03226714343",
      "district": "Yumurtalik",
      "city": "Adana",
      "latitude": 36.775775,
      "longitude": 35.793431,
      "dutyStart": "2026-02-16T08:00:00.000Z",
      "dutyEnd": "2026-02-17T08:00:00.000Z"
    },
    {
      "id": "adana-33",
      "name": "YÖRÜK ECZANESİ",
      "address": "KARAİSALI DEVLET HASTANESİ KARŞISI , 3225512251 Harita Konum",
      "phone": "3225512251",
      "district": "Karai̇sali",
      "city": "Adana",
      "latitude": 37.253978,
      "longitude": 35.060716,
      "dutyStart": "2026-02-16T08:00:00.000Z",
      "dutyEnd": "2026-02-17T08:00:00.000Z"
    }
  ]
}