{
  "city": "ankara",
  "cityName": "Ankara",
  "cityId": 6,
  "date": "2026-02-16",
  "updatedAt": "2026-02-16T04:00:25.874Z",
  "count": 58,
  "pharmacies": [
    {
      "id": "ankara-0",
      "name": "DOĞA ECZANESİ",
      "address": "İşçi Blokları Mah. Şehit Hasan Güzel Cad. No:25/B Çankaya/ANKARA , 03122870616",
      "phone": "03122870616",
      "district": "Çankaya",
      "city": "Ankara",
      "latitude": 39.894098172825,
      "longitude": 32.803696501069,
      "dutyStart": "2026-02-16T08:30:00.000Z",
      "dutyEnd": "2026-02-17T08:30:00.000Z"
    },
    {
      "id": "ankara-1",
      "name": "ÖZGÜR DORUK ECZANESİ",
      "address": "Kazakistan Cad. No:3/A Emek/Çankaya/ANKARA , Gazi Tıp Fakültesi karşısı 03122154509",
      "phone": "03122154509",
      "district": "Çankaya",
      "city": "Ankara",
      "latitude": 39.93230224791,
      "longitude": 32.823012471199,
      "dutyStart": "2026-02-16T08:30:00.000Z",
      "dutyEnd": "2026-02-17T08:30:00.000Z"
    },
    {
      "id": "ankara-2",
      "name": "ONUR EROL ECZANESİ",
      "address": "Demetevler Mah. Sami Efendi Cad. No:1/D Yenimahalle/ ANKARA , Onkoloji Hastanesi karşısı 03123349080",
      "phone": "03123349080",
      "district": "Yenimahalle",
      "city": "Ankara",
      "latitude": 39.96985188961,
      "longitude": 32.781156599522,
      "dutyStart": "2026-02-16T08:30:00.000Z",
      "dutyEnd": "2026-02-17T08:30:00.000Z"
    },
    {
      "id": "ankara-3",
      "name": "MEŞE ECZANESİ",
      "address": "Akın Caddesi No:3/C Yenimahalle/ ANKARA , 03123150957",
      "phone": "03123150957",
      "district": "Yenimahalle",
      "city": "Ankara",
      "latitude": 39.963146199354,
      "longitude": 32.808641195297,
      "dutyStart": "2026-02-16T08:30:00.000Z",
      "dutyEnd": "2026-02-17T08:30:00.000Z"
    },
    {
      "id": "ankara-4",
      "name": "İLKNUR ECZANESİ",
      "address": "Mutlu Mah. 723.Sok.No:19/A Mamak/ ANKARA , Saat Kulesi ara sokak devamı 03123904358",
      "phone": "03123904358",
      "district": "Mamak",
      "city": "Ankara",
      "latitude": 39.905445382256,
      "longitude": 32.911097556353,
      "dutyStart": "2026-02-16T08:30:00.000Z",
      "dutyEnd": "2026-02-17T08:30:00.000Z"
    },
    {
      "id": "ankara-5",
      "name": "TUĞÇEM ECZANESİ",
      "address": "Kartaltepe Mah. Okullar Cad. No:119/18 Mamak/ ANKARA , Göçmen Aile Sağlığı Merkezi 03123659108",
      "phone": "03123659108",
      "district": "Mamak",
      "city": "Ankara",
      "latitude": 39.928365559282,
      "longitude": 32.901173103382,
      "dutyStart": "2026-02-16T08:30:00.000Z",
      "dutyEnd": "2026-02-17T08:30:00.000Z"
    },
    {
      "id": "ankara-6",
      "name": "NURDAN ECZANESİ",
      "address": "Esat Cad. No:87/A Küçükesat / Çankaya/ANKARA , 03124198750",
      "phone": "03124198750",
      "district": "Çankaya",
      "city": "Ankara",
      "latitude": 39.908789821749,
      "longitude": 32.864527702332,
      "dutyStart": "2026-02-16T08:30:00.000Z",
      "dutyEnd": "2026-02-17T08:30:00.000Z"
    },
    {
      "id": "ankara-7",
      "name": "CAN ECE ECZANESİ",
      "address": "Sancak Mh. Turan Güneş Bulvarı No:3/A Çankaya/ ANKARA , Nişantaşı Pazarı Karşısı 03122156679",
      "phone": "03122156679",
      "district": "Çankaya",
      "city": "Ankara",
      "latitude": 39.877202484706,
      "longitude": 32.864459239045,
      "dutyStart": "2026-02-16T08:30:00.000Z",
      "dutyEnd": "2026-02-17T08:30:00.000Z"
    },
    {
      "id": "ankara-8",
      "name": "EMİR ECZANESİ",
      "address": "Fidanlık Mah. Ziya Gökalp Cad. No:31/A , 03124313111",
      "phone": "03124313111",
      "district": "Ankara",
      "city": "Ankara",
      "latitude": 39.92197155721,
      "longitude": 32.859124392271,
      "dutyStart": "2026-02-16T08:30:00.000Z",
      "dutyEnd": "2026-02-17T08:30:00.000Z"
    },
    {
      "id": "ankara-9",
      "name": "KESKİN ECZANESİ",
      "address": "Hacettepe Mah. Talatpaşa Bulvarı Karacabey Sok. No:38/A Hamamönü /Altındağ/ ANKARA , Ank.Hast.Z.T.Burak Ekbina Çocuk Acil 03123194288",
      "phone": "03123194288",
      "district": "Altındağ",
      "city": "Ankara",
      "latitude": 39.933161954386,
      "longitude": 32.870053052902,
      "dutyStart": "2026-02-16T08:30:00.000Z",
      "dutyEnd": "2026-02-17T08:30:00.000Z"
    },
    {
      "id": "ankara-10",
      "name": "AVŞAROĞLU ECZANESİ",
      "address": "Yeni Etlik Cad. No:58/C Etlik-Keçiören/ ANKARA , 03123520835",
      "phone": "03123520835",
      "district": "Keçiören",
      "city": "Ankara",
      "latitude": 39.971479904009,
      "longitude": 32.83362865448,
      "dutyStart": "2026-02-16T08:30:00.000Z",
      "dutyEnd": "2026-02-17T08:30:00.000Z"
    },
    {
      "id": "ankara-11",
      "name": "OKYANUS ECZANESİ",
      "address": "Sancaktepe Mah. 1595.Cad. No:26/A Keçiören/ANKARA , Sancaktepe Sağlık Ocağı Karşısı 05533009996",
      "phone": "05533009996",
      "district": "Keçiören",
      "city": "Ankara",
      "latitude": 39.991767218976,
      "longitude": 32.813895642757,
      "dutyStart": "2026-02-16T08:30:00.000Z",
      "dutyEnd": "2026-02-17T08:30:00.000Z"
    },
    {
      "id": "ankara-12",
      "name": "BAŞAK ECZANESİ",
      "address": "Battalgazi Mah. 1019.Sok.No:7/A Altındağ/ANKARA , Çamlık Durağı Bir Alt Sokağı 03123750181",
      "phone": "03123750181",
      "district": "Altındağ",
      "city": "Ankara",
      "latitude": 39.968010048796,
      "longitude": 32.929818034172,
      "dutyStart": "2026-02-16T08:30:00.000Z",
      "dutyEnd": "2026-02-17T08:30:00.000Z"
    },
    {
      "id": "ankara-13",
      "name": "YENİ İSTANBUL ECZANESİ",
      "address": "Nuri Pamir Cad. No:31/C Keçiören / ANKARA , Gazino ile Dutluk arasındaki- Benzinlik yanı 03123562936",
      "phone": "03123562936",
      "district": "Keçiören",
      "city": "Ankara",
      "latitude": 39.999446094402,
      "longitude": 32.868175506592,
      "dutyStart": "2026-02-16T08:30:00.000Z",
      "dutyEnd": "2026-02-17T08:30:00.000Z"
    },
    {
      "id": "ankara-14",
      "name": "KALABA SAĞLIK ECZANESİ",
      "address": "Kalaba Mah. Ahmet Vefik Paşa Cad. Lütuf Sok. No:6/A Keçiören/ANKARA , FTZ Migros karşısı 03123602303",
      "phone": "03123602303",
      "district": "Keçiören",
      "city": "Ankara",
      "latitude": 39.977218756591,
      "longitude": 32.865367233753,
      "dutyStart": "2026-02-16T08:30:00.000Z",
      "dutyEnd": "2026-02-17T08:30:00.000Z"
    },
    {
      "id": "ankara-15",
      "name": "VEFA ECZANESİ",
      "address": "Sokullu Mehmet Paşa Cad. No:79/A Dikmen / Çankaya/ ANKARA , 03124822674",
      "phone": "03124822674",
      "district": "Çankaya",
      "city": "Ankara",
      "latitude": 39.886076108631,
      "longitude": 32.837091386318,
      "dutyStart": "2026-02-16T08:30:00.000Z",
      "dutyEnd": "2026-02-17T08:30:00.000Z"
    },
    {
      "id": "ankara-16",
      "name": "ASLI ECZANESİ",
      "address": "29 Ekim Mah 818.Sokak No:16/4 Yenikent/ Sincan/ANKARA , Ş.Atakan Şahin Erdoğan-818 Sok.Okyanus AVM 03125112221",
      "phone": "03125112221",
      "district": "Sincan",
      "city": "Ankara",
      "latitude": 40.013293500468,
      "longitude": 32.532323664598,
      "dutyStart": "2026-02-16T08:30:00.000Z",
      "dutyEnd": "2026-02-17T08:30:00.000Z"
    },
    {
      "id": "ankara-17",
      "name": "GÖKÇE ECZANESİ",
      "address": "Camiatik Mah. Hekim Şaban Şifai Cad. No:3 Ayaş / ANKARA , 03127121159",
      "phone": "03127121159",
      "district": "Ayaş",
      "city": "Ankara",
      "latitude": 40.012890779526,
      "longitude": 32.331390380859,
      "dutyStart": "2026-02-16T08:30:00.000Z",
      "dutyEnd": "2026-02-17T08:30:00.000Z"
    },
    {
      "id": "ankara-18",
      "name": "RÜVEYDA KOÇ ECZANESİ",
      "address": "Mareşal Çakmak Mah. Şehit Rahmi Sarıoğlu Sok. No:24/A-B Sincan/ ANKARA , Hürriyet Cad.1 Nolu Sağlık Ocağı yanı 03122707755",
      "phone": "03122707755",
      "district": "Sincan",
      "city": "Ankara",
      "latitude": 39.95743494884,
      "longitude": 32.58871614933,
      "dutyStart": "2026-02-16T08:30:00.000Z",
      "dutyEnd": "2026-02-17T08:30:00.000Z"
    },
    {
      "id": "ankara-19",
      "name": "HARMANDALI ECZANESİ",
      "address": "Pınarbaşı Mah. Vatan Cad. No:90/A Sincan/ ANKARA , Saraycık Yolu üzeri 03122636161",
      "phone": "03122636161",
      "district": "Sincan",
      "city": "Ankara",
      "latitude": 39.949095419719,
      "longitude": 32.576587200165,
      "dutyStart": "2026-02-16T08:30:00.000Z",
      "dutyEnd": "2026-02-17T08:30:00.000Z"
    },
    {
      "id": "ankara-20",
      "name": "TUĞRA ECZANESİ",
      "address": "Gökçek Mah. 250.Cadde No:7/A Töreken/Sincan/ANKARA , Yeni Sincan Devlet Hastanesi Kar. 03122735050",
      "phone": "03122735050",
      "district": "Sincan",
      "city": "Ankara",
      "latitude": 39.983308566266,
      "longitude": 32.579763639751,
      "dutyStart": "2026-02-16T08:30:00.000Z",
      "dutyEnd": "2026-02-17T08:30:00.000Z"
    },
    {
      "id": "ankara-21",
      "name": "YEŞİLTEPE ECZANESİ",
      "address": "Yeşiltepe Mah. Çubuk Cad.No:28/A Akyurt/ANKARA , Çubuk Yolu Üzeri Jandarma karşısı 03128443193",
      "phone": "03128443193",
      "district": "Akyurt",
      "city": "Ankara",
      "latitude": 40.138125125025,
      "longitude": 33.089060678612,
      "dutyStart": "2026-02-16T08:30:00.000Z",
      "dutyEnd": "2026-02-17T08:30:00.000Z"
    },
    {
      "id": "ankara-22",
      "name": "ÇAKIRLAR MERKEZ ECZANESİ",
      "address": "Yuva Mah. 1940.Cadde Astim Skylife No:14/D Yenimahalle/ANKARA , Bülent Börekçilik Yanı 03129990895",
      "phone": "03129990895",
      "district": "Yenimahalle",
      "city": "Ankara",
      "latitude": 39.985823563004,
      "longitude": 32.695134803653,
      "dutyStart": "2026-02-16T08:30:00.000Z",
      "dutyEnd": "2026-02-17T08:30:00.000Z"
    },
    {
      "id": "ankara-23",
      "name": "EBRULİ ECZANESİ",
      "address": "Kentkoop Mah. 1843. Sok. No:5/37-38 Batıkent/Yenimahalle ANKARA , Girişim Çarş.üst kat (Batı Koleji yanı) 03122505092",
      "phone": "03122505092",
      "district": "Ankara",
      "city": "Ankara",
      "latitude": 39.960816938442,
      "longitude": 32.724937254643,
      "dutyStart": "2026-02-16T08:30:00.000Z",
      "dutyEnd": "2026-02-17T08:30:00.000Z"
    },
    {
      "id": "ankara-24",
      "name": "MESUT ECZANESİ",
      "address": "Dikiciler Sok. No:7 Beypazarı / ANKARA , Merkez Yeni Cami civarı 03127632123",
      "phone": "03127632123",
      "district": "Beypazarı",
      "city": "Ankara",
      "latitude": 40.153686857794,
      "longitude": 31.931762695312,
      "dutyStart": "2026-02-16T08:30:00.000Z",
      "dutyEnd": "2026-02-17T08:30:00.000Z"
    },
    {
      "id": "ankara-25",
      "name": "SOLMAZ ECZANESİ",
      "address": "Atakent Mah. 1522 Sok. No:8/A Elvankent/ Etimesgut/ ANKARA , Kahveci Hacıbaba karşısı 03122604887",
      "phone": "03122604887",
      "district": "Etimesgut",
      "city": "Ankara",
      "latitude": 39.951395265669,
      "longitude": 32.612023204565,
      "dutyStart": "2026-02-16T08:30:00.000Z",
      "dutyEnd": "2026-02-17T08:30:00.000Z"
    },
    {
      "id": "ankara-26",
      "name": "NURDANIN ECZANESİ",
      "address": "Kazım Karabekir Mah. Keloğlan Sok. No:70/A-B Etimesgut / ANKARA , Etimesgut 2.Nolu Sağlık Ocağı Kar. 03122430852",
      "phone": "03122430852",
      "district": "Etimesgut",
      "city": "Ankara",
      "latitude": 39.944851245294,
      "longitude": 32.648652791977,
      "dutyStart": "2026-02-16T08:30:00.000Z",
      "dutyEnd": "2026-02-17T08:30:00.000Z"
    },
    {
      "id": "ankara-27",
      "name": "SEDA ECZANESİ",
      "address": "Piyade Mah. 1681.Cad. No:34/A Etimesgut/ANKARA , 3 Nolu Sağlık Ocağı karşısı 03122261514",
      "phone": "03122261514",
      "district": "Etimesgut",
      "city": "Ankara",
      "latitude": 39.947623148729,
      "longitude": 32.641345113516,
      "dutyStart": "2026-02-16T08:30:00.000Z",
      "dutyEnd": "2026-02-17T08:30:00.000Z"
    },
    {
      "id": "ankara-28",
      "name": "CEMRENİN ECZANESİ",
      "address": "Bağlıca Mah. Mermeroğlu Cad. No:26/C Bağlıca/ Etimesgut/ ANKARA , Süleymaoğlu Kebapçısı yanı 03122342210",
      "phone": "03122342210",
      "district": "Etimesgut",
      "city": "Ankara",
      "latitude": 39.893980873878,
      "longitude": 32.647028840147,
      "dutyStart": "2026-02-16T08:30:00.000Z",
      "dutyEnd": "2026-02-17T08:30:00.000Z"
    },
    {
      "id": "ankara-29",
      "name": "MERKEZ ERYAMAN ECZANESİ",
      "address": "Şehit Osman Avcı Mah. Malazgirt 1071.Cadde Göksu Prestij Sitesi A Blok No:50/34 Eryaman/ Etimesgut /ANKARA , Relax Göksu Konutları Karşısı 03125027441",
      "phone": "03125027441",
      "district": "Etimesgut",
      "city": "Ankara",
      "latitude": 39.98793054007,
      "longitude": 32.654517441988,
      "dutyStart": "2026-02-16T08:30:00.000Z",
      "dutyEnd": "2026-02-17T08:30:00.000Z"
    },
    {
      "id": "ankara-30",
      "name": "ÖZER ECZANESİ",
      "address": "Şafak Mah. 851. Sok. No:1/C Gölbaşı / ANKARA , 03124846654",
      "phone": "03124846654",
      "district": "Gölbaşı",
      "city": "Ankara",
      "latitude": 39.79668336222,
      "longitude": 32.806806564331,
      "dutyStart": "2026-02-16T08:30:00.000Z",
      "dutyEnd": "2026-02-17T08:30:00.000Z"
    },
    {
      "id": "ankara-31",
      "name": "ALP ECZANESİ",
      "address": "Yeni Mah. Ankara Cad.Özkanlar Sitesi No:57/C-B Haymana/ ANKARA , 03126580903",
      "phone": "03126580903",
      "district": "Haymana",
      "city": "Ankara",
      "latitude": 39.440599061937,
      "longitude": 32.505424171686,
      "dutyStart": "2026-02-16T08:30:00.000Z",
      "dutyEnd": "2026-02-17T08:30:00.000Z"
    },
    {
      "id": "ankara-32",
      "name": "YORULMAZ ECZANESİ",
      "address": "Atatürk Mah. Gazi Mustafa Kemal Cad.No:5/A Kahramankazan / ANKARA , 03128141154",
      "phone": "03128141154",
      "district": "Kahramankazan",
      "city": "Ankara",
      "latitude": 40.204050425113,
      "longitude": 32.680892944336,
      "dutyStart": "2026-02-16T08:30:00.000Z",
      "dutyEnd": "2026-02-17T08:30:00.000Z"
    },
    {
      "id": "ankara-33",
      "name": "VERESELİ KADİR ECZANESİ",
      "address": "Yenice Mah.Şehit Mehmet Erdem Cad. No:12/C Kızılcahamam/ ANKARA , 03127366464",
      "phone": "03127366464",
      "district": "Kızılcahamam",
      "city": "Ankara",
      "latitude": 40.471191901204,
      "longitude": 32.647172212601,
      "dutyStart": "2026-02-16T08:30:00.000Z",
      "dutyEnd": "2026-02-17T08:30:00.000Z"
    },
    {
      "id": "ankara-34",
      "name": "MÜFTÜOĞLU ECZANESİ",
      "address": "Lalahan Mah.Lalapaşa Cad.3/B Lalahan/ / ANKARA ((312865 18 85) , “ÖZEL NÖBET BÖLGESİ LÜTFEN ECZANEYİ TELEFON İLE ARAYİNİZ.\" 05408651885",
      "phone": "05408651885",
      "district": "Ankara",
      "city": "Ankara",
      "latitude": 39.970676179525,
      "longitude": 33.114105784334,
      "dutyStart": "2026-02-16T08:30:00.000Z",
      "dutyEnd": "2026-02-17T08:30:00.000Z"
    },
    {
      "id": "ankara-35",
      "name": "CAN ECZANESİ",
      "address": "100. Yıl Mah. Hoşebe Cad. No:37/A Nallıhan / ANKARA , 03127855636",
      "phone": "03127855636",
      "district": "Nallıhan",
      "city": "Ankara",
      "latitude": 0,
      "longitude": 0,
      "dutyStart": "2026-02-16T08:30:00.000Z",
      "dutyEnd": "2026-02-17T08:30:00.000Z"
    },
    {
      "id": "ankara-36",
      "name": "GÜNER ECZANESİ",
      "address": "İstiklal Mah. Muhsin Yazıcıoğlu Cad. 110.Sok. No:10 Polatlı/ANKARA , Polatlı Devlet Hastanesi yanı 05308270307",
      "phone": "05308270307",
      "district": "Polatlı",
      "city": "Ankara",
      "latitude": 39.587860187512,
      "longitude": 32.167732715607,
      "dutyStart": "2026-02-16T08:30:00.000Z",
      "dutyEnd": "2026-02-17T08:30:00.000Z"
    },
    {
      "id": "ankara-37",
      "name": "BEŞ YILDIZ ECZANESİ",
      "address": "Mimar Sinan Mah .Sera Sokak No:9-A/52 Pursaklar/ ANKARA , Pursaklar Devlet Hast.acil yanı 03122323008",
      "phone": "03122323008",
      "district": "Pursaklar",
      "city": "Ankara",
      "latitude": 40.049895693093,
      "longitude": 32.89212845164,
      "dutyStart": "2026-02-16T08:30:00.000Z",
      "dutyEnd": "2026-02-17T08:30:00.000Z"
    },
    {
      "id": "ankara-38",
      "name": "PURSAKLAR MEYDAN ECZANESİ",
      "address": "Mimar Sinan Mah. Çağatay Cad. No:41/E Pursaklar/ ANKARA , Pursaklar Devlet Hastanesi yanı 03123580404",
      "phone": "03123580404",
      "district": "Pursaklar",
      "city": "Ankara",
      "latitude": 40.048008786177,
      "longitude": 32.89355324102,
      "dutyStart": "2026-02-16T08:30:00.000Z",
      "dutyEnd": "2026-02-17T08:30:00.000Z"
    },
    {
      "id": "ankara-39",
      "name": "VİTAMİN ECZANESİ",
      "address": "Yenişehir Mah. Neşet Abalıoğlu Sokak No:3/A Yahşihan/ KIRIKKALE , Değirmen Kuruyemiş-Hame's Coffe arkası 05332400771",
      "phone": "05332400771",
      "district": "Ankara",
      "city": "Ankara",
      "latitude": 39.8694671647,
      "longitude": 33.454582840204,
      "dutyStart": "2026-02-16T08:30:00.000Z",
      "dutyEnd": "2026-02-17T08:30:00.000Z"
    },
    {
      "id": "ankara-40",
      "name": "MERAL UZUNÖZ ECZANESİ",
      "address": "Yeni Mah. İsmetpaşa Cad. No:2 Şereflikoçhisar/ANKARA , 03126876218",
      "phone": "03126876218",
      "district": "Şereflikoçhisar",
      "city": "Ankara",
      "latitude": 0,
      "longitude": 0,
      "dutyStart": "2026-02-16T08:30:00.000Z",
      "dutyEnd": "2026-02-17T08:30:00.000Z"
    },
    {
      "id": "ankara-41",
      "name": "ÖZDER ECZANESİ",
      "address": "Güzeltepe Mah. Ankara Cad. No:26/A Merkez/ KIRIKKALE , Dörtyol İmam Hatip Lisesi üstü 03182020200",
      "phone": "03182020200",
      "district": "Ankara",
      "city": "Ankara",
      "latitude": 39.844320706747,
      "longitude": 33.50160330534,
      "dutyStart": "2026-02-16T08:30:00.000Z",
      "dutyEnd": "2026-02-17T08:30:00.000Z"
    },
    {
      "id": "ankara-42",
      "name": "SAMİ ECZANESİ",
      "address": "Yenidoğan Mah. Zafer Cad. No:56/I Merkez/ KIRIKKALE , Kızılkanat İş Merk.Girişi Kapısı altı 03182021313",
      "phone": "03182021313",
      "district": "Ankara",
      "city": "Ankara",
      "latitude": 39.843941781938,
      "longitude": 33.50582242012,
      "dutyStart": "2026-02-16T08:30:00.000Z",
      "dutyEnd": "2026-02-17T08:30:00.000Z"
    },
    {
      "id": "ankara-43",
      "name": "KARAKEÇİLİ ECZANESİ",
      "address": "Fatih Sultan Mehmet Mah.Hürriyet Cad.No:4/A Karakeçili/ KIRIKKALE , 03184743643",
      "phone": "03184743643",
      "district": "Ankara",
      "city": "Ankara",
      "latitude": 39.993750206346,
      "longitude": 33.533243363199,
      "dutyStart": "2026-02-16T08:30:00.000Z",
      "dutyEnd": "2026-02-17T08:30:00.000Z"
    },
    {
      "id": "ankara-44",
      "name": "SAĞLIK ECZANESİ",
      "address": "Halit Cevri Aslangil Mah. Çağlar Cad. No:20.Sok. No:12/B Kalecik/ ANKARA , Kalecik Devlet Hastanesi Karşısı 03128571110",
      "phone": "03128571110",
      "district": "Kalecik",
      "city": "Ankara",
      "latitude": 40.111110189041,
      "longitude": 33.409390577835,
      "dutyStart": "2026-02-16T08:30:00.000Z",
      "dutyEnd": "2026-02-17T08:30:00.000Z"
    },
    {
      "id": "ankara-45",
      "name": "CAN YENİLER ECZANESİ",
      "address": "İlker Mah.İlker Cad.No:181/B Çankaya//ANKARA , Dikmen İlker Vadi ASM Yanı 05325765699",
      "phone": "05325765699",
      "district": "Ankara",
      "city": "Ankara",
      "latitude": 39.861687221863,
      "longitude": 32.836129948055,
      "dutyStart": "2026-02-16T08:30:00.000Z",
      "dutyEnd": "2026-02-17T08:30:00.000Z"
    },
    {
      "id": "ankara-46",
      "name": "CADDE İNCEK ECZANESİ",
      "address": "Kızılcaşar Mah.1209.Cadde Avlu Sitesi No:3/A-30 İncek- Gölbaşı/ ANKARA , İncek Polis Karakolu yanı 03125119770",
      "phone": "03125119770",
      "district": "Gölbaşı",
      "city": "Ankara",
      "latitude": 39.824304849629,
      "longitude": 32.723219295979,
      "dutyStart": "2026-02-16T08:30:00.000Z",
      "dutyEnd": "2026-02-17T08:30:00.000Z"
    },
    {
      "id": "ankara-47",
      "name": "CADDE ÇAYYOLU ECZANESİ",
      "address": "Prof.Dr.Ahmet Taner Kışlalı Mah. Doğan Taşdelen Bulvarı No:179/C Çayyolu/Çankaya/ ANKARA , Arcadium AVM karşısı 03122404420",
      "phone": "03122404420",
      "district": "Çankaya",
      "city": "Ankara",
      "latitude": 39.88205031684,
      "longitude": 32.686061721757,
      "dutyStart": "2026-02-16T08:30:00.000Z",
      "dutyEnd": "2026-02-17T08:30:00.000Z"
    },
    {
      "id": "ankara-48",
      "name": "ŞAFAK ECZANESİ",
      "address": "Kıbrıs Cad. No:3/B Çubuk / ANKARA , 03128371185",
      "phone": "03128371185",
      "district": "Çubuk",
      "city": "Ankara",
      "latitude": 40.238555410249,
      "longitude": 33.028936386108,
      "dutyStart": "2026-02-16T08:30:00.000Z",
      "dutyEnd": "2026-02-17T08:30:00.000Z"
    },
    {
      "id": "ankara-49",
      "name": "CENNET ECZANESİ",
      "address": "Cumhuriyet Mah.Ankara Cad. No:34/A Delice KIRIKKALE , 03186185433",
      "phone": "03186185433",
      "district": "Ankara",
      "city": "Ankara",
      "latitude": 0,
      "longitude": 0,
      "dutyStart": "2026-02-16T08:30:00.000Z",
      "dutyEnd": "2026-02-17T08:30:00.000Z"
    },
    {
      "id": "ankara-50",
      "name": "VERESELİ GÜDÜL ECZANESİ",
      "address": "Yukarı Gençlik Cad. No:10/A Güdül / ANKARA , 03127281533",
      "phone": "03127281533",
      "district": "Güdül",
      "city": "Ankara",
      "latitude": 40.20877009282,
      "longitude": 32.244186401367,
      "dutyStart": "2026-02-16T08:30:00.000Z",
      "dutyEnd": "2026-02-17T08:30:00.000Z"
    },
    {
      "id": "ankara-51",
      "name": "YENİ BALA ECZANESİ",
      "address": "Kartaltepe Mah. Alparslan Türkeş Bulvarı No:4 Bala/ ANKARA , 03128761376",
      "phone": "03128761376",
      "district": "Bala",
      "city": "Ankara",
      "latitude": 39.552947363191,
      "longitude": 33.123903349042,
      "dutyStart": "2026-02-16T08:30:00.000Z",
      "dutyEnd": "2026-02-17T08:30:00.000Z"
    },
    {
      "id": "ankara-52",
      "name": "CENGİZ ECZANESİ",
      "address": "İstasyon Mah. Sağlık Sok. No:1/E Hasanoğlan /ANKARA , 03128661718",
      "phone": "03128661718",
      "district": "Hasanoğlan",
      "city": "Ankara",
      "latitude": 39.99790093652,
      "longitude": 33.179740905762,
      "dutyStart": "2026-02-16T08:30:00.000Z",
      "dutyEnd": "2026-02-17T08:30:00.000Z"
    },
    {
      "id": "ankara-53",
      "name": "MERT ECZANESİ",
      "address": "Bozkurt Mh.Hastane Sok. No:6 Keskin/KIRIKKALE , 03185154760",
      "phone": "03185154760",
      "district": "Ankara",
      "city": "Ankara",
      "latitude": 39.6732795543,
      "longitude": 33.611265420914,
      "dutyStart": "2026-02-16T08:30:00.000Z",
      "dutyEnd": "2026-02-17T08:30:00.000Z"
    },
    {
      "id": "ankara-54",
      "name": "VERESELİ TEMELLİ ECZANESİ",
      "address": "TEMELLİ-İstiklal Mah. Hürriyet Cad. No:30/B Temelli/Sincan/ANKARA , 03126451163",
      "phone": "03126451163",
      "district": "Sincan",
      "city": "Ankara",
      "latitude": 39.726069000019,
      "longitude": 32.353835105896,
      "dutyStart": "2026-02-16T08:30:00.000Z",
      "dutyEnd": "2026-02-17T08:30:00.000Z"
    },
    {
      "id": "ankara-55",
      "name": "BALIŞEYH ECZANESİ",
      "address": "Yeni Mah. 43.Sok. No:14/B Balışeyh/KIRIKKALE , Balışeyh Toplum Sağlığı Merkezi Karşısı 03182333318",
      "phone": "03182333318",
      "district": "Ankara",
      "city": "Ankara",
      "latitude": 39.916098977986,
      "longitude": 33.715695217252,
      "dutyStart": "2026-02-16T08:30:00.000Z",
      "dutyEnd": "2026-02-17T08:30:00.000Z"
    },
    {
      "id": "ankara-56",
      "name": "BARIŞ ECZANESİ",
      "address": "Kemal Paşa Mah. Soğukpınar Sok No:6 Elmadağ / ANKARA , 03128630090",
      "phone": "03128630090",
      "district": "Elmadağ",
      "city": "Ankara",
      "latitude": 39.917619756386,
      "longitude": 33.231271505356,
      "dutyStart": "2026-02-16T08:30:00.000Z",
      "dutyEnd": "2026-02-17T08:30:00.000Z"
    },
    {
      "id": "ankara-57",
      "name": "Nöbetçi Eczane Bulunamadı",
      "address": "Aradığınız kriterlere uygun nöbetçi eczane bulunamadı. Lütfen farklı bir arama deneyin.",
      "phone": "",
      "district": "Ankara",
      "city": "Ankara",
      "latitude": 0,
      "longitude": 0,
      "dutyStart": "2026-02-16T08:30:00.000Z",
      "dutyEnd": "2026-02-17T08:30:00.000Z"
    }
  ]
}