{
  "city": "bursa",
  "cityName": "Bursa",
  "cityId": 16,
  "date": "2026-02-16",
  "updatedAt": "2026-02-16T17:30:06.927Z",
  "count": 35,
  "pharmacies": [
    {
      "id": "bursa-0",
      "name": "KONAK UĞUR ECZANESİ",
      "address": "KONAK MAH. İLGİ SOK. NO:4,  (NİLÜFER METRO İSTASYONU ARKASI - FATİH LİSESİ YANI) ,  0224 453 00 29",
      "phone": "02244530029",
      "district": "NİLÜFER",
      "city": "Bursa",
      "latitude": 40.20881925,
      "longitude": 28.98727119,
      "dutyStart": "2026-02-16T18:30:00.000Z",
      "dutyEnd": "2026-02-17T08:30:00.000Z"
    },
    {
      "id": "bursa-1",
      "name": "BÜŞRA ECZANESİ",
      "address": "23 NİSAN MAH. YUNUSEMRE CAD. NO:11/D,  (İZMİR YOLU METRO MARKET ARKASI) ,  0224 408 92 92 / 5306858292",
      "phone": "02244089292",
      "district": "NİLÜFER",
      "city": "Bursa",
      "latitude": 40.216786,
      "longitude": 28.94231000000002,
      "dutyStart": "2026-02-16T18:30:00.000Z",
      "dutyEnd": "2026-02-17T08:30:00.000Z"
    },
    {
      "id": "bursa-2",
      "name": "NİLÜFER YAŞAM ECZANESİ",
      "address": "CUMHURİYET MAH. GAZİ CAD. MAVİ SOK. NO:6/D,  (KAPALI PAZAR YERİ KARŞISI) ,  0224 452 81 62",
      "phone": "02244528162",
      "district": "NİLÜFER",
      "city": "Bursa",
      "latitude": 40.22196252,
      "longitude": 28.97303402,
      "dutyStart": "2026-02-16T18:30:00.000Z",
      "dutyEnd": "2026-02-17T08:30:00.000Z"
    },
    {
      "id": "bursa-3",
      "name": "KONSEPT BALAT ECZANESİ",
      "address": "AHMET YESEVİ MAH. BEY SOK. NO:10B/E,  (ERGİN CONCEPT - BALAT ORMANI ALTI) ,  0224 503 87 87",
      "phone": "02245038787",
      "district": "NİLÜFER",
      "city": "Bursa",
      "latitude": 40.2704775,
      "longitude": 28.9346327,
      "dutyStart": "2026-02-16T18:30:00.000Z",
      "dutyEnd": "2026-02-17T08:30:00.000Z"
    },
    {
      "id": "bursa-4",
      "name": "GÜLERYÜZ ECZANESİ",
      "address": "30 AĞUSTOS ZAFER MAH. ATLIÇAYIR BULVARI NO:37D/C,  (KAYAPA TOKİ KARŞISI - ÖZHAN MARKET YANI) ,  0224 503 77 22",
      "phone": "02245037722",
      "district": "NİLÜFER",
      "city": "Bursa",
      "latitude": 40.19332469972659,
      "longitude": 28.846055241885267,
      "dutyStart": "2026-02-16T18:30:00.000Z",
      "dutyEnd": "2026-02-17T08:30:00.000Z"
    },
    {
      "id": "bursa-5",
      "name": "ÖZLÜCE BULVAR ECZANESİ",
      "address": "19 MAYIS MAH. ANADOLU CAD. NO:19/B,  (HÜSNÜ ZÜBER İLKOKULU KARŞISI - ÖZEL ÖNCÜ OKULLARI YANI) ,  0224 413 91 77 / 0553 713 91 77",
      "phone": "02244139177",
      "district": "NİLÜFER",
      "city": "Bursa",
      "latitude": 40.22863,
      "longitude": 28.9065,
      "dutyStart": "2026-02-16T18:30:00.000Z",
      "dutyEnd": "2026-02-17T08:30:00.000Z"
    },
    {
      "id": "bursa-6",
      "name": "SEDA ECZANESİ",
      "address": "EMEK ADNAN MENDERES MAH. OĞUZHAN CAD. NO:31/A ,  (KORUPARK AVM ARKASI) ,  0224 243 06 16",
      "phone": "02242430616",
      "district": "OSMANGAZİ",
      "city": "Bursa",
      "latitude": 40.2539517,
      "longitude": 28.9619625,
      "dutyStart": "2026-02-16T18:30:00.000Z",
      "dutyEnd": "2026-02-17T08:30:00.000Z"
    },
    {
      "id": "bursa-7",
      "name": "YUNUSELİ MERKEZ ECZANESİ",
      "address": "YUNUSELİ MAH. ALPARSLAN TÜRKEŞ CAD. NO:87/A ,  0224 248 58 59 ,  Eczaneyi haritada görüntülemek için tıklayınız...",
      "phone": "02242485859",
      "district": "OSMANGAZİ",
      "city": "Bursa",
      "latitude": 40.245801,
      "longitude": 29.010269,
      "dutyStart": "2026-02-16T18:30:00.000Z",
      "dutyEnd": "2026-02-17T08:30:00.000Z"
    },
    {
      "id": "bursa-8",
      "name": "ENGİN ECZANESİ",
      "address": "SOĞANLI MAH. SADIK AHMET CAD. NO:408/A,  (GAZİAKDEMİR DOLMUŞ DURAĞI KARŞISI) ,  0224 232 04 02",
      "phone": "02242320402",
      "district": "OSMANGAZİ",
      "city": "Bursa",
      "latitude": 40.20284383,
      "longitude": 29.04458731,
      "dutyStart": "2026-02-16T18:30:00.000Z",
      "dutyEnd": "2026-02-17T08:30:00.000Z"
    },
    {
      "id": "bursa-9",
      "name": "DOĞUMEVİ MERKEZ ECZANESİ",
      "address": "DİKKALDIRIM MAH. HAT CAD. GÖKTAŞ-2 SİTESİ NO:3/B ,  (BURSA İL SAĞLIK MÜDÜRLÜĞÜ KARŞISI) ,  0224 233 08 58",
      "phone": "02242330858",
      "district": "OSMANGAZİ",
      "city": "Bursa",
      "latitude": 40.2079302410793,
      "longitude": 29.0174192183606,
      "dutyStart": "2026-02-16T18:30:00.000Z",
      "dutyEnd": "2026-02-17T08:30:00.000Z"
    },
    {
      "id": "bursa-10",
      "name": "HİLYE ŞİFA ECZANESİ",
      "address": "BAHAR MAH. 5.HÜRRİYET SOK. NO:49,  (ÇINAR LİSESİ ALTI - BAHAR MAH. MEYDANI VE ASM KARŞISI) ,  0224 256 01 11",
      "phone": "02242560111",
      "district": "OSMANGAZİ",
      "city": "Bursa",
      "latitude": 40.203167,
      "longitude": 29.067102,
      "dutyStart": "2026-02-16T18:30:00.000Z",
      "dutyEnd": "2026-02-17T08:30:00.000Z"
    },
    {
      "id": "bursa-11",
      "name": "ÇARDAK ECZANESİ",
      "address": "YENİ KARAMAN MAH. POLAT CAD. NO:68/A,  (MUDANYA YOLU MELİKE DÖNER ARALIĞI) ,  0224 245 20 93",
      "phone": "02242452093",
      "district": "OSMANGAZİ",
      "city": "Bursa",
      "latitude": 40.221368,
      "longitude": 28.99868200000003,
      "dutyStart": "2026-02-16T18:30:00.000Z",
      "dutyEnd": "2026-02-17T08:30:00.000Z"
    },
    {
      "id": "bursa-12",
      "name": "MİNE ECZANESİ",
      "address": "TUZPAZARI MAH. CUMHURİYET CAD. NO:105/B ,  (NOSTALJİK TRAMVAY YOLU) ,  0224 221 48 20",
      "phone": "02242214820",
      "district": "OSMANGAZİ",
      "city": "Bursa",
      "latitude": 40.18557207803877,
      "longitude": 29.065388609262072,
      "dutyStart": "2026-02-16T18:30:00.000Z",
      "dutyEnd": "2026-02-17T08:30:00.000Z"
    },
    {
      "id": "bursa-13",
      "name": "SÜMBÜL ECZANESİ",
      "address": "MİLLET MAH. CENGİZHAN CAD. NO:4/B,  (CENGİZHAN CAD. A-101 MARKET KARŞISI) ,  0224 364 19 91 / 5358866999",
      "phone": "02243641991",
      "district": "YILDIRIM",
      "city": "Bursa",
      "latitude": 40.21088,
      "longitude": 29.09205,
      "dutyStart": "2026-02-16T18:30:00.000Z",
      "dutyEnd": "2026-02-17T08:30:00.000Z"
    },
    {
      "id": "bursa-14",
      "name": "ÇELEBİ ECZANESİ",
      "address": "ERTUĞRULGAZİ MAH. OKUL SOK. NO:11/A,  (A-BLOK GÖĞÜS HASTANESİ KARŞISI) ,  0224 369 07 40 / 0224 369 07 60",
      "phone": "02243690740",
      "district": "YILDIRIM",
      "city": "Bursa",
      "latitude": 40.17746338,
      "longitude": 29.11485314,
      "dutyStart": "2026-02-16T18:30:00.000Z",
      "dutyEnd": "2026-02-17T08:30:00.000Z"
    },
    {
      "id": "bursa-15",
      "name": "KÜBRA ŞİFA ECZANESİ",
      "address": "MEHMET AKİF ERSOY MAH. T.MEHMET ALİ CAD. NO:63/B,  (YEŞİLYAYLA PTT ŞUBESİ KARŞISI) ,  0224 361 14 41",
      "phone": "02243611441",
      "district": "YILDIRIM",
      "city": "Bursa",
      "latitude": 40.182923,
      "longitude": 29.09171,
      "dutyStart": "2026-02-16T18:30:00.000Z",
      "dutyEnd": "2026-02-17T08:30:00.000Z"
    },
    {
      "id": "bursa-16",
      "name": "BÜYÜKORHAN ECZANESİ",
      "address": "ORHAN MAH. DR.İBRAHİM ÖKTEM CAD. NO:13/B ,  0224 841 23 70 ,  Eczaneyi haritada görüntülemek için tıklayınız...",
      "phone": "02248412370",
      "district": "BÜYÜKORHAN",
      "city": "Bursa",
      "latitude": 39.773187817429196,
      "longitude": 28.885376751422882,
      "dutyStart": "2026-02-16T19:00:00.000Z",
      "dutyEnd": "2026-02-17T08:30:00.000Z"
    },
    {
      "id": "bursa-17",
      "name": "ZEYNEP ÖZDEMİR ECZANESİ",
      "address": "DR.ZİYA KAYA MAH. HÜRRİYET CAD. DEDE KORKUT SOK. NO:26/A ,  0224 512 19 95 ,  Eczaneyi haritada görüntülemek için tıklayınız...",
      "phone": "02245121995",
      "district": "GEMLİK",
      "city": "Bursa",
      "latitude": 40.426023751931325,
      "longitude": 29.161636233329773,
      "dutyStart": "2026-02-16T18:30:00.000Z",
      "dutyEnd": "2026-02-17T00:00:00.000Z"
    },
    {
      "id": "bursa-18",
      "name": "BURAK ECZANESİ",
      "address": "EŞREF DİNÇER MAH. KUVAYİ MİLLİYE BULVARI NO:255/B ,  0224 504 51 86 ,  Eczaneyi haritada görüntülemek için tıklayınız...",
      "phone": "02245045186",
      "district": "GEMLİK",
      "city": "Bursa",
      "latitude": 40.430732699690786,
      "longitude": 29.17758512367669,
      "dutyStart": "2026-02-16T18:30:00.000Z",
      "dutyEnd": "2026-02-17T08:30:00.000Z"
    },
    {
      "id": "bursa-19",
      "name": "YENİ ECZANESİ",
      "address": "ZAFER MAH. ZAFER CAD. NO:9/A ,  0224 371 14 18 ,  Eczaneyi haritada görüntülemek için tıklayınız...",
      "phone": "02243711418",
      "district": "GÜRSU",
      "city": "Bursa",
      "latitude": 40.218426,
      "longitude": 29.192808,
      "dutyStart": "2026-02-16T18:30:00.000Z",
      "dutyEnd": "2026-02-17T09:00:00.000Z"
    },
    {
      "id": "bursa-20",
      "name": "ULAŞ ECZANESİ",
      "address": "MERKEZ MAH. FEVZİ PAŞA CAD. NO:9/A ,  0224-8812272 ,  Eczaneyi haritada görüntülemek için tıklayınız...",
      "phone": "02248812272",
      "district": "HARMANCIK",
      "city": "Bursa",
      "latitude": 39.679027,
      "longitude": 29.154901999999993,
      "dutyStart": "2026-02-16T18:00:00.000Z",
      "dutyEnd": "2026-02-17T08:30:00.000Z"
    },
    {
      "id": "bursa-21",
      "name": "YUNUS EMRE ECZANESİ",
      "address": "ORHANİYE MAH. YENİŞEHİR CAD. NO:88/1A,  (TEDAŞ / UEDAŞ KARŞI ARALIĞI) ,  0224 711 25 05",
      "phone": "02247112505",
      "district": "İNEGÖL",
      "city": "Bursa",
      "latitude": 40.08525,
      "longitude": 29.51516,
      "dutyStart": "2026-02-16T18:00:00.000Z",
      "dutyEnd": "2026-02-17T01:00:00.000Z"
    },
    {
      "id": "bursa-22",
      "name": "İREM ECZANESİ",
      "address": "YENİ MAH. KENT CAD. NO:7/A,  (ALANYURT AĞIZ VE DİŞ SAĞLIĞI MERKEZİ ARKASI) ,  0224 719 10 19",
      "phone": "02247191019",
      "district": "İNEGÖL",
      "city": "Bursa",
      "latitude": 40.10734,
      "longitude": 29.516576,
      "dutyStart": "2026-02-16T18:00:00.000Z",
      "dutyEnd": "2026-02-17T01:00:00.000Z"
    },
    {
      "id": "bursa-23",
      "name": "DOLUNAY ECZANESİ",
      "address": "ORHANİYE MAH. VARIŞLI SOK. NO:15/A ,  (ORHANİYE 2 NOLU SAĞLIK OCAĞI KARŞISI) ,  0224 715 70 50",
      "phone": "02247157050",
      "district": "İNEGÖL",
      "city": "Bursa",
      "latitude": 40.08024962982511,
      "longitude": 29.52140532320695,
      "dutyStart": "2026-02-16T18:00:00.000Z",
      "dutyEnd": "2026-02-17T08:30:00.000Z"
    },
    {
      "id": "bursa-24",
      "name": "BEKTAŞ ECZANESİ",
      "address": "BEYLER MAH. KILIÇASLAN CAD. NO:137 ,  0224-7575030 ,  Eczaneyi haritada görüntülemek için tıklayınız...",
      "phone": "02247575030",
      "district": "İZNİK",
      "city": "Bursa",
      "latitude": 40.42922,
      "longitude": 29.722947999999974,
      "dutyStart": "2026-02-16T18:30:00.000Z",
      "dutyEnd": "2026-02-17T08:30:00.000Z"
    },
    {
      "id": "bursa-25",
      "name": "MÜBERRA ECZANESİ",
      "address": "KARACAAHMET MAH. RUNGUÇPAŞA CAD. NO:110/A ,  0224 662 21 27 ,  Eczaneyi haritada görüntülemek için tıklayınız...",
      "phone": "02246622127",
      "district": "KARACABEY",
      "city": "Bursa",
      "latitude": 40.212026,
      "longitude": 28.358907,
      "dutyStart": "2026-02-16T18:30:00.000Z",
      "dutyEnd": "2026-02-17T08:30:00.000Z"
    },
    {
      "id": "bursa-26",
      "name": "ÇINAR ECZANESİ",
      "address": "CUMA MAH. TAHİR HOCA CAD. NO:1 ,  0224 861 30 72 ,  Eczaneyi haritada görüntülemek için tıklayınız...",
      "phone": "02248613072",
      "district": "KELES",
      "city": "Bursa",
      "latitude": 39.9132,
      "longitude": 29.2329,
      "dutyStart": "2026-02-16T18:00:00.000Z",
      "dutyEnd": "2026-02-17T08:30:00.000Z"
    },
    {
      "id": "bursa-27",
      "name": "CİHAN ECZANESİ",
      "address": "AHMET VEFİK PAŞA MAH. HAKİM AYTEKİN BAYSAL SOK. NO:8/C,  (KESTEL KENT MEYDANI) ,  0224 373 19 77 / 5317867758",
      "phone": "02243731977",
      "district": "KESTEL",
      "city": "Bursa",
      "latitude": 40.199401,
      "longitude": 29.212730999999962,
      "dutyStart": "2026-02-16T18:00:00.000Z",
      "dutyEnd": "2026-02-17T08:30:00.000Z"
    },
    {
      "id": "bursa-28",
      "name": "MUTLU ECZANESİ",
      "address": "GÜZELYALI EĞİTİM MAH. LİSE CAD. NO:25/B ,  0224 224 55 66 ,  Eczaneyi haritada görüntülemek için tıklayınız...",
      "phone": "02242245566",
      "district": "MUDANYA",
      "city": "Bursa",
      "latitude": 40.35127914346788,
      "longitude": 28.928458878654588,
      "dutyStart": "2026-02-16T18:00:00.000Z",
      "dutyEnd": "2026-02-17T08:30:00.000Z"
    },
    {
      "id": "bursa-29",
      "name": "GÜNAYDIN ECZANESİ",
      "address": "ÖMERBEY MAH. 2.PINAR SOK. NO:10/A ,  0501 004 24 34 ,  Eczaneyi haritada görüntülemek için tıklayınız...",
      "phone": "05010042434",
      "district": "MUDANYA",
      "city": "Bursa",
      "latitude": 40.370336,
      "longitude": 28.890255,
      "dutyStart": "2026-02-16T18:00:00.000Z",
      "dutyEnd": "2026-02-17T08:30:00.000Z"
    },
    {
      "id": "bursa-30",
      "name": "DERMAN ECZANESİ",
      "address": "HAMZABEY MAH. DEĞİRMEN SOK. NO:20/A ,  0224 613 91 30 ,  Eczaneyi haritada görüntülemek için tıklayınız...",
      "phone": "02246139130",
      "district": "MUSTAFAKEMALPAŞA",
      "city": "Bursa",
      "latitude": 40.04069,
      "longitude": 28.40677,
      "dutyStart": "2026-02-16T18:30:00.000Z",
      "dutyEnd": "2026-02-17T08:30:00.000Z"
    },
    {
      "id": "bursa-31",
      "name": "YALÇIN ECZANESİ",
      "address": "İSMETPAŞA MAH. CAMİ KARŞISI SOK. NO:3 ,  0224-8171286 / 0224-8171286 ,  Eczaneyi haritada görüntülemek için tıklayınız...",
      "phone": "02248171286",
      "district": "ORHANELİ",
      "city": "Bursa",
      "latitude": 39.902445,
      "longitude": 28.988786000000005,
      "dutyStart": "2026-02-16T18:00:00.000Z",
      "dutyEnd": "2026-02-17T08:30:00.000Z"
    },
    {
      "id": "bursa-32",
      "name": "SEVİM ECZANESİ",
      "address": "ARAPZADE MAH. YALOVA CAD. NO:13 ,  0224-5739360 ,  Eczaneyi haritada görüntülemek için tıklayınız...",
      "phone": "02245739360",
      "district": "ORHANGAZİ",
      "city": "Bursa",
      "latitude": 40.492046,
      "longitude": 29.308983000000012,
      "dutyStart": "2026-02-16T18:30:00.000Z",
      "dutyEnd": "2026-02-17T08:30:00.000Z"
    },
    {
      "id": "bursa-33",
      "name": "GÜLEÇ ECZANESİ",
      "address": "DEMİRTAŞ CUMHURİYET MAH. CUMHURİYET CAD. NO:2 ,  0224-2623522 ,  Eczaneyi haritada görüntülemek için tıklayınız...",
      "phone": "02242623522",
      "district": "OSMANGAZİ",
      "city": "Bursa",
      "latitude": 40.271709,
      "longitude": 29.09278500000005,
      "dutyStart": "2026-02-16T18:30:00.000Z",
      "dutyEnd": "2026-02-17T08:30:00.000Z"
    },
    {
      "id": "bursa-34",
      "name": "ACAR ECZANESİ",
      "address": "KURTULUŞ MAH. İZNİK CAD. NO:21 ,  0224 773 05 06 ,  Eczaneyi haritada görüntülemek için tıklayınız...",
      "phone": "02247730506",
      "district": "YENİŞEHİR",
      "city": "Bursa",
      "latitude": 40.27516291097589,
      "longitude": 29.654296338558197,
      "dutyStart": "2026-02-16T18:00:00.000Z",
      "dutyEnd": "2026-02-17T08:00:00.000Z"
    }
  ]
}