{
  "city": "mersin",
  "cityName": "Mersin",
  "cityId": 33,
  "date": "2026-02-16",
  "updatedAt": "2026-02-16T02:00:24.332Z",
  "count": 19,
  "pharmacies": [
    {
      "id": "mersin-0",
      "name": "ADEM ECZANESİ",
      "address": "ISTIKLAL CAD.TURGUT REIS MAH.4119 SK.NO:159",
      "phone": "03242312255",
      "district": "Akdeni̇z",
      "city": "Mersin",
      "latitude": 36.793739,
      "longitude": 34.615747,
      "dutyStart": "2026-02-16T08:30:00.000Z",
      "dutyEnd": "2026-02-17T08:30:00.000Z"
    },
    {
      "id": "mersin-1",
      "name": "AHMET ALMAS ECZANESİ",
      "address": "Akdeniz Mh. Yaşardoğu Cd. No:64/A",
      "phone": "05061512877",
      "district": "Mezi̇tli̇",
      "city": "Mersin",
      "latitude": 36.728608,
      "longitude": 34.499767,
      "dutyStart": "2026-02-16T08:30:00.000Z",
      "dutyEnd": "2026-02-17T08:30:00.000Z"
    },
    {
      "id": "mersin-2",
      "name": "ALTUNBAŞ ECZANESİ",
      "address": "GÜVENEVLER MAH.1.CAD.NO:112/3",
      "phone": "03243278020",
      "district": "Yeni̇şehi̇r",
      "city": "Mersin",
      "latitude": 36.786284,
      "longitude": 34.593106,
      "dutyStart": "2026-02-16T08:30:00.000Z",
      "dutyEnd": "2026-02-17T08:30:00.000Z"
    },
    {
      "id": "mersin-3",
      "name": "BERAT ECZANESİ",
      "address": "VALİ ŞENOL ENGİN CD. EMİRGAN APT. ALTI NO:19",
      "phone": "08502810315",
      "district": "Mezi̇tli̇",
      "city": "Mersin",
      "latitude": 36.763497,
      "longitude": 34.547819,
      "dutyStart": "2026-02-16T08:30:00.000Z",
      "dutyEnd": "2026-02-17T08:30:00.000Z"
    },
    {
      "id": "mersin-4",
      "name": "BİLGEN ECZANESİ",
      "address": "KURDALİ MH. MERSİNLİ AHMET BULV. NO:63",
      "phone": "03243206383",
      "district": "Toroslar",
      "city": "Mersin",
      "latitude": 36.825996,
      "longitude": 34.622559,
      "dutyStart": "2026-02-16T08:30:00.000Z",
      "dutyEnd": "2026-02-17T08:30:00.000Z"
    },
    {
      "id": "mersin-5",
      "name": "BOZDAĞ ECZANESİ",
      "address": "YENİ MH. 5328 SK. NO:1A",
      "phone": "03242316590",
      "district": "Akdeni̇z",
      "city": "Mersin",
      "latitude": 36.805039,
      "longitude": 34.633692,
      "dutyStart": "2026-02-16T08:30:00.000Z",
      "dutyEnd": "2026-02-17T08:30:00.000Z"
    },
    {
      "id": "mersin-6",
      "name": "DAMLA ECZANESİ",
      "address": "CAMISERIF MAH.170.CAD. CEMALPASA CAD. NO.93/C",
      "phone": "03242393722",
      "district": "Akdeni̇z",
      "city": "Mersin",
      "latitude": 36.801129,
      "longitude": 34.627082,
      "dutyStart": "2026-02-16T08:30:00.000Z",
      "dutyEnd": "2026-02-17T08:30:00.000Z"
    },
    {
      "id": "mersin-7",
      "name": "ÖMER ECZANESİ",
      "address": "ÇİFTLİKKÖY MAH. MİMAR SİNAN CAD. PARADİSE HOMES SİT. D BLOK NO:5",
      "phone": "03245021516",
      "district": "Yeni̇şehi̇r",
      "city": "Mersin",
      "latitude": 36.785468,
      "longitude": 34.540132,
      "dutyStart": "2026-02-16T08:30:00.000Z",
      "dutyEnd": "2026-02-17T08:30:00.000Z"
    },
    {
      "id": "mersin-8",
      "name": "YILDIZELİ ECZANESİ",
      "address": "GÜNEYKENT MH. FARABİ CD. 38 SK. NO:23",
      "phone": "03242232104",
      "district": "Toroslar",
      "city": "Mersin",
      "latitude": 36.83958,
      "longitude": 34.630265,
      "dutyStart": "2026-02-16T08:30:00.000Z",
      "dutyEnd": "2026-02-17T08:30:00.000Z"
    },
    {
      "id": "mersin-9",
      "name": "OKUR ECZANESİ",
      "address": "TEKKE MAH. 3745 SOK. NO:1 AC",
      "phone": "03246254400",
      "district": "Tarsus",
      "city": "Mersin",
      "latitude": 36.914209,
      "longitude": 34.912366,
      "dutyStart": "2026-02-16T08:30:00.000Z",
      "dutyEnd": "2026-02-17T08:30:00.000Z"
    },
    {
      "id": "mersin-10",
      "name": "YENİ NOKAY ECZANESİ",
      "address": "ÖĞRETMENLER MH. RASİM DOKUR BULV. NO:2/C",
      "phone": "03246137373",
      "district": "Tarsus",
      "city": "Mersin",
      "latitude": 36.916233,
      "longitude": 34.884156,
      "dutyStart": "2026-02-16T08:30:00.000Z",
      "dutyEnd": "2026-02-17T08:30:00.000Z"
    },
    {
      "id": "mersin-11",
      "name": "GAZNELİ ECZANESİ",
      "address": "Göksu Mah. Atatürk Bulv. Çamlık Apt. No:35/B",
      "phone": "03247146664",
      "district": "Si̇li̇fke",
      "city": "Mersin",
      "latitude": 36.380356,
      "longitude": 33.930805,
      "dutyStart": "2026-02-16T08:30:00.000Z",
      "dutyEnd": "2026-02-17T08:30:00.000Z"
    },
    {
      "id": "mersin-12",
      "name": "ÖZGÜR TOL ECZANESİ",
      "address": "SARICALAR MAH. TÜRKMENLİ SOK.NO:10 A-B",
      "phone": "03247143188",
      "district": "Si̇li̇fke",
      "city": "Mersin",
      "latitude": 36.383418,
      "longitude": 33.945158,
      "dutyStart": "2026-02-16T08:30:00.000Z",
      "dutyEnd": "2026-02-17T08:30:00.000Z"
    },
    {
      "id": "mersin-13",
      "name": "MEYDAN ECZANESİ",
      "address": "KARSIYAKA MAH. DONATIM CAD. NO:7",
      "phone": "03247747277",
      "district": "Mut",
      "city": "Mersin",
      "latitude": 36.650437,
      "longitude": 33.433855,
      "dutyStart": "2026-02-16T08:30:00.000Z",
      "dutyEnd": "2026-02-17T08:30:00.000Z"
    },
    {
      "id": "mersin-14",
      "name": "ARIKAN ECZANESİ",
      "address": "SARAY MAH.DEMİROLUK CAD.NO:4/5",
      "phone": "03247517282",
      "district": "Gülnar",
      "city": "Mersin",
      "latitude": 36.338381,
      "longitude": 33.40337,
      "dutyStart": "2026-02-16T08:30:00.000Z",
      "dutyEnd": "2026-02-17T08:30:00.000Z"
    },
    {
      "id": "mersin-15",
      "name": "EMRAH ECZANESİ",
      "address": "MERKEZ MAH. KAZIM KARABEKİR CAD.NO:74/H",
      "phone": "03245157020",
      "district": "Erdemli̇",
      "city": "Mersin",
      "latitude": 36.610175,
      "longitude": 34.303134,
      "dutyStart": "2026-02-16T08:30:00.000Z",
      "dutyEnd": "2026-02-17T08:30:00.000Z"
    },
    {
      "id": "mersin-16",
      "name": "BİRGÜL ECZANESİ",
      "address": "ÇOPURLU MAH.ŞEHITLER CAD.NO:89/b",
      "phone": "03248514477",
      "district": "Bozyazi",
      "city": "Mersin",
      "latitude": 36.114573,
      "longitude": 32.972049,
      "dutyStart": "2026-02-16T08:30:00.000Z",
      "dutyEnd": "2026-02-17T08:30:00.000Z"
    },
    {
      "id": "mersin-17",
      "name": "KUTAY ECZANESİ",
      "address": "CUMHURİYET MAH. SİLİFKE CAD. NO:1/D",
      "phone": "03248412233",
      "district": "Aydincik",
      "city": "Mersin",
      "latitude": 36.152821,
      "longitude": 33.33882,
      "dutyStart": "2026-02-16T08:30:00.000Z",
      "dutyEnd": "2026-02-17T08:30:00.000Z"
    },
    {
      "id": "mersin-18",
      "name": "SİNANOĞLU ECZANESİ",
      "address": "SARAY MAH.BANKALAR CAD.NO.81",
      "phone": "03248141256",
      "district": "Anamur",
      "city": "Mersin",
      "latitude": 36.079187,
      "longitude": 32.830054,
      "dutyStart": "2026-02-16T08:30:00.000Z",
      "dutyEnd": "2026-02-17T08:30:00.000Z"
    }
  ]
}