{
  "city": "samsun",
  "cityName": "Samsun",
  "cityId": 55,
  "date": "2026-02-16",
  "updatedAt": "2026-02-16T19:30:06.758Z",
  "count": 20,
  "pharmacies": [
    {
      "id": "samsun-0",
      "name": "FARUK ECZANESİ",
      "address": "FEVZİ ÇAKMAK MAH. GELİBOLU SOK. NO:11/1",
      "phone": "03622343583",
      "district": "İlkadım",
      "city": "Samsun",
      "latitude": 41.276448,
      "longitude": 36.327843,
      "dutyStart": "2026-02-16T08:30:00.000Z",
      "dutyEnd": "2026-02-17T08:30:00.000Z"
    },
    {
      "id": "samsun-1",
      "name": "ARAŞTIRMA  ECZANESİ",
      "address": "TEPECİK MAH. 1545. CAD. NO:17",
      "phone": "03625032330",
      "district": "İlkadım",
      "city": "Samsun",
      "latitude": 41.269815,
      "longitude": 36.296445,
      "dutyStart": "2026-02-16T08:30:00.000Z",
      "dutyEnd": "2026-02-17T08:30:00.000Z"
    },
    {
      "id": "samsun-2",
      "name": "ULUS ECZANESİ",
      "address": "İSTASYON MAH. CUMHURİYET CAD. NO:122",
      "phone": "03622312436",
      "district": "İlkadım",
      "city": "Samsun",
      "latitude": 41.284544,
      "longitude": 36.341901,
      "dutyStart": "2026-02-16T08:30:00.000Z",
      "dutyEnd": "2026-02-17T08:30:00.000Z"
    },
    {
      "id": "samsun-3",
      "name": "KUZEY ECZANESİ",
      "address": "GAZIOSMAN PASA MAH.SEHIT MESUT BIRINCI CAD. 173",
      "phone": "03622380190",
      "district": "Canik",
      "city": "Samsun",
      "latitude": 41.261859,
      "longitude": 36.354126,
      "dutyStart": "2026-02-16T08:30:00.000Z",
      "dutyEnd": "2026-02-17T08:30:00.000Z"
    },
    {
      "id": "samsun-4",
      "name": "MİMAR SİNAN ECZANESİ",
      "address": "MEVLANA MAH. 739.SOK. NO:4/A",
      "phone": "03624360028",
      "district": "Atakum",
      "city": "Samsun",
      "latitude": 41.326922,
      "longitude": 36.269229,
      "dutyStart": "2026-02-16T08:30:00.000Z",
      "dutyEnd": "2026-02-17T08:30:00.000Z"
    },
    {
      "id": "samsun-5",
      "name": "KÖRFEZ ECZANESİ",
      "address": "KÖRFEZ MAH. 5.KIZIM ATATÜRK BULV. NO:115/A",
      "phone": "03624575058",
      "district": "Atakum",
      "city": "Samsun",
      "latitude": 41.366104,
      "longitude": 36.229455,
      "dutyStart": "2026-02-16T08:30:00.000Z",
      "dutyEnd": "2026-02-17T08:30:00.000Z"
    },
    {
      "id": "samsun-6",
      "name": "MERKEZ ECZANESİ",
      "address": "23 NİSAN MAH. SAMSUN CAD. NO:11",
      "phone": "03622560770",
      "district": "Tekkeköy",
      "city": "Samsun",
      "latitude": 41.21287,
      "longitude": 36.458353,
      "dutyStart": "2026-02-16T08:30:00.000Z",
      "dutyEnd": "2026-02-17T08:30:00.000Z"
    },
    {
      "id": "samsun-7",
      "name": "GÜLŞAH ECZANESİ",
      "address": "YENİ CAMİ MAH. LİSE CAD. NO.49/A",
      "phone": "03626213572",
      "district": "Alaçam",
      "city": "Samsun",
      "latitude": 41.610871,
      "longitude": 35.600072,
      "dutyStart": "2026-02-16T08:30:00.000Z",
      "dutyEnd": "2026-02-17T08:30:00.000Z"
    },
    {
      "id": "samsun-8",
      "name": "CANSU ECZANESİ",
      "address": "BİÇİMCİK MAH. ESEN SOK. NO:16",
      "phone": "03627913255",
      "district": "Asarcık",
      "city": "Samsun",
      "latitude": 41.036565,
      "longitude": 36.225276,
      "dutyStart": "2026-02-16T08:30:00.000Z",
      "dutyEnd": "2026-02-17T08:30:00.000Z"
    },
    {
      "id": "samsun-9",
      "name": "UMUT ECZANESİ",
      "address": "ORHANGAZİ MAH.ATATÜRK BULVARI NO:23/A",
      "phone": "03628114010",
      "district": "Ayvacık",
      "city": "Samsun",
      "latitude": 40.988226,
      "longitude": 36.630657,
      "dutyStart": "2026-02-16T08:30:00.000Z",
      "dutyEnd": "2026-02-17T08:30:00.000Z"
    },
    {
      "id": "samsun-10",
      "name": "SANDIKÇI ECZANESİ",
      "address": "İSHAKLI MAH. DERMAN SOK. NO:8/B",
      "phone": "03625427474",
      "district": "Bafra",
      "city": "Samsun",
      "latitude": 41.551142,
      "longitude": 35.927129,
      "dutyStart": "2026-02-16T08:30:00.000Z",
      "dutyEnd": "2026-02-17T08:30:00.000Z"
    },
    {
      "id": "samsun-11",
      "name": "KAYNAK  ECZANESİ",
      "address": "HELVACALI MAH. YENİ SAMSUN CAD.NO:99/B",
      "phone": "03628332323",
      "district": "Çarşamba",
      "city": "Samsun",
      "latitude": 41.208937,
      "longitude": 36.748346,
      "dutyStart": "2026-02-16T08:30:00.000Z",
      "dutyEnd": "2026-02-17T08:30:00.000Z"
    },
    {
      "id": "samsun-12",
      "name": "DÖRTYOL ECZANESİ",
      "address": "25 MAYIS MAH. KAZIM PAŞA CAD. NO:4/1",
      "phone": "03627142264",
      "district": "Havza",
      "city": "Samsun",
      "latitude": 40.968212,
      "longitude": 35.667898,
      "dutyStart": "2026-02-16T08:30:00.000Z",
      "dutyEnd": "2026-02-17T08:30:00.000Z"
    },
    {
      "id": "samsun-13",
      "name": "KUZEY ECZANESİ",
      "address": "SOĞUKSU MAH. 217. SOK. NO. 2/13",
      "phone": "03627412101",
      "district": "Kavak",
      "city": "Samsun",
      "latitude": 41.070815,
      "longitude": 36.041546,
      "dutyStart": "2026-02-16T08:30:00.000Z",
      "dutyEnd": "2026-02-17T08:30:00.000Z"
    },
    {
      "id": "samsun-14",
      "name": "AKPINAR ECZANESİ",
      "address": "BAHŞİ MAH. GAZİLER CAD. NO:66/A",
      "phone": "03627714555",
      "district": "Ladik",
      "city": "Samsun",
      "latitude": 40.911479,
      "longitude": 35.894964,
      "dutyStart": "2026-02-16T08:30:00.000Z",
      "dutyEnd": "2026-02-17T08:30:00.000Z"
    },
    {
      "id": "samsun-15",
      "name": "CAN ECZANESİ",
      "address": "PAZAR MAH.ATATÜRK BUL.NO:143/C",
      "phone": "03625114400",
      "district": "Ondokuzmayıs",
      "city": "Samsun",
      "latitude": 41.494293,
      "longitude": 36.078586,
      "dutyStart": "2026-02-16T08:30:00.000Z",
      "dutyEnd": "2026-02-17T08:30:00.000Z"
    },
    {
      "id": "samsun-16",
      "name": "SEDA ECZANESİ",
      "address": "ORTA MAH. MUSA KÜÇÜKKURT CAD. NO:2/A",
      "phone": "03628213333",
      "district": "Salıpazarı",
      "city": "Samsun",
      "latitude": 41.081211,
      "longitude": 36.825702,
      "dutyStart": "2026-02-16T08:30:00.000Z",
      "dutyEnd": "2026-02-17T08:30:00.000Z"
    },
    {
      "id": "samsun-17",
      "name": "SIHHAT ECZANESİ",
      "address": "ÇAY MAH. ÇAĞLAYAN CAD. NO:5",
      "phone": "03628762760",
      "district": "Terme",
      "city": "Samsun",
      "latitude": 41.207958,
      "longitude": 36.972913,
      "dutyStart": "2026-02-16T08:30:00.000Z",
      "dutyEnd": "2026-02-17T08:30:00.000Z"
    },
    {
      "id": "samsun-18",
      "name": "ARZU ECZANESİ",
      "address": "MEHMETPAŞA MAH PARK KARŞISI KÖPRÜLÜLER CAD. NO:26/B",
      "phone": "03626473366",
      "district": "Vezirköprü",
      "city": "Samsun",
      "latitude": 41.142406,
      "longitude": 35.458151,
      "dutyStart": "2026-02-16T08:30:00.000Z",
      "dutyEnd": "2026-02-17T08:30:00.000Z"
    },
    {
      "id": "samsun-25",
      "name": "ŞİFA  ECZANESİ",
      "address": "CUMHURIYET CAD.NO:4/B",
      "phone": "03686712179",
      "district": "Türkeli",
      "city": "Samsun",
      "latitude": 41.946557,
      "longitude": 34.336765,
      "dutyStart": "2026-02-16T08:30:00.000Z",
      "dutyEnd": "2026-02-17T08:30:00.000Z"
    }
  ]
}