{
  "city": "sinop",
  "cityName": "Sinop",
  "cityId": 57,
  "date": "2026-02-16",
  "updatedAt": "2026-02-16T08:00:24.177Z",
  "count": 6,
  "pharmacies": [
    {
      "id": "sinop-20",
      "name": "GÖKÇE  ECZANESİ",
      "address": "KEFEVİ MAHALLESİ DERVİŞ SARABİL CADDESİ NO.2/AA",
      "phone": "03682611536",
      "district": "Merkez",
      "city": "Sinop",
      "latitude": 42.026303,
      "longitude": 35.151831,
      "dutyStart": "2026-02-16T08:30:00.000Z",
      "dutyEnd": "2026-02-17T08:30:00.000Z"
    },
    {
      "id": "sinop-21",
      "name": "YAVUZ  ECZANESİ",
      "address": "YALI MAH.ATATÜRK CAD. HASTANE SOK. NO:1/A",
      "phone": "03686131311",
      "district": "Ayancık",
      "city": "Sinop",
      "latitude": 41.943855,
      "longitude": 34.58856,
      "dutyStart": "2026-02-16T08:30:00.000Z",
      "dutyEnd": "2026-02-17T08:30:00.000Z"
    },
    {
      "id": "sinop-22",
      "name": "BOYABAT ECZANESİ",
      "address": "GÖKDERE MAH. YUSUF KEMALBEY CAD.NO:48/A",
      "phone": "03683151032",
      "district": "Boyabat",
      "city": "Sinop",
      "latitude": 41.466594,
      "longitude": 34.767306,
      "dutyStart": "2026-02-16T08:30:00.000Z",
      "dutyEnd": "2026-02-17T08:30:00.000Z"
    },
    {
      "id": "sinop-23",
      "name": "ALTINKAYNAK ECZANESİ",
      "address": "PLEVNA CAD.NO:17",
      "phone": "03684161451",
      "district": "Durağan",
      "city": "Sinop",
      "latitude": 41.416016,
      "longitude": 35.056434,
      "dutyStart": "2026-02-16T08:30:00.000Z",
      "dutyEnd": "2026-02-17T08:30:00.000Z"
    },
    {
      "id": "sinop-24",
      "name": "ÇAĞLAR  ECZANESİ",
      "address": "MERKEZ MAH. CUMHURİYET CAD. NO:12/A",
      "phone": "03685112020",
      "district": "Erfelek",
      "city": "Sinop",
      "latitude": 41.879734,
      "longitude": 34.90736,
      "dutyStart": "2026-02-16T08:30:00.000Z",
      "dutyEnd": "2026-02-17T08:30:00.000Z"
    },
    {
      "id": "sinop-25",
      "name": "YUMUK ECZANESİ",
      "address": "ÇARŞI MAH.GENERAL OSMAN PAMUKOĞLU CAD.NO:6",
      "phone": "03687184428",
      "district": "Gerze",
      "city": "Sinop",
      "latitude": 41.802545,
      "longitude": 35.197872,
      "dutyStart": "2026-02-16T08:30:00.000Z",
      "dutyEnd": "2026-02-17T08:30:00.000Z"
    }
  ]
}