{
  "city": "ankara",
  "cityName": "Ankara",
  "cityId": 6,
  "date": "2026-02-25",
  "updatedAt": "2026-02-25T06:00:27.995Z",
  "count": 59,
  "pharmacies": [
    {
      "id": "ankara-0",
      "name": "GÜNER ECZANESİ",
      "address": "Emek Mah. 21.Sok. No:40/B Emek /Çankaya/ANKARA , Eski 68.Sok. 03122236565",
      "phone": "03122236565",
      "district": "Çankaya",
      "city": "Ankara",
      "latitude": 39.924440986034,
      "longitude": 32.816516160965,
      "dutyStart": "2026-02-25T08:30:00.000Z",
      "dutyEnd": "2026-02-26T08:30:00.000Z"
    },
    {
      "id": "ankara-1",
      "name": "YENİ BALGAT ESER ECZANESİ",
      "address": "Oğuzlar Mah. Barış Manço Cad. No:6/9 Balgat/Çankaya/ ANKARA , Japon Pazarı Karşısı 03122872994",
      "phone": "03122872994",
      "district": "Çankaya",
      "city": "Ankara",
      "latitude": 39.90446907553,
      "longitude": 32.817192077637,
      "dutyStart": "2026-02-25T08:30:00.000Z",
      "dutyEnd": "2026-02-26T08:30:00.000Z"
    },
    {
      "id": "ankara-2",
      "name": "DURSUN AKAR ECZANESİ",
      "address": "Karşıyaka Mah. 506.Cad.No:54/A Yenimahalle/ANKARA , Toki Blok.yanı-Karakol üstü 03123463131",
      "phone": "03123463131",
      "district": "Yenimahalle",
      "city": "Ankara",
      "latitude": 39.97350253455,
      "longitude": 32.790665030479,
      "dutyStart": "2026-02-25T08:30:00.000Z",
      "dutyEnd": "2026-02-26T08:30:00.000Z"
    },
    {
      "id": "ankara-3",
      "name": "BAYKAL ECZANESİ",
      "address": "Demetgül Mah. Şehit Hüseyin Açıkbaş.Cad. No:76/29 Yenimahalle/ANKARA , Eski 10.Sokak 03123461100",
      "phone": "03123461100",
      "district": "Yenimahalle",
      "city": "Ankara",
      "latitude": 39.959709843544,
      "longitude": 32.792535993394,
      "dutyStart": "2026-02-25T08:30:00.000Z",
      "dutyEnd": "2026-02-26T08:30:00.000Z"
    },
    {
      "id": "ankara-4",
      "name": "CÜNEYT HARMAN ECZANESİ",
      "address": "Yeni Bayındır Mah. Mavi Göl Caddesi (BinaNo:19/A) Kapı No:27/A-A Mamak/ANKARA , Yeni Bayındır Mah.Muhtarlığı Karşısı 05540045678",
      "phone": "05540045678",
      "district": "Mamak",
      "city": "Ankara",
      "latitude": 39.904835835168,
      "longitude": 32.983138561358,
      "dutyStart": "2026-02-25T08:30:00.000Z",
      "dutyEnd": "2026-02-26T08:30:00.000Z"
    },
    {
      "id": "ankara-5",
      "name": "DEREBOYU ECZANESİ",
      "address": "Peyamisafa Mah. Dereboyu Cad.No:44 Akdere/ Mamak ANKARA , Total Benzinlik çaprazı 03125640796",
      "phone": "03125640796",
      "district": "Ankara",
      "city": "Ankara",
      "latitude": 39.91774318636,
      "longitude": 32.900158166885,
      "dutyStart": "2026-02-25T08:30:00.000Z",
      "dutyEnd": "2026-02-26T08:30:00.000Z"
    },
    {
      "id": "ankara-6",
      "name": "FATİH ECZANESİ",
      "address": "Gülveren Mah. Abdülhak Hamit Cad. No:12/D Mamak /ANKARA , 03123201826",
      "phone": "03123201826",
      "district": "Mamak",
      "city": "Ankara",
      "latitude": 39.944583919293,
      "longitude": 32.893482148647,
      "dutyStart": "2026-02-25T08:30:00.000Z",
      "dutyEnd": "2026-02-26T08:30:00.000Z"
    },
    {
      "id": "ankara-7",
      "name": "ESMA ECZANESİ",
      "address": "100.Yıl Mah. Reşit Galip Cad.No:13/B Çankaya/ANKARA , 03125776770",
      "phone": "03125776770",
      "district": "Çankaya",
      "city": "Ankara",
      "latitude": 39.902857984697,
      "longitude": 32.868998944759,
      "dutyStart": "2026-02-25T08:30:00.000Z",
      "dutyEnd": "2026-02-26T08:30:00.000Z"
    },
    {
      "id": "ankara-8",
      "name": "BAHAR SOYSAL ECZANESİ",
      "address": "Simon Bolivar Cad. No:15/2 Çankaya/ANKARA , (TEB Bankası yanı) 03124404554",
      "phone": "03124404554",
      "district": "Çankaya",
      "city": "Ankara",
      "latitude": 39.883791562544,
      "longitude": 32.856647372246,
      "dutyStart": "2026-02-25T08:30:00.000Z",
      "dutyEnd": "2026-02-26T08:30:00.000Z"
    },
    {
      "id": "ankara-9",
      "name": "ANKAMALL ECZANESİ",
      "address": "Gazi Mah. Mevlana Bulv.Ankamall AVM No:Z027 Akköprü/ Yenimahalle/ANKARA , 03125412199",
      "phone": "03125412199",
      "district": "Yenimahalle",
      "city": "Ankara",
      "latitude": 39.950773276516,
      "longitude": 32.833027839661,
      "dutyStart": "2026-02-25T08:30:00.000Z",
      "dutyEnd": "2026-02-26T08:30:00.000Z"
    },
    {
      "id": "ankara-10",
      "name": "SEVEN ECZANESİ",
      "address": "Yayla Mah. Bağcı Cad. No:20/A Keçiören/ ANKARA , Etlik Lisesi 200 metre ilerisi 03123223063",
      "phone": "03123223063",
      "district": "Keçiören",
      "city": "Ankara",
      "latitude": 39.984225176412,
      "longitude": 32.831952273846,
      "dutyStart": "2026-02-25T08:30:00.000Z",
      "dutyEnd": "2026-02-26T08:30:00.000Z"
    },
    {
      "id": "ankara-11",
      "name": "UMUT ECZANESİ",
      "address": "Selçuklu Caddesi No:58/A-B (Karargahtepe Mahallesi) Keçiören/ ANKARA , PapazDeresi Akyurt Market yanı 05431862302",
      "phone": "05431862302",
      "district": "Keçiören",
      "city": "Ankara",
      "latitude": 39.971502515047,
      "longitude": 32.857166414069,
      "dutyStart": "2026-02-25T08:30:00.000Z",
      "dutyEnd": "2026-02-26T08:30:00.000Z"
    },
    {
      "id": "ankara-12",
      "name": "HASKÖY ECZANESİ",
      "address": "Güneşevler Mah. 128. Cad. No:9/B Altındağ/ ANKARA , Hasköy Semt Polikliniği Karşısı 03125172275",
      "phone": "03125172275",
      "district": "Altındağ",
      "city": "Ankara",
      "latitude": 39.971405904196,
      "longitude": 32.885183393955,
      "dutyStart": "2026-02-25T08:30:00.000Z",
      "dutyEnd": "2026-02-26T08:30:00.000Z"
    },
    {
      "id": "ankara-13",
      "name": "ŞAHSENEM ECZANESİ",
      "address": "Şenlik Mah. Kızlarpınarı Cad. Baykara Sok. No:4/B-4/C Keçiören/ ANKARA , F.S.M.Lisesi aşağısı-Yeniyol duragı 03123564213",
      "phone": "03123564213",
      "district": "Keçiören",
      "city": "Ankara",
      "latitude": 39.994268033982,
      "longitude": 32.873988377396,
      "dutyStart": "2026-02-25T08:30:00.000Z",
      "dutyEnd": "2026-02-26T08:30:00.000Z"
    },
    {
      "id": "ankara-14",
      "name": "VEFA ECZANESİ",
      "address": "Sokullu Mehmet Paşa Cad. No:79/A Dikmen / Çankaya/ ANKARA , 03124822674",
      "phone": "03124822674",
      "district": "Çankaya",
      "city": "Ankara",
      "latitude": 39.886076108631,
      "longitude": 32.837091386318,
      "dutyStart": "2026-02-25T08:30:00.000Z",
      "dutyEnd": "2026-02-26T08:30:00.000Z"
    },
    {
      "id": "ankara-15",
      "name": "ÜNİVERSİTE ECZANESİ",
      "address": "İlker Mah. İlker Cad. No: 185/A Çankaya/ ANKARA , Vadi ASM Yanı 03124800507",
      "phone": "03124800507",
      "district": "Çankaya",
      "city": "Ankara",
      "latitude": 39.861317657778,
      "longitude": 32.836109872496,
      "dutyStart": "2026-02-25T08:30:00.000Z",
      "dutyEnd": "2026-02-26T08:30:00.000Z"
    },
    {
      "id": "ankara-16",
      "name": "ÇİĞİLTEPE ECZANESİ",
      "address": "Çiğiltepe Önder Mah.Ereğli Cad.No:86/B Altındağ/ANKARA , Çiğiltepe Loj.3.Niz.çıkışı 03123505232",
      "phone": "03123505232",
      "district": "Altındağ",
      "city": "Ankara",
      "latitude": 39.954885496571,
      "longitude": 32.915725708008,
      "dutyStart": "2026-02-25T08:30:00.000Z",
      "dutyEnd": "2026-02-26T08:30:00.000Z"
    },
    {
      "id": "ankara-17",
      "name": "DENİZCİLER ECZANESİ",
      "address": "Hacıbayram Mah. Talatpaşa Bulvarı No:9/E Altındağ/ANKARA , Eski Numune Hastanesi Karşısı 03123125954",
      "phone": "03123125954",
      "district": "Altındağ",
      "city": "Ankara",
      "latitude": 39.933704921334,
      "longitude": 32.857489585876,
      "dutyStart": "2026-02-25T08:30:00.000Z",
      "dutyEnd": "2026-02-26T08:30:00.000Z"
    },
    {
      "id": "ankara-18",
      "name": "YENİKENT YAŞAM ECZANESİ",
      "address": "29 Ekim Mah. 65. Cad. No:21/B Yenikent/ Sincan/ANKARA , İlksan Anadolu Lisesinin olduğu Cad 03122770015",
      "phone": "03122770015",
      "district": "Sincan",
      "city": "Ankara",
      "latitude": 40.012668914402,
      "longitude": 32.530839443207,
      "dutyStart": "2026-02-25T08:30:00.000Z",
      "dutyEnd": "2026-02-26T08:30:00.000Z"
    },
    {
      "id": "ankara-19",
      "name": "ÇALIŞKAN ECZANESİ",
      "address": "Camiatik Mah. Banka Sok. No:7/B Ayaş/ ANKARA , 03127121829",
      "phone": "03127121829",
      "district": "Ayaş",
      "city": "Ankara",
      "latitude": 40.018675452628,
      "longitude": 32.331047058105,
      "dutyStart": "2026-02-25T08:30:00.000Z",
      "dutyEnd": "2026-02-26T08:30:00.000Z"
    },
    {
      "id": "ankara-20",
      "name": "SİNCAN YAĞIZ ECZANESİ",
      "address": "Andiçen Mah. Ahi Mesut Bulvarı No:258/B Sincan / ANKARA , Vatan Bilgisayarın Olduğu Işıklarda 03122637557",
      "phone": "03122637557",
      "district": "Sincan",
      "city": "Ankara",
      "latitude": 39.952072764773,
      "longitude": 32.57926940918,
      "dutyStart": "2026-02-25T08:30:00.000Z",
      "dutyEnd": "2026-02-26T08:30:00.000Z"
    },
    {
      "id": "ankara-21",
      "name": "MEHTAP ECZANESİ",
      "address": "Akşemsettin Mah.Bosna Cad. Huzur Sok.No:3/B Sincan/ ANKARA , Özel Koru Hast.acil çıkışı 03122769988",
      "phone": "03122769988",
      "district": "Sincan",
      "city": "Ankara",
      "latitude": 39.965477436645,
      "longitude": 32.587750554085,
      "dutyStart": "2026-02-25T08:30:00.000Z",
      "dutyEnd": "2026-02-26T08:30:00.000Z"
    },
    {
      "id": "ankara-22",
      "name": "GÖK ECZANESİ",
      "address": "Törekent Mah.253/1 Sok.No:40/E-F /Sincan/ANKARA , Törekent Metro çıkışı 03123517994",
      "phone": "03123517994",
      "district": "Sincan",
      "city": "Ankara",
      "latitude": 39.987872998521,
      "longitude": 32.559683918953,
      "dutyStart": "2026-02-25T08:30:00.000Z",
      "dutyEnd": "2026-02-26T08:30:00.000Z"
    },
    {
      "id": "ankara-23",
      "name": "KIVANÇ ECZANESİ",
      "address": "Beyazıt Mah. Sevda Cad. No:4/B Akyurt/ ANKARA , Benliler Market ve 1 Nolu ASM Karşısı 05523729072",
      "phone": "05523729072",
      "district": "Akyurt",
      "city": "Ankara",
      "latitude": 40.130862788476,
      "longitude": 33.081028542765,
      "dutyStart": "2026-02-25T08:30:00.000Z",
      "dutyEnd": "2026-02-26T08:30:00.000Z"
    },
    {
      "id": "ankara-24",
      "name": "ÖZGÜL ECZANESİ",
      "address": "Ayvaşık Mah. 75.Yıl Bulvarı No:95/C Beypazarı/ ANKARA , 4 Nolu ASM karşısı-Beysan arkası 05538987553",
      "phone": "05538987553",
      "district": "Beypazarı",
      "city": "Ankara",
      "latitude": 40.161952193946,
      "longitude": 31.946622198739,
      "dutyStart": "2026-02-25T08:30:00.000Z",
      "dutyEnd": "2026-02-26T08:30:00.000Z"
    },
    {
      "id": "ankara-25",
      "name": "HACETTEPE ECZANESİ",
      "address": "Topçu Mah.1514.Cadde Emre Apt.No:53/B (17) Elvankent/ Etimesgut/ ANKARA , Topçu Kapalı pazar çaprrazı 03124352804",
      "phone": "03124352804",
      "district": "Etimesgut",
      "city": "Ankara",
      "latitude": 39.952186880047,
      "longitude": 32.617094432871,
      "dutyStart": "2026-02-25T08:30:00.000Z",
      "dutyEnd": "2026-02-26T08:30:00.000Z"
    },
    {
      "id": "ankara-26",
      "name": "ATAYURT ECZANESİ",
      "address": "Yukarı Yurtçu Mah. Evliya Çelebi Cad. Cadde Yunus AVM A Blok No:3 Etimesgut/ANKARA , 05422991012",
      "phone": "05422991012",
      "district": "Etimesgut",
      "city": "Ankara",
      "latitude": 39.842922381449,
      "longitude": 32.546142786741,
      "dutyStart": "2026-02-25T08:30:00.000Z",
      "dutyEnd": "2026-02-26T08:30:00.000Z"
    },
    {
      "id": "ankara-27",
      "name": "BAHADIR ECZANESİ",
      "address": "Kazım Karabekir Mah. Keloğlan Sok. No:74/A Etimesgut/ ANKARA , Etimesgut 2nolu ASM karşısı 03122440717",
      "phone": "03122440717",
      "district": "Etimesgut",
      "city": "Ankara",
      "latitude": 39.94440295956,
      "longitude": 32.648760080338,
      "dutyStart": "2026-02-25T08:30:00.000Z",
      "dutyEnd": "2026-02-26T08:30:00.000Z"
    },
    {
      "id": "ankara-28",
      "name": "CONCEPT ERYAMAN ECZANESİ",
      "address": "Yavuz Selim Mah. 11.Cadde 7/A Blok No:6 3.Etap Eryaman/ Etimesgut/ ANKARA , Concept Eryaman AVM 03122471323",
      "phone": "03122471323",
      "district": "Etimesgut",
      "city": "Ankara",
      "latitude": 40.001317,
      "longitude": 32.616361,
      "dutyStart": "2026-02-25T08:30:00.000Z",
      "dutyEnd": "2026-02-26T08:30:00.000Z"
    },
    {
      "id": "ankara-29",
      "name": "MERVE ECZANESİ",
      "address": "Medrese Mah. Karahoca Cad. Pazar Sok. No:6/B Haymana/ANKARA , Sağlık Ocağı Karşısı 03126580027",
      "phone": "03126580027",
      "district": "Haymana",
      "city": "Ankara",
      "latitude": 39.432791419498,
      "longitude": 32.49464655295,
      "dutyStart": "2026-02-25T08:30:00.000Z",
      "dutyEnd": "2026-02-26T08:30:00.000Z"
    },
    {
      "id": "ankara-30",
      "name": "GÖKSUN ECZANESİ",
      "address": "Atatürk Mah. Osmanlı Caddesi No:78/A Kahramankazan/ ANKARA (Tel.03128141600) , Yeni Devlet Hastanesi Karşısı 03128141600",
      "phone": "03128141600",
      "district": "Kahramankazan",
      "city": "Ankara",
      "latitude": 40.19842900324,
      "longitude": 32.674015760422,
      "dutyStart": "2026-02-25T08:30:00.000Z",
      "dutyEnd": "2026-02-26T08:30:00.000Z"
    },
    {
      "id": "ankara-31",
      "name": "NUR ÇEVİK ECZANESİ",
      "address": "Akçay Mah.Hacı Hasan Cad. No:18 Kızılcahamam/ ANKARA , Sağlık Ocağı yakını 03123580401",
      "phone": "03123580401",
      "district": "Kızılcahamam",
      "city": "Ankara",
      "latitude": 40.470918481241,
      "longitude": 32.646179795265,
      "dutyStart": "2026-02-25T08:30:00.000Z",
      "dutyEnd": "2026-02-26T08:30:00.000Z"
    },
    {
      "id": "ankara-32",
      "name": "MÜFTÜOĞLU ECZANESİ",
      "address": "Lalahan Mah.Lalapaşa Cad.3/B Lalahan/ / ANKARA ((312865 18 85) , “ÖZEL NÖBET BÖLGESİ LÜTFEN ECZANEYİ TELEFON İLE ARAYİNİZ.\" 05408651885",
      "phone": "05408651885",
      "district": "Ankara",
      "city": "Ankara",
      "latitude": 39.970676179525,
      "longitude": 33.114105784334,
      "dutyStart": "2026-02-25T08:30:00.000Z",
      "dutyEnd": "2026-02-26T08:30:00.000Z"
    },
    {
      "id": "ankara-33",
      "name": "ATAY ECZANESİ",
      "address": "Nasuh Paşa Mah. Ankara İstanbul Devlet Yolu Cad. No:92/C Nallıhan/ ANKARA , 03127851818",
      "phone": "03127851818",
      "district": "Nallıhan",
      "city": "Ankara",
      "latitude": 0,
      "longitude": 0,
      "dutyStart": "2026-02-25T08:30:00.000Z",
      "dutyEnd": "2026-02-26T08:30:00.000Z"
    },
    {
      "id": "ankara-34",
      "name": "ERDEM ECZANESİ",
      "address": "Fatih Mah. Atatürk Cad. No:162/A Polatlı/ ANKARA , Polatlı Kaymakamlığı ilerisi 03126239797",
      "phone": "03126239797",
      "district": "Polatlı",
      "city": "Ankara",
      "latitude": 39.575609827105,
      "longitude": 32.125853777325,
      "dutyStart": "2026-02-25T08:30:00.000Z",
      "dutyEnd": "2026-02-26T08:30:00.000Z"
    },
    {
      "id": "ankara-35",
      "name": "PURSAKLAR HÜLYA ECZANESİ",
      "address": "Merkez Mah. Yavuz Bulvarı No:71/A Pursaklar/ANKARA , Pursaklar Hicret Cami yolu 03125271862",
      "phone": "03125271862",
      "district": "Pursaklar",
      "city": "Ankara",
      "latitude": 40.045191160202,
      "longitude": 32.89735579611,
      "dutyStart": "2026-02-25T08:30:00.000Z",
      "dutyEnd": "2026-02-26T08:30:00.000Z"
    },
    {
      "id": "ankara-36",
      "name": "ENES ECZANESİ",
      "address": "Yenişehir Mah. Yeşilçam Cüneyt Arkın Sok.No:1/C Yahşihan/ KIRIKKALE , Arabica Cafe Yanı 03183101002",
      "phone": "03183101002",
      "district": "Ankara",
      "city": "Ankara",
      "latitude": 39.871452669021,
      "longitude": 33.456642776728,
      "dutyStart": "2026-02-25T08:30:00.000Z",
      "dutyEnd": "2026-02-26T08:30:00.000Z"
    },
    {
      "id": "ankara-37",
      "name": "KEREM ECZANESİ",
      "address": "Sarıkaya Mah. Göçmenler Sok.No:2-3-4 Şereflikoçhisar/ ANKARA , 03126864832",
      "phone": "03126864832",
      "district": "Şereflikoçhisar",
      "city": "Ankara",
      "latitude": 0,
      "longitude": 0,
      "dutyStart": "2026-02-25T08:30:00.000Z",
      "dutyEnd": "2026-02-26T08:30:00.000Z"
    },
    {
      "id": "ankara-38",
      "name": "KARAKEÇİLİ ECZANESİ",
      "address": "Fatih Sultan Mehmet Mah.Hürriyet Cad.No:4/A Karakeçili/ KIRIKKALE , 03184743643",
      "phone": "03184743643",
      "district": "Ankara",
      "city": "Ankara",
      "latitude": 39.993750206346,
      "longitude": 33.533243363199,
      "dutyStart": "2026-02-25T08:30:00.000Z",
      "dutyEnd": "2026-02-26T08:30:00.000Z"
    },
    {
      "id": "ankara-39",
      "name": "SAĞLIK ECZANESİ",
      "address": "Halit Cevri Aslangil Mah. Çağlar Cad. No:20.Sok. No:12/B Kalecik/ ANKARA , Kalecik Devlet Hastanesi Karşısı 03128571110",
      "phone": "03128571110",
      "district": "Kalecik",
      "city": "Ankara",
      "latitude": 40.111110189041,
      "longitude": 33.409390577835,
      "dutyStart": "2026-02-25T08:30:00.000Z",
      "dutyEnd": "2026-02-26T08:30:00.000Z"
    },
    {
      "id": "ankara-40",
      "name": "KARAKAŞ ECZANESİ",
      "address": "Gaziosmanpaşa Mah. Şehit Gaffar Okkan Cad. No:70/E Gölbaşı/ANKARA , Jandarma Komutanlığı aşağısı 03124849966",
      "phone": "03124849966",
      "district": "Gölbaşı",
      "city": "Ankara",
      "latitude": 39.794902811105,
      "longitude": 32.80211881538,
      "dutyStart": "2026-02-25T08:30:00.000Z",
      "dutyEnd": "2026-02-26T08:30:00.000Z"
    },
    {
      "id": "ankara-41",
      "name": "UFUKTEPE ECZANESİ",
      "address": "Osmangazi Mah. Osmangazi Cad. No:54/C , Ufuktepe Karakol Karşısı 03125802751",
      "phone": "03125802751",
      "district": "Ankara",
      "city": "Ankara",
      "latitude": 40.013186598569,
      "longitude": 32.857511043549,
      "dutyStart": "2026-02-25T08:30:00.000Z",
      "dutyEnd": "2026-02-26T08:30:00.000Z"
    },
    {
      "id": "ankara-42",
      "name": "GÜVEN ECZANESİ",
      "address": "Yenidoğan Mah. Hürriyet Cad. No:14/1 /Merkez/ KIRIKKALE , (Cumhuriyet Meydanı) 03182243031",
      "phone": "03182243031",
      "district": "Ankara",
      "city": "Ankara",
      "latitude": 39.840580792108,
      "longitude": 33.505103588104,
      "dutyStart": "2026-02-25T08:30:00.000Z",
      "dutyEnd": "2026-02-26T08:30:00.000Z"
    },
    {
      "id": "ankara-43",
      "name": "FURKAN ECZANESİ",
      "address": "Fabrikalar Mah. 25.Sok. No:5/C Merkez/KIRIKKALE , Eski Süleyman Demirel Tıp Fakültesi yanı 03182440408",
      "phone": "03182440408",
      "district": "Ankara",
      "city": "Ankara",
      "latitude": 39.837203161117,
      "longitude": 33.498088880733,
      "dutyStart": "2026-02-25T08:30:00.000Z",
      "dutyEnd": "2026-02-26T08:30:00.000Z"
    },
    {
      "id": "ankara-44",
      "name": "PARK YILDIZ ECZANESİ",
      "address": "Yaşamkent Mah. 3158. Cad.No:55 Çankaya/ANKARA , Akıncı Plaza Karşısı 03122176020",
      "phone": "03122176020",
      "district": "Çankaya",
      "city": "Ankara",
      "latitude": 39.864734248208,
      "longitude": 32.652751207352,
      "dutyStart": "2026-02-25T08:30:00.000Z",
      "dutyEnd": "2026-02-26T08:30:00.000Z"
    },
    {
      "id": "ankara-45",
      "name": "OZAN ECZANESİ",
      "address": "Ümit Mah. 2432.Cad.Çamlıca Evleri Sitesi A-2 Blok No:11/A Ümitköy/ Çankaya/ANKARA , Düveroğlu karşısı 03122356775",
      "phone": "03122356775",
      "district": "Çankaya",
      "city": "Ankara",
      "latitude": 39.891661606111,
      "longitude": 32.701647877693,
      "dutyStart": "2026-02-25T08:30:00.000Z",
      "dutyEnd": "2026-02-26T08:30:00.000Z"
    },
    {
      "id": "ankara-46",
      "name": "BODUR ECZANESİ",
      "address": "Cumhuriyet Mah.Başak Sok.No:13/C Çubuk/Ankara , Çubuk Devlet Hastanesi arkası 03128386655",
      "phone": "03128386655",
      "district": "Çubuk",
      "city": "Ankara",
      "latitude": 40.23024002195,
      "longitude": 33.032173812389,
      "dutyStart": "2026-02-25T08:30:00.000Z",
      "dutyEnd": "2026-02-26T08:30:00.000Z"
    },
    {
      "id": "ankara-47",
      "name": "CENNET ECZANESİ",
      "address": "Cumhuriyet Mah.Ankara Cad. No:34/A Delice KIRIKKALE , 03186185433",
      "phone": "03186185433",
      "district": "Ankara",
      "city": "Ankara",
      "latitude": 0,
      "longitude": 0,
      "dutyStart": "2026-02-25T08:30:00.000Z",
      "dutyEnd": "2026-02-26T08:30:00.000Z"
    },
    {
      "id": "ankara-48",
      "name": "VERESELİ GÜDÜL ECZANESİ",
      "address": "Yukarı Gençlik Cad. No:10/A Güdül / ANKARA , 03127281533",
      "phone": "03127281533",
      "district": "Güdül",
      "city": "Ankara",
      "latitude": 40.20877009282,
      "longitude": 32.244186401367,
      "dutyStart": "2026-02-25T08:30:00.000Z",
      "dutyEnd": "2026-02-26T08:30:00.000Z"
    },
    {
      "id": "ankara-49",
      "name": "ŞENBABA ECZANESİ",
      "address": "Kartaltepe Mah. Alparslan Türkeş Bulvarı No:22/A Bala/ ANKARA , 03128761555",
      "phone": "03128761555",
      "district": "Bala",
      "city": "Ankara",
      "latitude": 39.551987767008,
      "longitude": 33.12433719635,
      "dutyStart": "2026-02-25T08:30:00.000Z",
      "dutyEnd": "2026-02-26T08:30:00.000Z"
    },
    {
      "id": "ankara-50",
      "name": "YILMAZ ECZANESİ",
      "address": "Menderes Bulvarı Sağlık 1. Sok. No:2 Hasanoğlan /Elmadağ/ ANKARA (2.Tel:3128661233) , 03128663771",
      "phone": "03128663771",
      "district": "Elmadağ",
      "city": "Ankara",
      "latitude": 39.998689957679,
      "longitude": 33.180084228516,
      "dutyStart": "2026-02-25T08:30:00.000Z",
      "dutyEnd": "2026-02-26T08:30:00.000Z"
    },
    {
      "id": "ankara-51",
      "name": "RANA ECZANESİ",
      "address": "Bozkurt Mah. Mer Sok.No:36 Keskin/KIRIKKALE , 03185153257",
      "phone": "03185153257",
      "district": "Ankara",
      "city": "Ankara",
      "latitude": 39.675067378825,
      "longitude": 33.614508211613,
      "dutyStart": "2026-02-25T08:30:00.000Z",
      "dutyEnd": "2026-02-26T08:30:00.000Z"
    },
    {
      "id": "ankara-52",
      "name": "TEMELLİ PINAR ECZANESİ",
      "address": "TEMELLİ-İstiklal Mah. Hürriyet Cad. No:30/A Temelli/ Sincan (312 645 17 40) , 05069267388",
      "phone": "05069267388",
      "district": "Ankara",
      "city": "Ankara",
      "latitude": 39.728919883625,
      "longitude": 32.35861748457,
      "dutyStart": "2026-02-25T08:30:00.000Z",
      "dutyEnd": "2026-02-26T08:30:00.000Z"
    },
    {
      "id": "ankara-53",
      "name": "BALIŞEYH ECZANESİ",
      "address": "Yeni Mah. 43.Sok. No:14/B Balışeyh/KIRIKKALE , Balışeyh Toplum Sağlığı Merkezi Karşısı 03182333318",
      "phone": "03182333318",
      "district": "Ankara",
      "city": "Ankara",
      "latitude": 39.916098977986,
      "longitude": 33.715695217252,
      "dutyStart": "2026-02-25T08:30:00.000Z",
      "dutyEnd": "2026-02-26T08:30:00.000Z"
    },
    {
      "id": "ankara-54",
      "name": "SÖNMEZ ECZANESİ",
      "address": "Kemal Paşa Mah. Cumhuriyet Cad. No:30/3/A Elmadağ/ANKARA , Bim market karşısı 03128633223",
      "phone": "03128633223",
      "district": "Elmadağ",
      "city": "Ankara",
      "latitude": 39.920835034635,
      "longitude": 33.228162825108,
      "dutyStart": "2026-02-25T08:30:00.000Z",
      "dutyEnd": "2026-02-26T08:30:00.000Z"
    },
    {
      "id": "ankara-55",
      "name": "ATAKENT BEYZA ECZANESİ",
      "address": "Turgut Özal Mah. 2113.Cad. 2264.Sok. No:D1/D2 Yenimahalle/ ANKARA , AtakentEvleri-İvedik Çarkırlar arası 03125660207",
      "phone": "03125660207",
      "district": "Yenimahalle",
      "city": "Ankara",
      "latitude": 39.994333789592,
      "longitude": 32.724221348763,
      "dutyStart": "2026-02-25T08:30:00.000Z",
      "dutyEnd": "2026-02-26T08:30:00.000Z"
    },
    {
      "id": "ankara-56",
      "name": "ANKARA DİLEK ECZANESİ",
      "address": "Kentkoop Mah. İkizkent Sitesi Alışveriş Merkezi 1820. Cad. 69/36N Batıkent / Yenimahalle-Ankara , MEDİCAL PARK HAST. ARKASI - İKİZ KULELER ALTI 03122551030",
      "phone": "03122551030",
      "district": "Ankara",
      "city": "Ankara",
      "latitude": 39.965411653262,
      "longitude": 32.706888914108,
      "dutyStart": "2026-02-25T08:30:00.000Z",
      "dutyEnd": "2026-02-26T08:30:00.000Z"
    },
    {
      "id": "ankara-57",
      "name": "PHARMA LİFE ECZANESİ",
      "address": "Kızılay Mah. Gmk Bulvarı No:14/D Çankaya/ANKARA , 03124661155",
      "phone": "03124661155",
      "district": "Çankaya",
      "city": "Ankara",
      "latitude": 39.922735564362,
      "longitude": 32.850734504629,
      "dutyStart": "2026-02-25T08:30:00.000Z",
      "dutyEnd": "2026-02-26T08:30:00.000Z"
    },
    {
      "id": "ankara-58",
      "name": "Nöbetçi Eczane Bulunamadı",
      "address": "Aradığınız kriterlere uygun nöbetçi eczane bulunamadı. Lütfen farklı bir arama deneyin.",
      "phone": "",
      "district": "Ankara",
      "city": "Ankara",
      "latitude": 0,
      "longitude": 0,
      "dutyStart": "2026-02-25T08:30:00.000Z",
      "dutyEnd": "2026-02-26T08:30:00.000Z"
    }
  ]
}