{
  "city": "istanbul",
  "cityName": "İstanbul",
  "cityId": 34,
  "date": "2026-02-25",
  "updatedAt": "2026-02-25T16:00:40.371Z",
  "count": 133,
  "pharmacies": [
    {
      "id": "istanbul-32586",
      "name": "ACET ECZANESİ",
      "address": "İskenderpaşa Mahallesi, Macar Kardeşler Caddesi, 3A",
      "phone": "+902125313460",
      "district": "FATİH",
      "city": "İstanbul",
      "latitude": 41.01559300006798,
      "longitude": 28.952414000387847,
      "dutyStart": "2026-02-24T21:00:00.000Z",
      "dutyEnd": "2026-02-25T20:59:59.000Z"
    },
    {
      "id": "istanbul-8462",
      "name": "AKALIN ECZANESİ",
      "address": "İstasyon Mahallesi, Yunus Emre Caddesi, 79/A",
      "phone": "+902126516023",
      "district": "KÜÇÜKÇEKMECE",
      "city": "İstanbul",
      "latitude": 41.033692023095654,
      "longitude": 28.77453895353761,
      "dutyStart": "2026-02-24T21:00:00.000Z",
      "dutyEnd": "2026-02-25T20:59:59.000Z"
    },
    {
      "id": "istanbul-14496",
      "name": "AKIN ECZANESİ",
      "address": "Üçevler Mahallesi, Urfalılar Caddesi, 71/C",
      "phone": "+902126200635",
      "district": "ESENYURT",
      "city": "İstanbul",
      "latitude": 41.02830000270513,
      "longitude": 28.677626000057142,
      "dutyStart": "2026-02-24T21:00:00.000Z",
      "dutyEnd": "2026-02-25T20:59:59.000Z"
    },
    {
      "id": "istanbul-23572",
      "name": "AKIN ECZANESİ",
      "address": "Cumhuriyet Mahallesi, Sevil Sokak, 41A",
      "phone": "+902124350592",
      "district": "BAHÇELİEVLER",
      "city": "İstanbul",
      "latitude": 41.01687915661435,
      "longitude": 28.84912655179006,
      "dutyStart": "2026-02-24T21:00:00.000Z",
      "dutyEnd": "2026-02-25T20:59:59.000Z"
    },
    {
      "id": "istanbul-30106",
      "name": "AKTUĞ ECZANESİ",
      "address": "Atatürk Mahallesi, İkitelli Caddesi, 131/C",
      "phone": "+902124481224",
      "district": "KÜÇÜKÇEKMECE",
      "city": "İstanbul",
      "latitude": 41.05073399983395,
      "longitude": 28.796915999909185,
      "dutyStart": "2026-02-24T21:00:00.000Z",
      "dutyEnd": "2026-02-25T20:59:59.000Z"
    },
    {
      "id": "istanbul-27404",
      "name": "ALTIN ECZANESİ",
      "address": "Teşvikiye Mahallesi, Valikonağı Caddesi, 60/A",
      "phone": "+902122402278",
      "district": "ŞİŞLİ",
      "city": "İstanbul",
      "latitude": 41.05277418950307,
      "longitude": 28.992781518199003,
      "dutyStart": "2026-02-24T21:00:00.000Z",
      "dutyEnd": "2026-02-25T20:59:59.000Z"
    },
    {
      "id": "istanbul-20214",
      "name": "ARIK ECZANESİ",
      "address": "İnönü Mahallesi, Kayışdağı Caddesi, 274 A",
      "phone": "+902164697335",
      "district": "ATAŞEHİR",
      "city": "İstanbul",
      "latitude": 40.97755787736641,
      "longitude": 29.14482027981325,
      "dutyStart": "2026-02-24T21:00:00.000Z",
      "dutyEnd": "2026-02-25T20:59:59.000Z"
    },
    {
      "id": "istanbul-21062",
      "name": "ARİF EKİZ ECZANESİ",
      "address": "Fevzi Çakmak Mahallesi, Selanik Sokak, 3/B",
      "phone": "+902165964999",
      "district": "PENDİK",
      "city": "İstanbul",
      "latitude": 40.88629291229844,
      "longitude": 29.26013594777368,
      "dutyStart": "2026-02-24T21:00:00.000Z",
      "dutyEnd": "2026-02-25T20:59:59.000Z"
    },
    {
      "id": "istanbul-20234",
      "name": "ATAKENT TUANA ECZANESİ",
      "address": "Tuna Mahallesi, Osman Gazı Caddesi, 88",
      "phone": "+902125086500",
      "district": "ESENLER",
      "city": "İstanbul",
      "latitude": 41.048673168183335,
      "longitude": 28.85996724133651,
      "dutyStart": "2026-02-24T21:00:00.000Z",
      "dutyEnd": "2026-02-25T20:59:59.000Z"
    },
    {
      "id": "istanbul-25446",
      "name": "ATAKUL ECZANESİ",
      "address": "Başak Mahallesi, Yunus Emre Caddesi, 18/1K",
      "phone": "+902124880531",
      "district": "BAŞAKŞEHİR",
      "city": "İstanbul",
      "latitude": 41.11975729815057,
      "longitude": 28.80755199904405,
      "dutyStart": "2026-02-24T21:00:00.000Z",
      "dutyEnd": "2026-02-25T20:59:59.000Z"
    },
    {
      "id": "istanbul-28198",
      "name": "AYSUN ECZANESİ",
      "address": "Mithatpaşa Mahallesi, Abdülhamit Han Caddesi, 135/A",
      "phone": "+902125767272",
      "district": "EYÜPSULTAN",
      "city": "İstanbul",
      "latitude": 41.160414000026314,
      "longitude": 28.911325000330553,
      "dutyStart": "2026-02-24T21:00:00.000Z",
      "dutyEnd": "2026-02-25T20:59:59.000Z"
    },
    {
      "id": "istanbul-25610",
      "name": "AYŞE DAL ECZANESİ",
      "address": "Güneşli Mahallesi, Cumhuriyet Caddesi, No:24-28C",
      "phone": "+902128773434",
      "district": "BAĞCILAR",
      "city": "İstanbul",
      "latitude": 41.031063999643315,
      "longitude": 28.829991999779285,
      "dutyStart": "2026-02-24T21:00:00.000Z",
      "dutyEnd": "2026-02-25T20:59:59.000Z"
    },
    {
      "id": "istanbul-19936",
      "name": "AYŞE ECZANESİ",
      "address": "Selamiali Mahallesi, Cumhuriyet Caddesi, 74A ",
      "phone": "+902165159300",
      "district": "ÜSKÜDAR",
      "city": "İstanbul",
      "latitude": 41.02446739107594,
      "longitude": 29.035900021439975,
      "dutyStart": "2026-02-24T21:00:00.000Z",
      "dutyEnd": "2026-02-25T20:59:59.000Z"
    },
    {
      "id": "istanbul-27080",
      "name": "BAL ECZANESİ",
      "address": "Ortabayır Mahallesi, Beller Sokak, 17B",
      "phone": "+902122833955",
      "district": "KAĞITHANE",
      "city": "İstanbul",
      "latitude": 41.07987401202658,
      "longitude": 29.001816219407004,
      "dutyStart": "2026-02-24T21:00:00.000Z",
      "dutyEnd": "2026-02-25T20:59:59.000Z"
    },
    {
      "id": "istanbul-25340",
      "name": "BELDE ECZANESİ",
      "address": "Eyüp Sultan Mahallesi, Kızılay Caddesi, 1/D",
      "phone": "+902163117113",
      "district": "SANCAKTEPE",
      "city": "İstanbul",
      "latitude": 40.98509004292548,
      "longitude": 29.229194381049727,
      "dutyStart": "2026-02-24T21:00:00.000Z",
      "dutyEnd": "2026-02-25T20:59:59.000Z"
    },
    {
      "id": "istanbul-2338",
      "name": "BURGAZADA ECZANESİ",
      "address": "Burgazadası Mahallesi, Çınarlık Sokak, 3",
      "phone": "+902163812112",
      "district": "ADALAR",
      "city": "İstanbul",
      "latitude": 40.87998754997831,
      "longitude": 29.06919493887321,
      "dutyStart": "2026-02-24T21:00:00.000Z",
      "dutyEnd": "2026-02-25T20:59:59.000Z"
    },
    {
      "id": "istanbul-29896",
      "name": "BUSE ECZANESİ",
      "address": "Rüzgarlıbahçe Mahallesi, Ferit İnal Caddesi, 35B",
      "phone": "+902166800658",
      "district": "BEYKOZ",
      "city": "İstanbul",
      "latitude": 41.09558848113441,
      "longitude": 29.09805754932424,
      "dutyStart": "2026-02-24T21:00:00.000Z",
      "dutyEnd": "2026-02-25T20:59:59.000Z"
    },
    {
      "id": "istanbul-22210",
      "name": "BÖLGEM ECZANESİ",
      "address": "Altayçeşme Mahallesi, Seri Sokak, 18-22CE",
      "phone": "+902163835544",
      "district": "MALTEPE",
      "city": "İstanbul",
      "latitude": 40.9371219997408,
      "longitude": 29.134467000039795,
      "dutyStart": "2026-02-24T21:00:00.000Z",
      "dutyEnd": "2026-02-25T20:59:59.000Z"
    },
    {
      "id": "istanbul-5672",
      "name": "BÜYÜKADA ECZANESİ",
      "address": "Maden Mahallesi, Çınar Caddesi, 4/A",
      "phone": "+902163826756",
      "district": "ADALAR",
      "city": "İstanbul",
      "latitude": 40.873184910454206,
      "longitude": 29.12787094624563,
      "dutyStart": "2026-02-24T21:00:00.000Z",
      "dutyEnd": "2026-02-25T20:59:59.000Z"
    },
    {
      "id": "istanbul-33444",
      "name": "CADDE ECZANESİ",
      "address": "Mustafa Kemal Paşa Mahallesi, İstiklal Caddesi, 87/A",
      "phone": "+905302566049",
      "district": "AVCILAR",
      "city": "İstanbul",
      "latitude": 41.001235000279,
      "longitude": 28.704802999903386,
      "dutyStart": "2026-02-24T21:00:00.000Z",
      "dutyEnd": "2026-02-25T20:59:59.000Z"
    },
    {
      "id": "istanbul-28382",
      "name": "CAN ECZANESİ",
      "address": "Hadımköy Mahallesi, Çarşamba Sokak, 6/8A",
      "phone": "+902126340478",
      "district": "ARNAVUTKÖY",
      "city": "İstanbul",
      "latitude": 41.156047999967626,
      "longitude": 28.62477200028287,
      "dutyStart": "2026-02-24T21:00:00.000Z",
      "dutyEnd": "2026-02-25T20:59:59.000Z"
    },
    {
      "id": "istanbul-23476",
      "name": "CEMRE ECZANESİ",
      "address": "Karlıtepe Mahallesi, Yıldıztabya Caddesi, 6/B",
      "phone": "+902124970410",
      "district": "GAZİOSMANPAŞA",
      "city": "İstanbul",
      "latitude": 41.05991968115897,
      "longitude": 28.928112965632334,
      "dutyStart": "2026-02-24T21:00:00.000Z",
      "dutyEnd": "2026-02-25T20:59:59.000Z"
    },
    {
      "id": "istanbul-34182",
      "name": "CENNET ECZANESİ",
      "address": "Mevlana Mahallesi, Sefa Caddesi, 43/A",
      "phone": "+902126500493",
      "district": "GAZİOSMANPAŞA",
      "city": "İstanbul",
      "latitude": 41.085492037639895,
      "longitude": 28.912119628076216,
      "dutyStart": "2026-02-24T21:00:00.000Z",
      "dutyEnd": "2026-02-25T20:59:59.000Z"
    },
    {
      "id": "istanbul-27284",
      "name": "DAVUTPAŞA ECZANESİ",
      "address": "Maltepe Mahallesi, Davutpaşa Caddesi, 8",
      "phone": "+902125654156",
      "district": "ZEYTİNBURNU",
      "city": "İstanbul",
      "latitude": 41.021490295249656,
      "longitude": 28.914418217215452,
      "dutyStart": "2026-02-24T21:00:00.000Z",
      "dutyEnd": "2026-02-25T20:59:59.000Z"
    },
    {
      "id": "istanbul-24708",
      "name": "DEFNE ECZANESİ",
      "address": "Yeni Mahallesi, Salih Tamcı Sokak, 20/D",
      "phone": "+905526063334",
      "district": "KÜÇÜKÇEKMECE",
      "city": "İstanbul",
      "latitude": 40.99493300028877,
      "longitude": 28.777539000322207,
      "dutyStart": "2026-02-24T21:00:00.000Z",
      "dutyEnd": "2026-02-25T20:59:59.000Z"
    },
    {
      "id": "istanbul-16064",
      "name": "DEMİR ECZANESİ",
      "address": "Yüzyıl Mahallesi, 2184 Sokak, 39A",
      "phone": "+902124318313",
      "district": "BAĞCILAR",
      "city": "İstanbul",
      "latitude": 41.06449876637385,
      "longitude": 28.85311396126993,
      "dutyStart": "2026-02-24T21:00:00.000Z",
      "dutyEnd": "2026-02-25T20:59:59.000Z"
    },
    {
      "id": "istanbul-24636",
      "name": "DEMİR ECZANESİ ",
      "address": "Hobyar Mahallesi, Hamidiye Caddesi, 3/C",
      "phone": "+902126244060",
      "district": "FATİH",
      "city": "İstanbul",
      "latitude": 41.01501281288587,
      "longitude": 28.975146693522014,
      "dutyStart": "2026-02-24T21:00:00.000Z",
      "dutyEnd": "2026-02-25T20:59:59.000Z"
    },
    {
      "id": "istanbul-28324",
      "name": "DEMİRTÜRK ECZANESİ",
      "address": "Başıbüyük Mahallesi, Başıbüyük Caddesi, 4/B",
      "phone": "+902164212777",
      "district": "MALTEPE",
      "city": "İstanbul",
      "latitude": 40.95387799972648,
      "longitude": 29.143781999853953,
      "dutyStart": "2026-02-24T21:00:00.000Z",
      "dutyEnd": "2026-02-25T20:59:59.000Z"
    },
    {
      "id": "istanbul-6638",
      "name": "DENİZ ECZANESİ",
      "address": "Kınalıada Mahallesi, İskele Sokak, 3/B",
      "phone": "+902163815181",
      "district": "ADALAR",
      "city": "İstanbul",
      "latitude": 40.91038290210339,
      "longitude": 29.05476093340845,
      "dutyStart": "2026-02-24T21:00:00.000Z",
      "dutyEnd": "2026-02-25T20:59:59.000Z"
    },
    {
      "id": "istanbul-23672",
      "name": "DERMAN ECZANESİ",
      "address": "Rasimpaşa Mahallesi Rıhtım Caddesi 68/A",
      "phone": "+902165506002",
      "district": "KADIKÖY",
      "city": "İstanbul",
      "latitude": 40.99562163516359,
      "longitude": 29.024790992288747,
      "dutyStart": "2026-02-24T21:00:00.000Z",
      "dutyEnd": "2026-02-25T20:59:59.000Z"
    },
    {
      "id": "istanbul-10176",
      "name": "DERYA ECZANESİ",
      "address": "Armağanevler Mahallesi, Mithat Paşa Caddesi, 144/B",
      "phone": "+902163354386",
      "district": "ÜMRANİYE",
      "city": "İstanbul",
      "latitude": 41.0210554749482,
      "longitude": 29.117621247258864,
      "dutyStart": "2026-02-24T21:00:00.000Z",
      "dutyEnd": "2026-02-25T20:59:59.000Z"
    },
    {
      "id": "istanbul-28854",
      "name": "DEVA ECZANESİ",
      "address": "Atatürk Mahallesi, Parmaksız Caddesi, B Blok no:33A-1",
      "phone": "+902128812295",
      "district": "BÜYÜKÇEKMECE",
      "city": "İstanbul",
      "latitude": 41.01281159831885,
      "longitude": 28.605171952328405,
      "dutyStart": "2026-02-24T21:00:00.000Z",
      "dutyEnd": "2026-02-25T20:59:59.000Z"
    },
    {
      "id": "istanbul-14252",
      "name": "DEVA ECZANESİ",
      "address": "Zuhuratbaba Mahallesi, Özkul Sokak, 4/1A",
      "phone": "+902125714188",
      "district": "BAKIRKÖY",
      "city": "İstanbul",
      "latitude": 40.99220070056444,
      "longitude": 28.8693461340253,
      "dutyStart": "2026-02-24T21:00:00.000Z",
      "dutyEnd": "2026-02-25T20:59:59.000Z"
    },
    {
      "id": "istanbul-8548",
      "name": "DOĞU ECZANESİ (V)",
      "address": "Pınar Mahallesi, 1271. Sokak, 62/B",
      "phone": "+902126993413",
      "district": "ESENYURT",
      "city": "İstanbul",
      "latitude": 41.029306000051655,
      "longitude": 28.667375000319907,
      "dutyStart": "2026-02-24T21:00:00.000Z",
      "dutyEnd": "2026-02-25T20:59:59.000Z"
    },
    {
      "id": "istanbul-19138",
      "name": "DİLA ECZANESİ",
      "address": "Şifa Mahallesi, Emiroğlu Caddesi, 133",
      "phone": "+902164235226",
      "district": "TUZLA",
      "city": "İstanbul",
      "latitude": 40.83691791666359,
      "longitude": 29.360457258554668,
      "dutyStart": "2026-02-24T21:00:00.000Z",
      "dutyEnd": "2026-02-25T20:59:59.000Z"
    },
    {
      "id": "istanbul-29270",
      "name": "EBRU ECZANESİ",
      "address": "İsmetpaşa Mahallesi, Ordu Caddesi, 210/A",
      "phone": "+902126671204",
      "district": "SULTANGAZİ",
      "city": "İstanbul",
      "latitude": 41.10711199955512,
      "longitude": 28.858063999769698,
      "dutyStart": "2026-02-24T21:00:00.000Z",
      "dutyEnd": "2026-02-25T20:59:59.000Z"
    },
    {
      "id": "istanbul-17050",
      "name": "ECEM ECZANESİ",
      "address": "Fevzi Çakmak Mahallesi, Atışalanı Caddesi, 56/B",
      "phone": "+902125689472",
      "district": "ESENLER",
      "city": "İstanbul",
      "latitude": 41.04101276196701,
      "longitude": 28.88152242386815,
      "dutyStart": "2026-02-24T21:00:00.000Z",
      "dutyEnd": "2026-02-25T20:59:59.000Z"
    },
    {
      "id": "istanbul-26862",
      "name": "ECZANE LEVENT",
      "address": "İnönü Mahallesi, Aşık Veysel Caddesi, 11/A",
      "phone": "+905449770930",
      "district": "SANCAKTEPE",
      "city": "İstanbul",
      "latitude": 41.01115699976218,
      "longitude": 29.211973000064244,
      "dutyStart": "2026-02-24T21:00:00.000Z",
      "dutyEnd": "2026-02-25T20:59:59.000Z"
    },
    {
      "id": "istanbul-21086",
      "name": "ECZANE MAVİ",
      "address": "Bozkurt Mahallesi, Ergenekon Caddesi, 7A",
      "phone": "+902122240626",
      "district": "ŞİŞLİ",
      "city": "İstanbul",
      "latitude": 41.05142187106332,
      "longitude": 28.986925945008316,
      "dutyStart": "2026-02-24T21:00:00.000Z",
      "dutyEnd": "2026-02-25T20:59:59.000Z"
    },
    {
      "id": "istanbul-20774",
      "name": "ECZANE NİSH",
      "address": "Çobançeşme Mahallesi, Sanayi Caddesi, 44DN",
      "phone": "+902126036040",
      "district": "BAHÇELİEVLER",
      "city": "İstanbul",
      "latitude": 40.995461381643345,
      "longitude": 28.823738969734936,
      "dutyStart": "2026-02-24T21:00:00.000Z",
      "dutyEnd": "2026-02-25T20:59:59.000Z"
    },
    {
      "id": "istanbul-35030",
      "name": "EDA ECZANESİ",
      "address": "Evliya Çelebi Mahallesi, Müştak Sokak, 19/1",
      "phone": "+905517240430",
      "district": "TUZLA",
      "city": "İstanbul",
      "latitude": 40.840767999768666,
      "longitude": 29.30016099961435,
      "dutyStart": "2026-02-24T21:00:00.000Z",
      "dutyEnd": "2026-02-25T20:59:59.000Z"
    },
    {
      "id": "istanbul-31148",
      "name": "ELLEZOĞLU ECZANESİ",
      "address": "Sancaktepe Mahallesi, Çarşı Caddesi, 66/A",
      "phone": "+902128925792",
      "district": "BAĞCILAR",
      "city": "İstanbul",
      "latitude": 41.03946399993431,
      "longitude": 28.857946999421227,
      "dutyStart": "2026-02-24T21:00:00.000Z",
      "dutyEnd": "2026-02-25T20:59:59.000Z"
    },
    {
      "id": "istanbul-13570",
      "name": "ELİF ECZANESİ",
      "address": "Rumelihisarı Mahallesi, Hisarüstü Nispetiye Caddesi, 53/B",
      "phone": "+902122870372",
      "district": "SARIYER",
      "city": "İstanbul",
      "latitude": 41.08599669718063,
      "longitude": 29.048279414868706,
      "dutyStart": "2026-02-24T21:00:00.000Z",
      "dutyEnd": "2026-02-25T20:59:59.000Z"
    },
    {
      "id": "istanbul-23332",
      "name": "EMRE ECZANESİ ",
      "address": "Demirkapı Mahallesi, 1735.Sokak, No:7/A",
      "phone": "+902126518852",
      "district": "BAĞCILAR",
      "city": "İstanbul",
      "latitude": 41.046407999973944,
      "longitude": 28.844409999747626,
      "dutyStart": "2026-02-24T21:00:00.000Z",
      "dutyEnd": "2026-02-25T20:59:59.000Z"
    },
    {
      "id": "istanbul-17594",
      "name": "EMİNE ECZANESİ",
      "address": "Yeşilköy Mahallesi, İstasyon Caddesi, 65",
      "phone": "+902126625367",
      "district": "BAKIRKÖY",
      "city": "İstanbul",
      "latitude": 40.95854861626012,
      "longitude": 28.822092178346338,
      "dutyStart": "2026-02-24T21:00:00.000Z",
      "dutyEnd": "2026-02-25T20:59:59.000Z"
    },
    {
      "id": "istanbul-22844",
      "name": "EN ELEGANCE ECZANESİ",
      "address": "Küçükbakkalköy Mahallesi, Vedat Günyol Caddesi, 34/1A",
      "phone": "+902165767672",
      "district": "ATAŞEHİR",
      "city": "İstanbul",
      "latitude": 40.985065776606554,
      "longitude": 29.107866518973097,
      "dutyStart": "2026-02-24T21:00:00.000Z",
      "dutyEnd": "2026-02-25T20:59:59.000Z"
    },
    {
      "id": "istanbul-25398",
      "name": "EN MERKEZ ECZANESİ",
      "address": "Yenikent Mahallesi, Doğan Araslı Bulvarı, 218C/4",
      "phone": "+902128062510",
      "district": "ESENYURT",
      "city": "İstanbul",
      "latitude": 41.04112606487431,
      "longitude": 28.677077781336003,
      "dutyStart": "2026-02-24T21:00:00.000Z",
      "dutyEnd": "2026-02-25T20:59:59.000Z"
    },
    {
      "id": "istanbul-17562",
      "name": "EREN ECZANESİ",
      "address": "Ulus Mahallesi, Atatürk 2 Caddesi, 24/B",
      "phone": "+902128615300",
      "district": "BÜYÜKÇEKMECE",
      "city": "İstanbul",
      "latitude": 41.030316000292856,
      "longitude": 28.551962999426692,
      "dutyStart": "2026-02-24T21:00:00.000Z",
      "dutyEnd": "2026-02-25T20:59:59.000Z"
    },
    {
      "id": "istanbul-22324",
      "name": "EREN ECZANESİ",
      "address": "Seyrantepe Mahallesi, İbrahim Karaoğlanoğlu Caddesi, No:46/A",
      "phone": "+902123244829",
      "district": "KAĞITHANE",
      "city": "İstanbul",
      "latitude": 41.09811919094955,
      "longitude": 28.99083603172644,
      "dutyStart": "2026-02-24T21:00:00.000Z",
      "dutyEnd": "2026-02-25T20:59:59.000Z"
    },
    {
      "id": "istanbul-32216",
      "name": "ERİN ECZANESİ",
      "address": "Kayabaşı Mahallesi, Akzambak Sokak, 1/H",
      "phone": "+902125780778",
      "district": "BAŞAKŞEHİR",
      "city": "İstanbul",
      "latitude": 41.120773999891064,
      "longitude": 28.768601000495874,
      "dutyStart": "2026-02-24T21:00:00.000Z",
      "dutyEnd": "2026-02-25T20:59:59.000Z"
    },
    {
      "id": "istanbul-37176",
      "name": "ESER ECZANESİ",
      "address": "Güngören Merkez Mahallesi, Ali Ruhi Bozkır Sokak, 45/B",
      "phone": "+905070095511",
      "district": "GÜNGÖREN",
      "city": "İstanbul",
      "latitude": 41.02164900025859,
      "longitude": 28.872913000412602,
      "dutyStart": "2026-02-24T21:00:00.000Z",
      "dutyEnd": "2026-02-25T20:59:59.000Z"
    },
    {
      "id": "istanbul-26204",
      "name": "FARUK ECZANESİ",
      "address": "İnönü Mahallesi, Şehit Yılmaz Kaan Caddesi, 62/B",
      "phone": "+902126343902",
      "district": "BAĞCILAR",
      "city": "İstanbul",
      "latitude": 41.02665735860585,
      "longitude": 28.851078368419724,
      "dutyStart": "2026-02-24T21:00:00.000Z",
      "dutyEnd": "2026-02-25T20:59:59.000Z"
    },
    {
      "id": "istanbul-24612",
      "name": "FUNDA COŞKUN ECZANESİ",
      "address": "Küçükyalı Merkez Mahallesi, Rüştü Sarp Caddesi, No:24-26 İç kapı No: 18",
      "phone": "+902164174700",
      "district": "MALTEPE",
      "city": "İstanbul",
      "latitude": 40.95044328702192,
      "longitude": 29.11715447916898,
      "dutyStart": "2026-02-24T21:00:00.000Z",
      "dutyEnd": "2026-02-25T20:59:59.000Z"
    },
    {
      "id": "istanbul-31958",
      "name": "GAMZE ECZANESİ",
      "address": "Arnavutköy Merkez Mahallesi, Semih Sokak, 12/A",
      "phone": "+902125970902",
      "district": "ARNAVUTKÖY",
      "city": "İstanbul",
      "latitude": 41.185101000415834,
      "longitude": 28.737429000288355,
      "dutyStart": "2026-02-24T21:00:00.000Z",
      "dutyEnd": "2026-02-25T20:59:59.000Z"
    },
    {
      "id": "istanbul-38310",
      "name": "GÖKÇE ECZANESİ",
      "address": "İstiklal Mahallesi, Anafartalar Caddesi, No:3/B",
      "phone": "+902164613919",
      "district": "ÜMRANİYE",
      "city": "İstanbul",
      "latitude": 41.01536622693222,
      "longitude": 29.10073135919568,
      "dutyStart": "2026-02-24T21:00:00.000Z",
      "dutyEnd": "2026-02-25T20:59:59.000Z"
    },
    {
      "id": "istanbul-27812",
      "name": "GÖLET ECZANESİ",
      "address": "Bahçeşehir 1.  Kısım Mahallesi, Doğa Parkı Caddesi, G Blok No:13-15 GB",
      "phone": "+902129243208",
      "district": "BAŞAKŞEHİR",
      "city": "İstanbul",
      "latitude": 41.06514583230922,
      "longitude": 28.695834347610646,
      "dutyStart": "2026-02-24T21:00:00.000Z",
      "dutyEnd": "2026-02-25T20:59:59.000Z"
    },
    {
      "id": "istanbul-17608",
      "name": "GÜLEŞCE ECZANESİ",
      "address": "Sahrayıcedit Mahallesi, Mengi Sokak, 11",
      "phone": "+902163574241",
      "district": "KADIKÖY",
      "city": "İstanbul",
      "latitude": 40.98414308595603,
      "longitude": 29.087764847286714,
      "dutyStart": "2026-02-24T21:00:00.000Z",
      "dutyEnd": "2026-02-25T20:59:59.000Z"
    },
    {
      "id": "istanbul-29324",
      "name": "GİZEM ECZANESİ",
      "address": "Kavaklı Mahallesi, Ayasofya Caddesi, 17/3E-83",
      "phone": "+902128716691",
      "district": "BEYLİKDÜZÜ",
      "city": "İstanbul",
      "latitude": 40.98536899966046,
      "longitude": 28.664737999686288,
      "dutyStart": "2026-02-24T21:00:00.000Z",
      "dutyEnd": "2026-02-25T20:59:59.000Z"
    },
    {
      "id": "istanbul-28762",
      "name": "HAFSA ECZANESİ",
      "address": "Piri Reis Mahallesi, Necip Fazıl Caddesi, 4/1C ",
      "phone": "+902128438449",
      "district": "ESENYURT",
      "city": "İstanbul",
      "latitude": 41.021363000284694,
      "longitude": 28.64562200037023,
      "dutyStart": "2026-02-24T21:00:00.000Z",
      "dutyEnd": "2026-02-25T20:59:59.000Z"
    },
    {
      "id": "istanbul-27194",
      "name": "HALICIOĞLU ECZANESİ",
      "address": "Halıcıoğlu Mahallesi, Tunç Sokak, 1/A",
      "phone": "+902123694549",
      "district": "BEYOĞLU",
      "city": "İstanbul",
      "latitude": 41.049938399772685,
      "longitude": 28.94961305746283,
      "dutyStart": "2026-02-24T21:00:00.000Z",
      "dutyEnd": "2026-02-25T20:59:59.000Z"
    },
    {
      "id": "istanbul-13762",
      "name": "HAYAT ECZANESİ",
      "address": "Heybeliada Mahallesi, Ayyıldız Caddesi, 43",
      "phone": "+902163519907",
      "district": "ADALAR",
      "city": "İstanbul",
      "latitude": 40.87805005093138,
      "longitude": 29.099723346130244,
      "dutyStart": "2026-02-24T21:00:00.000Z",
      "dutyEnd": "2026-02-25T20:59:59.000Z"
    },
    {
      "id": "istanbul-28804",
      "name": "HUZUR ECZANESİ",
      "address": "Uğur Mumcu Mahallesi, I Caddesi, 40/A",
      "phone": "+902128093761",
      "district": "SULTANGAZİ",
      "city": "İstanbul",
      "latitude": 41.09659999959677,
      "longitude": 28.867451000596173,
      "dutyStart": "2026-02-24T21:00:00.000Z",
      "dutyEnd": "2026-02-25T20:59:59.000Z"
    },
    {
      "id": "istanbul-11012",
      "name": "HÜMA ECZANESİ",
      "address": "Soğanlık Yeni Mahallesi, Atatürk Caddesi, 93/1",
      "phone": "+902163096215",
      "district": "KARTAL",
      "city": "İstanbul",
      "latitude": 40.915523191061226,
      "longitude": 29.20174230179526,
      "dutyStart": "2026-02-24T21:00:00.000Z",
      "dutyEnd": "2026-02-25T20:59:59.000Z"
    },
    {
      "id": "istanbul-31332",
      "name": "HİLAL DENİZ ECZANESİ",
      "address": "Kocasinan Merkez Mahallesi, Camlı Sokak, 5/A",
      "phone": "+902128307236",
      "district": "BAHÇELİEVLER",
      "city": "İstanbul",
      "latitude": 41.0046916830281,
      "longitude": 28.84220040308405,
      "dutyStart": "2026-02-24T21:00:00.000Z",
      "dutyEnd": "2026-02-25T20:59:59.000Z"
    },
    {
      "id": "istanbul-35100",
      "name": "HİLAL ECZANESİ",
      "address": "Ortaçeşme Mahallesi, Çayır Caddesi, 180/B",
      "phone": "+902164244276",
      "district": "BEYKOZ",
      "city": "İstanbul",
      "latitude": 41.1463249997962,
      "longitude": 29.087368000519884,
      "dutyStart": "2026-02-24T21:00:00.000Z",
      "dutyEnd": "2026-02-25T20:59:59.000Z"
    },
    {
      "id": "istanbul-15322",
      "name": "IHLAMUR ECZANESİ",
      "address": "Atakent Mahallesi, İkitelli Caddesi, 42/1",
      "phone": "+902125480858",
      "district": "KÜÇÜKÇEKMECE",
      "city": "İstanbul",
      "latitude": 41.04063611191566,
      "longitude": 28.79024954411671,
      "dutyStart": "2026-02-24T21:00:00.000Z",
      "dutyEnd": "2026-02-25T20:59:59.000Z"
    },
    {
      "id": "istanbul-27770",
      "name": "KAMER ECZANESİ",
      "address": "Denizköşkler Mahallesi, Denizköşkler Caddesi, 25/A",
      "phone": "+902125090908",
      "district": "AVCILAR",
      "city": "İstanbul",
      "latitude": 40.9773020000141,
      "longitude": 28.725760000377154,
      "dutyStart": "2026-02-24T21:00:00.000Z",
      "dutyEnd": "2026-02-25T20:59:59.000Z"
    },
    {
      "id": "istanbul-32800",
      "name": "KARTALTEPE ECZANESİ",
      "address": "Kartaltepe Mahallesi, Süleymanşah Caddesi, 5/A",
      "phone": "+902126403424",
      "district": "BAYRAMPAŞA",
      "city": "İstanbul",
      "latitude": 41.05275299990072,
      "longitude": 28.904121000070123,
      "dutyStart": "2026-02-24T21:00:00.000Z",
      "dutyEnd": "2026-02-25T20:59:59.000Z"
    },
    {
      "id": "istanbul-27636",
      "name": "KIZIL ECZANESİ",
      "address": "Kurtköy Mahallesi, Yıldırım Beyazıt Caddesi, 100B",
      "phone": "+905309115079",
      "district": "PENDİK",
      "city": "İstanbul",
      "latitude": 40.91310595671449,
      "longitude": 29.307801608260522,
      "dutyStart": "2026-02-24T21:00:00.000Z",
      "dutyEnd": "2026-02-25T20:59:59.000Z"
    },
    {
      "id": "istanbul-24680",
      "name": "KONAK ECZANESİ",
      "address": "İçmeler Mahallesi, Aydemir Sokak, 4A",
      "phone": "+902163929494",
      "district": "TUZLA",
      "city": "İstanbul",
      "latitude": 40.849434772512346,
      "longitude": 29.302823138338645,
      "dutyStart": "2026-02-24T21:00:00.000Z",
      "dutyEnd": "2026-02-25T20:59:59.000Z"
    },
    {
      "id": "istanbul-26954",
      "name": "KOZYATAĞI ECZANESİ",
      "address": "Kozyatağı Mahallesi, Şemsettin Günaltay Caddesi, 114B",
      "phone": "+902167473033",
      "district": "KADIKÖY",
      "city": "İstanbul",
      "latitude": 40.96651549315073,
      "longitude": 29.087282786027476,
      "dutyStart": "2026-02-24T21:00:00.000Z",
      "dutyEnd": "2026-02-25T20:59:59.000Z"
    },
    {
      "id": "istanbul-30056",
      "name": "KOŞUYOLU NİŞ ECZANESİ",
      "address": "Koşuyolu Mahallesi, Koşuyolu Caddesi, 109/A",
      "phone": "+902163408806",
      "district": "KADIKÖY",
      "city": "İstanbul",
      "latitude": 41.00295700022969,
      "longitude": 29.03108000053578,
      "dutyStart": "2026-02-24T21:00:00.000Z",
      "dutyEnd": "2026-02-25T20:59:59.000Z"
    },
    {
      "id": "istanbul-17726",
      "name": "LOKMAN HEKİM ECZANESİ",
      "address": "Battalgazi Mahallesi, Karadeniz Caddesi, 4B",
      "phone": "+905523982796",
      "district": "SULTANBEYLİ",
      "city": "İstanbul",
      "latitude": 40.98685299976632,
      "longitude": 29.28264400057352,
      "dutyStart": "2026-02-24T21:00:00.000Z",
      "dutyEnd": "2026-02-25T20:59:59.000Z"
    },
    {
      "id": "istanbul-28558",
      "name": "LOTUS ECZANESİ",
      "address": "İnönü Mahallesi, Halkalı Caddesi, 206E",
      "phone": "+902129999472",
      "district": "KÜÇÜKÇEKMECE",
      "city": "İstanbul",
      "latitude": 41.02068900041394,
      "longitude": 28.791669999920682,
      "dutyStart": "2026-02-24T21:00:00.000Z",
      "dutyEnd": "2026-02-25T20:59:59.000Z"
    },
    {
      "id": "istanbul-30650",
      "name": "MARMARAY ECZANESİ",
      "address": "Aksaray Mahallesi, Valide Camii Sokak, 65/A",
      "phone": "+902125307437",
      "district": "FATİH",
      "city": "İstanbul",
      "latitude": 41.006700000245836,
      "longitude": 28.95165999967212,
      "dutyStart": "2026-02-24T21:00:00.000Z",
      "dutyEnd": "2026-02-25T20:59:59.000Z"
    },
    {
      "id": "istanbul-24756",
      "name": "MASLAK ECZANESİ",
      "address": "Maslak Mahallesi, Ahi Evran (G-45) Caddesi, 4/11",
      "phone": "+902123462878",
      "district": "SARIYER",
      "city": "İstanbul",
      "latitude": 41.11457607125092,
      "longitude": 29.02223971414907,
      "dutyStart": "2026-02-24T21:00:00.000Z",
      "dutyEnd": "2026-02-25T20:59:59.000Z"
    },
    {
      "id": "istanbul-14186",
      "name": "MAVİ ECZANE",
      "address": "İstinye Mahallesi Çayır Caddesi 65",
      "phone": "+902122291075",
      "district": "SARIYER",
      "city": "İstanbul",
      "latitude": 41.116178155436565,
      "longitude": 29.05017995313319,
      "dutyStart": "2026-02-24T21:00:00.000Z",
      "dutyEnd": "2026-02-25T20:59:59.000Z"
    },
    {
      "id": "istanbul-14662",
      "name": "MELİS ECZANESİ",
      "address": "Gayrettepe Mahallesi, Yener Sokak, 2",
      "phone": "+902122727110",
      "district": "BEŞİKTAŞ",
      "city": "İstanbul",
      "latitude": 41.06345975249175,
      "longitude": 29.01049739056493,
      "dutyStart": "2026-02-24T21:00:00.000Z",
      "dutyEnd": "2026-02-25T20:59:59.000Z"
    },
    {
      "id": "istanbul-25082",
      "name": "MERVE ECZANESİ",
      "address": "Doğu Mahallesi, İnce Sokak, 7A",
      "phone": "+902164945055",
      "district": "PENDİK",
      "city": "İstanbul",
      "latitude": 40.88209311799207,
      "longitude": 29.243812274197513,
      "dutyStart": "2026-02-24T21:00:00.000Z",
      "dutyEnd": "2026-02-25T20:59:59.000Z"
    },
    {
      "id": "istanbul-27018",
      "name": "MERVE SEVİNÇ ECZANESİ",
      "address": "Yeşilpınar Mahallesi, Girne Caddesi, 64/66B",
      "phone": "+902126183828",
      "district": "EYÜPSULTAN",
      "city": "İstanbul",
      "latitude": 41.0776920004145,
      "longitude": 28.916849999431527,
      "dutyStart": "2026-02-24T21:00:00.000Z",
      "dutyEnd": "2026-02-25T20:59:59.000Z"
    },
    {
      "id": "istanbul-22306",
      "name": "MEYDAN ECZANESİ",
      "address": "Hürriyet Mahallesi, Paşaçayırı Caddesi, 49-51A",
      "phone": "+902125371213",
      "district": "GAZİOSMANPAŞA",
      "city": "İstanbul",
      "latitude": 41.07003124121105,
      "longitude": 28.897410655878137,
      "dutyStart": "2026-02-24T21:00:00.000Z",
      "dutyEnd": "2026-02-25T20:59:59.000Z"
    },
    {
      "id": "istanbul-32380",
      "name": "MEYDAN ŞEHİR ECZANESİ",
      "address": "Güvercintepe Mahallesi, Peyami Safa Caddesi, No:88B",
      "phone": "+905324565037",
      "district": "BAŞAKŞEHİR",
      "city": "İstanbul",
      "latitude": 41.07448300032452,
      "longitude": 28.748370999919896,
      "dutyStart": "2026-02-24T21:00:00.000Z",
      "dutyEnd": "2026-02-25T20:59:59.000Z"
    },
    {
      "id": "istanbul-21864",
      "name": "MİLLET ECZANESİ",
      "address": "Hürriyet Mahallesi, Dr. Cemil Bengü Caddesi, 51/A",
      "phone": "+902122191173",
      "district": "KAĞITHANE",
      "city": "İstanbul",
      "latitude": 41.07213427028504,
      "longitude": 28.985330231333208,
      "dutyStart": "2026-02-24T21:00:00.000Z",
      "dutyEnd": "2026-02-25T20:59:59.000Z"
    },
    {
      "id": "istanbul-24382",
      "name": "NAMAZGAH ECZANESİ",
      "address": "Bulgurlu Mahallesi, İzzettinbey Sokak, 11/A",
      "phone": "+902166507020",
      "district": "ÜSKÜDAR",
      "city": "İstanbul",
      "latitude": 41.02282020294937,
      "longitude": 29.080595970246833,
      "dutyStart": "2026-02-24T21:00:00.000Z",
      "dutyEnd": "2026-02-25T20:59:59.000Z"
    },
    {
      "id": "istanbul-25924",
      "name": "NANE LİMON ECZANESİ",
      "address": "Turgut Özal Mahallesi, Tonguç Baba Caddesi, 46/A",
      "phone": "+905334916789",
      "district": "ESENYURT",
      "city": "İstanbul",
      "latitude": 41.00522999975916,
      "longitude": 28.690240999465836,
      "dutyStart": "2026-02-24T21:00:00.000Z",
      "dutyEnd": "2026-02-25T20:59:59.000Z"
    },
    {
      "id": "istanbul-26816",
      "name": "NEFES ECZANESİ",
      "address": "Meclis Mahallesi, Başarı Sokak, 1/D",
      "phone": "+905446130752",
      "district": "SANCAKTEPE",
      "city": "İstanbul",
      "latitude": 41.00895199996739,
      "longitude": 29.212360000355908,
      "dutyStart": "2026-02-24T21:00:00.000Z",
      "dutyEnd": "2026-02-25T20:59:59.000Z"
    },
    {
      "id": "istanbul-12770",
      "name": "NURŞEN ECZANESİ",
      "address": "Kanarya Mahallesi Tavus Kuşu Caddesi 14",
      "phone": "+902125990171",
      "district": "KÜÇÜKÇEKMECE",
      "city": "İstanbul",
      "latitude": 41.01186231757338,
      "longitude": 28.78166227665214,
      "dutyStart": "2026-02-24T21:00:00.000Z",
      "dutyEnd": "2026-02-25T20:59:59.000Z"
    },
    {
      "id": "istanbul-19564",
      "name": "ONUR ECZANESİ",
      "address": "Gülbahar Mahallesi, Oya Sokak, 4B",
      "phone": "+902122176504",
      "district": "ŞİŞLİ",
      "city": "İstanbul",
      "latitude": 41.06792830890152,
      "longitude": 29.0032943250161,
      "dutyStart": "2026-02-24T21:00:00.000Z",
      "dutyEnd": "2026-02-25T20:59:59.000Z"
    },
    {
      "id": "istanbul-25776",
      "name": "ORMANKÖY CADDE ECZANESİ",
      "address": "Güngören Mahallesi, Tolgahan Sokak, 3ACL",
      "phone": "+902166426191",
      "district": "ÇEKMEKÖY",
      "city": "İstanbul",
      "latitude": 41.024894000135305,
      "longitude": 29.2170850000044,
      "dutyStart": "2026-02-24T21:00:00.000Z",
      "dutyEnd": "2026-02-25T20:59:59.000Z"
    },
    {
      "id": "istanbul-19520",
      "name": "OZAN ECZANESİ",
      "address": "Piyalepaşa Mahallesi, Sağlık Ocağı Sokak, 9/A",
      "phone": "+902122973013",
      "district": "BEYOĞLU",
      "city": "İstanbul",
      "latitude": 41.049178050729154,
      "longitude": 28.960246062604668,
      "dutyStart": "2026-02-24T21:00:00.000Z",
      "dutyEnd": "2026-02-25T20:59:59.000Z"
    },
    {
      "id": "istanbul-31858",
      "name": "PELİN ECZANESİ",
      "address": "Çarşı Mahallesi, Gökdemir Sokak, 9-B",
      "phone": "+902164525344",
      "district": "KARTAL",
      "city": "İstanbul",
      "latitude": 40.91894437055264,
      "longitude": 29.226085721687294,
      "dutyStart": "2026-02-24T21:00:00.000Z",
      "dutyEnd": "2026-02-25T20:59:59.000Z"
    },
    {
      "id": "istanbul-18510",
      "name": "PİRHAN ECZANESİ",
      "address": "Yunus Emre Mahallesi, Kıbrıs Caddesi, No:39/B",
      "phone": "+902124192308",
      "district": "SULTANGAZİ",
      "city": "İstanbul",
      "latitude": 41.10162199982499,
      "longitude": 28.894518000084894,
      "dutyStart": "2026-02-24T21:00:00.000Z",
      "dutyEnd": "2026-02-25T20:59:59.000Z"
    },
    {
      "id": "istanbul-14128",
      "name": "REYHAN ECZANESİ",
      "address": "Mimar Sinan Mahallesi, Selami Ali Efendi Caddesi, 18 A",
      "phone": "+902163105983",
      "district": "ÜSKÜDAR",
      "city": "İstanbul",
      "latitude": 41.02458362244859,
      "longitude": 29.017162919742937,
      "dutyStart": "2026-02-24T21:00:00.000Z",
      "dutyEnd": "2026-02-25T20:59:59.000Z"
    },
    {
      "id": "istanbul-24142",
      "name": "RIDVAN ECZANESİ",
      "address": "Ferhatpaşa Mahallesi, Erkin Balaban Sokak, 7B",
      "phone": "+902127896121",
      "district": "ÇATALCA",
      "city": "İstanbul",
      "latitude": 41.1363187717484,
      "longitude": 28.46592289377898,
      "dutyStart": "2026-02-24T21:00:00.000Z",
      "dutyEnd": "2026-02-25T20:59:59.000Z"
    },
    {
      "id": "istanbul-36720",
      "name": "SAFİR ECZANESİ (V) ",
      "address": "Mimaroba Mahallesi, Mustafa Kemal Bulvarı, No:4/1F",
      "phone": "+902128640306",
      "district": "BÜYÜKÇEKMECE",
      "city": "İstanbul",
      "latitude": 41.00954827771198,
      "longitude": 28.53593909720734,
      "dutyStart": "2026-02-24T21:00:00.000Z",
      "dutyEnd": "2026-02-25T20:59:59.000Z"
    },
    {
      "id": "istanbul-11406",
      "name": "SARAY ECZANESİ",
      "address": "Siyavuşpaşa Mahallesi, Çamlık Caddesi, Şebboy Sok. No:1",
      "phone": "+902125075787",
      "district": "BAHÇELİEVLER",
      "city": "İstanbul",
      "latitude": 41.00146159029606,
      "longitude": 28.857322883080613,
      "dutyStart": "2026-02-24T21:00:00.000Z",
      "dutyEnd": "2026-02-25T20:59:59.000Z"
    },
    {
      "id": "istanbul-11988",
      "name": "SAĞLIK ECZANESİ",
      "address": "Örnek Mahallesi, Selimiye Caddesi, 1A",
      "phone": "+902163243485",
      "district": "ATAŞEHİR",
      "city": "İstanbul",
      "latitude": 40.99593341920023,
      "longitude": 29.075447577122358,
      "dutyStart": "2026-02-24T21:00:00.000Z",
      "dutyEnd": "2026-02-25T20:59:59.000Z"
    },
    {
      "id": "istanbul-26154",
      "name": "SEDAT ECZANESİ",
      "address": "Emek Mahallesi, Namık Kemal Caddesi, 85A",
      "phone": "+902166223880",
      "district": "SANCAKTEPE",
      "city": "İstanbul",
      "latitude": 41.00448105889427,
      "longitude": 29.19839789764796,
      "dutyStart": "2026-02-24T21:00:00.000Z",
      "dutyEnd": "2026-02-25T20:59:59.000Z"
    },
    {
      "id": "istanbul-26938",
      "name": "SERRA ECZANESİ",
      "address": "Abdurrahmangazi Mahallesi, Bosna Bulvarı, 14/C",
      "phone": "+905396508611",
      "district": "SULTANBEYLİ",
      "city": "İstanbul",
      "latitude": 40.97046852764753,
      "longitude": 29.26241640109375,
      "dutyStart": "2026-02-24T21:00:00.000Z",
      "dutyEnd": "2026-02-25T20:59:59.000Z"
    },
    {
      "id": "istanbul-20926",
      "name": "SEVCAN ECZANESİ",
      "address": "Sümer Mahallesi, Şehit Piyade Er Yaşar Yeşilkır Sokak, 6B",
      "phone": "+902124150003",
      "district": "ZEYTİNBURNU",
      "city": "İstanbul",
      "latitude": 40.98605597146468,
      "longitude": 28.89572957550892,
      "dutyStart": "2026-02-24T21:00:00.000Z",
      "dutyEnd": "2026-02-25T20:59:59.000Z"
    },
    {
      "id": "istanbul-25472",
      "name": "SEYHAN ECZANESİ",
      "address": "Atatürk Mahallesi, Çavuşbaşı Caddesi, 80/A",
      "phone": "+905544058090",
      "district": "ÜMRANİYE",
      "city": "İstanbul",
      "latitude": 41.02822699961873,
      "longitude": 29.09438400036503,
      "dutyStart": "2026-02-24T21:00:00.000Z",
      "dutyEnd": "2026-02-25T20:59:59.000Z"
    },
    {
      "id": "istanbul-33244",
      "name": "SEÇKİN ECZANESİ",
      "address": "Elmalıkent Mahallesi, Adem Yavuz Caddesi, 79/A",
      "phone": "+902166312717",
      "district": "ÜMRANİYE",
      "city": "İstanbul",
      "latitude": 41.03940299984253,
      "longitude": 29.1008699996525,
      "dutyStart": "2026-02-24T21:00:00.000Z",
      "dutyEnd": "2026-02-25T20:59:59.000Z"
    },
    {
      "id": "istanbul-16420",
      "name": "TAKSİM ŞULE ECZANESİ",
      "address": "Kılıçalipaşa Mahallesi, Sıraselviler Caddesi, 81",
      "phone": "+902122924025",
      "district": "BEYOĞLU",
      "city": "İstanbul",
      "latitude": 41.03257035850045,
      "longitude": 28.98363257211447,
      "dutyStart": "2026-02-24T21:00:00.000Z",
      "dutyEnd": "2026-02-25T20:59:59.000Z"
    },
    {
      "id": "istanbul-20600",
      "name": "TEMEL ECZANESİ",
      "address": "Kirazlıtepe Mahallesi, Mehmet Akif Ersoy Caddesi, 43",
      "phone": "+902164220644",
      "district": "ÜSKÜDAR",
      "city": "İstanbul",
      "latitude": 41.03824811367385,
      "longitude": 29.058296730789788,
      "dutyStart": "2026-02-24T21:00:00.000Z",
      "dutyEnd": "2026-02-25T20:59:59.000Z"
    },
    {
      "id": "istanbul-30764",
      "name": "ULU ECZANESİ",
      "address": "Beştelsiz Mahallesi, 114. Sokak, 6/B",
      "phone": "+902125460818",
      "district": "ZEYTİNBURNU",
      "city": "İstanbul",
      "latitude": 40.997952538755094,
      "longitude": 28.90349061474194,
      "dutyStart": "2026-02-24T21:00:00.000Z",
      "dutyEnd": "2026-02-25T20:59:59.000Z"
    },
    {
      "id": "istanbul-35794",
      "name": "ULU ECZANESİ ",
      "address": "Adnan Kahveci Mahallesi, Davut Paşa Caddesi, Dış Kapı No:12 İç Kapı No:4 Vadipark 2 Konutları",
      "phone": "+902128553817",
      "district": "BEYLİKDÜZÜ",
      "city": "İstanbul",
      "latitude": 40.99751483577012,
      "longitude": 28.638584168457186,
      "dutyStart": "2026-02-24T21:00:00.000Z",
      "dutyEnd": "2026-02-25T20:59:59.000Z"
    },
    {
      "id": "istanbul-25988",
      "name": "ULUS ECZANESİ",
      "address": "Alibey Mahallesi, Altın Sokak, 2/1B",
      "phone": "+902127272122",
      "district": "SİLİVRİ",
      "city": "İstanbul",
      "latitude": 41.07219745534312,
      "longitude": 28.258797973867104,
      "dutyStart": "2026-02-24T21:00:00.000Z",
      "dutyEnd": "2026-02-25T20:59:59.000Z"
    },
    {
      "id": "istanbul-37590",
      "name": "URAZ ECZANESİ",
      "address": "Erenköy Mahallesi, Ethemefendi Caddesi, No:108/B",
      "phone": "+902165158515",
      "district": "KADIKÖY",
      "city": "İstanbul",
      "latitude": 40.977438000011574,
      "longitude": 29.077055000379396,
      "dutyStart": "2026-02-24T21:00:00.000Z",
      "dutyEnd": "2026-02-25T20:59:59.000Z"
    },
    {
      "id": "istanbul-17744",
      "name": "UZMAN ECZANESİ",
      "address": "Çavuş Mahallesi, Üsküdar Caddesi, 144",
      "phone": "+902167115917",
      "district": "ŞİLE",
      "city": "İstanbul",
      "latitude": 41.174639723412476,
      "longitude": 29.609321838041627,
      "dutyStart": "2026-02-24T21:00:00.000Z",
      "dutyEnd": "2026-02-25T20:59:59.000Z"
    },
    {
      "id": "istanbul-19006",
      "name": "VURAL ECZANESİ",
      "address": "İçerenköy Mahallesi, Hastane yolu Sokak, 2/A",
      "phone": "+902165722257",
      "district": "ATAŞEHİR",
      "city": "İstanbul",
      "latitude": 40.96927509175022,
      "longitude": 29.10293760226179,
      "dutyStart": "2026-02-24T21:00:00.000Z",
      "dutyEnd": "2026-02-25T20:59:59.000Z"
    },
    {
      "id": "istanbul-17314",
      "name": "YENİ EDA ECZANESİ",
      "address": "Şenlikköy Mahallesi, Çatal Sokak, No:19/A",
      "phone": "+902125874743",
      "district": "BAKIRKÖY",
      "city": "İstanbul",
      "latitude": 40.97677800015449,
      "longitude": 28.803050999949072,
      "dutyStart": "2026-02-24T21:00:00.000Z",
      "dutyEnd": "2026-02-25T20:59:59.000Z"
    },
    {
      "id": "istanbul-10856",
      "name": "YENİ SARAY ECZANESİ",
      "address": "Sarıyer Merkez Mahallesi, Dursun Fakih Sokak, 2A",
      "phone": "+902122715245",
      "district": "SARIYER",
      "city": "İstanbul",
      "latitude": 41.16953245795883,
      "longitude": 29.056910790937394,
      "dutyStart": "2026-02-24T21:00:00.000Z",
      "dutyEnd": "2026-02-25T20:59:59.000Z"
    },
    {
      "id": "istanbul-22242",
      "name": "YENİ İNCİ ECZANESİ",
      "address": "Karlıktepe Mahallesi, Huzurtepe Sokak, 10/A",
      "phone": "+902165177749",
      "district": "KARTAL",
      "city": "İstanbul",
      "latitude": 40.896569540190356,
      "longitude": 29.19011325738659,
      "dutyStart": "2026-02-24T21:00:00.000Z",
      "dutyEnd": "2026-02-25T20:59:59.000Z"
    },
    {
      "id": "istanbul-32198",
      "name": "YILDIZ ECZANESİ",
      "address": "Mecidiye Mahallesi, Muvakkit Sokak, 10/A",
      "phone": "+902122587519",
      "district": "BEŞİKTAŞ",
      "city": "İstanbul",
      "latitude": 41.048775000295024,
      "longitude": 29.025438000113834,
      "dutyStart": "2026-02-24T21:00:00.000Z",
      "dutyEnd": "2026-02-25T20:59:59.000Z"
    },
    {
      "id": "istanbul-28896",
      "name": "YUNUS EMRE ECZANESİ",
      "address": "Molla Gürani Mahallesi, Oğuzhan Caddesi, 33D",
      "phone": "+902126318074",
      "district": "FATİH",
      "city": "İstanbul",
      "latitude": 41.01327990986273,
      "longitude": 28.9396850887946,
      "dutyStart": "2026-02-24T21:00:00.000Z",
      "dutyEnd": "2026-02-25T20:59:59.000Z"
    },
    {
      "id": "istanbul-29556",
      "name": "ZEYREK ECZANESİ",
      "address": "50. Yıl Mahallesi, A Caddesi, 2/A",
      "phone": "+902124755881",
      "district": "SULTANGAZİ",
      "city": "İstanbul",
      "latitude": 41.08842400013182,
      "longitude": 28.87060499958572,
      "dutyStart": "2026-02-24T21:00:00.000Z",
      "dutyEnd": "2026-02-25T20:59:59.000Z"
    },
    {
      "id": "istanbul-20792",
      "name": "ÇAĞRI SELAMİÇEŞME ECZANESİ",
      "address": "Fenerbahçe Mahallesi, Bağdat Caddesi, 168D",
      "phone": "+902163606255",
      "district": "KADIKÖY",
      "city": "İstanbul",
      "latitude": 40.976011298556244,
      "longitude": 29.049906422047695,
      "dutyStart": "2026-02-24T21:00:00.000Z",
      "dutyEnd": "2026-02-25T20:59:59.000Z"
    },
    {
      "id": "istanbul-22732",
      "name": "ÇEKMEKÖY PARK ECZANESİ",
      "address": "Mimar Sinan Mahallesi, Mimar Sinan Caddesi, 37/A",
      "phone": "+905380727020",
      "district": "ÇEKMEKÖY",
      "city": "İstanbul",
      "latitude": 41.032713933095046,
      "longitude": 29.177314078659435,
      "dutyStart": "2026-02-24T21:00:00.000Z",
      "dutyEnd": "2026-02-25T20:59:59.000Z"
    },
    {
      "id": "istanbul-4958",
      "name": "ÖZGÜR ECZANESİ",
      "address": "Kartaltepe Mahallesi, Koşuyolu Caddesi, 11/A",
      "phone": "+902125716935",
      "district": "BAKIRKÖY",
      "city": "İstanbul",
      "latitude": 40.98565571971902,
      "longitude": 28.87838331733879,
      "dutyStart": "2026-02-24T21:00:00.000Z",
      "dutyEnd": "2026-02-25T20:59:59.000Z"
    },
    {
      "id": "istanbul-7214",
      "name": "ÖZYİĞİT PLATO ECZANESİ",
      "address": "Abdurrahmangazi Mahallesi, Emir Caddesi, No:2/Z 22",
      "phone": "+902163732865",
      "district": "SULTANBEYLİ",
      "city": "İstanbul",
      "latitude": 40.96939459107467,
      "longitude": 29.260640197636423,
      "dutyStart": "2026-02-24T21:00:00.000Z",
      "dutyEnd": "2026-02-25T20:59:59.000Z"
    },
    {
      "id": "istanbul-21006",
      "name": "ÜNAL ECZANESİ",
      "address": "Karadeniz Mahallesi, 1168. Sokak, 9/A",
      "phone": "+902126174422",
      "district": "GAZİOSMANPAŞA",
      "city": "İstanbul",
      "latitude": 41.080905569264885,
      "longitude": 28.89097990888028,
      "dutyStart": "2026-02-24T21:00:00.000Z",
      "dutyEnd": "2026-02-25T20:59:59.000Z"
    },
    {
      "id": "istanbul-19146",
      "name": "İDEALİST ECZANESİ",
      "address": "Madenler Mahallesi İdealist Kent Caddesi No:5/4",
      "phone": "+902165900353",
      "district": "ÜMRANİYE",
      "city": "İstanbul",
      "latitude": 41.014166833296535,
      "longitude": 29.180431894416216,
      "dutyStart": "2026-02-24T21:00:00.000Z",
      "dutyEnd": "2026-02-25T20:59:59.000Z"
    },
    {
      "id": "istanbul-25552",
      "name": "İNAN ECZANESİ",
      "address": "Yavuz Selim Mahallesi, Sevban Mehmet Caddesi, 72/A",
      "phone": "+902124944578",
      "district": "ARNAVUTKÖY",
      "city": "İstanbul",
      "latitude": 41.20827900015811,
      "longitude": 28.732982999548522,
      "dutyStart": "2026-02-24T21:00:00.000Z",
      "dutyEnd": "2026-02-25T20:59:59.000Z"
    },
    {
      "id": "istanbul-35922",
      "name": "İREM ŞEN ECZANESİ",
      "address": "Kemalpaşa Mahallesi, Sultan Murat Caddesi, No:51/A",
      "phone": "",
      "district": "KÜÇÜKÇEKMECE",
      "city": "İstanbul",
      "latitude": 41.00371199992404,
      "longitude": 28.793807999641547,
      "dutyStart": "2026-02-24T21:00:00.000Z",
      "dutyEnd": "2026-02-25T20:59:59.000Z"
    },
    {
      "id": "istanbul-16442",
      "name": "İSLAMBEY ECZANESİ",
      "address": "İslambey Mahallesi, İslambey Caddesi, 4/C",
      "phone": "+902125781630",
      "district": "EYÜPSULTAN",
      "city": "İstanbul",
      "latitude": 41.05059129199862,
      "longitude": 28.929194011578346,
      "dutyStart": "2026-02-24T21:00:00.000Z",
      "dutyEnd": "2026-02-25T20:59:59.000Z"
    },
    {
      "id": "istanbul-27286",
      "name": "İSTANBUL ECZANESİ",
      "address": "Yeni Mahallesi, Varnalı Caddesi, 32B",
      "phone": "+905385540000",
      "district": "SİLİVRİ",
      "city": "İstanbul",
      "latitude": 41.08631148234861,
      "longitude": 28.2483997128512,
      "dutyStart": "2026-02-24T21:00:00.000Z",
      "dutyEnd": "2026-02-25T20:59:59.000Z"
    },
    {
      "id": "istanbul-15758",
      "name": "İZZETPAŞA ECZANESİ",
      "address": "İzzetpaşa Çiftliği Mahallesi, Yeni Yol (G. 4) Caddesi, 30 A",
      "phone": "+902124710085",
      "district": "ŞİŞLİ",
      "city": "İstanbul",
      "latitude": 41.068403193382046,
      "longitude": 28.98572432826919,
      "dutyStart": "2026-02-24T21:00:00.000Z",
      "dutyEnd": "2026-02-25T20:59:59.000Z"
    },
    {
      "id": "istanbul-17278",
      "name": "ŞANSLI ECZANESİ",
      "address": "Selimpaşa Merkez Mahallesi, İskender Özcan Caddesi, 6/C",
      "phone": "+902127315777",
      "district": "SİLİVRİ",
      "city": "İstanbul",
      "latitude": 41.05666007101979,
      "longitude": 28.36378591724368,
      "dutyStart": "2026-02-24T21:00:00.000Z",
      "dutyEnd": "2026-02-25T20:59:59.000Z"
    },
    {
      "id": "istanbul-16728",
      "name": "ŞEN ECZANESİ",
      "address": "Orhantepe Mahallesi, Çınar Caddesi, 32/B",
      "phone": "+902164429603",
      "district": "KARTAL",
      "city": "İstanbul",
      "latitude": 40.909809413239806,
      "longitude": 29.162280085475373,
      "dutyStart": "2026-02-24T21:00:00.000Z",
      "dutyEnd": "2026-02-25T20:59:59.000Z"
    },
    {
      "id": "istanbul-32572",
      "name": "ŞENTÜRK ECZANESİ",
      "address": "Barış Mahallesi, Bestekar Sokak, 7C/A",
      "phone": "+902128523289",
      "district": "BEYLİKDÜZÜ",
      "city": "İstanbul",
      "latitude": 41.00422299984905,
      "longitude": 28.656743000536313,
      "dutyStart": "2026-02-24T21:00:00.000Z",
      "dutyEnd": "2026-02-25T20:59:59.000Z"
    },
    {
      "id": "istanbul-32374",
      "name": "ŞEVVAL ECZANESİ",
      "address": "Kirazlı Mahallesi, 1118. Sokak, 3A",
      "phone": "+902126572333",
      "district": "BAĞCILAR",
      "city": "İstanbul",
      "latitude": 41.037764000271956,
      "longitude": 28.84475999971181,
      "dutyStart": "2026-02-24T21:00:00.000Z",
      "dutyEnd": "2026-02-25T20:59:59.000Z"
    },
    {
      "id": "istanbul-31222",
      "name": "ŞİFA ECZANESİ",
      "address": "Dumlupınar Mahallesi, Mektep Sokak, 16/D",
      "phone": "+902165045453",
      "district": "KADIKÖY",
      "city": "İstanbul",
      "latitude": 40.98922573143077,
      "longitude": 29.05876055434932,
      "dutyStart": "2026-02-24T21:00:00.000Z",
      "dutyEnd": "2026-02-25T20:59:59.000Z"
    },
    {
      "id": "istanbul-8976",
      "name": "ŞİFA ECZANESİ",
      "address": "Ağva Merkez Mahallesi, Yakuplu Caddesi, 7",
      "phone": "+902167218169",
      "district": "ŞİLE",
      "city": "İstanbul",
      "latitude": 41.139166752321906,
      "longitude": 29.85684207593813,
      "dutyStart": "2026-02-24T21:00:00.000Z",
      "dutyEnd": "2026-02-25T20:59:59.000Z"
    }
  ]
}