{
  "city": "konya",
  "cityName": "Konya",
  "cityId": 42,
  "date": "2026-02-25",
  "updatedAt": "2026-02-25T04:00:26.089Z",
  "count": 31,
  "pharmacies": [
    {
      "id": "konya-0",
      "name": "BERKER ECZANESİ",
      "address": "FERHUNİYE MAHALLESİ HASTANE CADDESİ NO:39B SELÇUKLU",
      "phone": "903323527588",
      "district": "Selçuklu",
      "city": "Konya",
      "latitude": 37.8772861,
      "longitude": 32.488783,
      "dutyStart": "2026-02-25T09:00:00.000Z",
      "dutyEnd": "2026-02-26T09:00:00.000Z"
    },
    {
      "id": "konya-1",
      "name": "SEVİM ECZANESİ",
      "address": "AKŞEMSETTİN MAHALLESİ SARAY CADDESİ NO:6H SELÇUKLU",
      "phone": "903322476262",
      "district": "Selçuklu",
      "city": "Konya",
      "latitude": 37.88528,
      "longitude": 32.45649,
      "dutyStart": "2026-02-25T09:00:00.000Z",
      "dutyEnd": "2026-02-26T09:00:00.000Z"
    },
    {
      "id": "konya-2",
      "name": "REİSOĞLU ECZANESİ",
      "address": "KÖYCEĞİZ MAHALLESİ BEYŞEHİR CADDESİ NO:246B MERAM",
      "phone": "903323247474",
      "district": "Meram",
      "city": "Konya",
      "latitude": 37.877101,
      "longitude": 32.4294696,
      "dutyStart": "2026-02-25T09:00:00.000Z",
      "dutyEnd": "2026-02-26T09:00:00.000Z"
    },
    {
      "id": "konya-3",
      "name": "KALEM ECZANESİ",
      "address": "HAVZAN MAHALLESİ BABİL SOKAK NO:59A MERAM",
      "phone": "903323200302",
      "district": "Meram",
      "city": "Konya",
      "latitude": 37.8647875,
      "longitude": 32.4661325,
      "dutyStart": "2026-02-25T09:00:00.000Z",
      "dutyEnd": "2026-02-26T09:00:00.000Z"
    },
    {
      "id": "konya-4",
      "name": "NADİR ECZANESİ",
      "address": "MUSALLA BAĞLARI MAHALLESİ GÜRZ SOKAK NO:48-50 SELÇUKLU",
      "phone": "903322364020",
      "district": "Karatay",
      "city": "Konya",
      "latitude": 37.89321,
      "longitude": 32.49654,
      "dutyStart": "2026-02-25T09:00:00.000Z",
      "dutyEnd": "2026-02-26T09:00:00.000Z"
    },
    {
      "id": "konya-5",
      "name": "ŞAKALAK ECZANESİ",
      "address": "KONEVİ MAHALLESİ SAİTPAŞA CADDESİ NO:9C MERAM",
      "phone": "903323505346",
      "district": "Meram",
      "city": "Konya",
      "latitude": 37.8665032,
      "longitude": 32.4874937,
      "dutyStart": "2026-02-25T09:00:00.000Z",
      "dutyEnd": "2026-02-26T09:00:00.000Z"
    },
    {
      "id": "konya-6",
      "name": "MEVRA ECZANESİ",
      "address": "DOĞUŞ MAHALLESİ CEMİL ÇİÇEK CADDESİ A BLOK NO:11E KARATAY",
      "phone": "903324100492",
      "district": "Karatay",
      "city": "Konya",
      "latitude": 37.86256,
      "longitude": 32.52696,
      "dutyStart": "2026-02-25T09:00:00.000Z",
      "dutyEnd": "2026-02-26T09:00:00.000Z"
    },
    {
      "id": "konya-7",
      "name": "EMEL ECZANESİ",
      "address": "HÜSAMETTİN ÇELEBİ MAHALLESİ AKABE CADDESİ TÜYBEK ÇARŞISI NO:11D SELÇUKLU",
      "phone": "903322464500",
      "district": "Selçuklu",
      "city": "Konya",
      "latitude": 37.9117163,
      "longitude": 32.4910701,
      "dutyStart": "2026-02-25T09:00:00.000Z",
      "dutyEnd": "2026-02-26T09:00:00.000Z"
    },
    {
      "id": "konya-8",
      "name": "NATURA ECZANESİ",
      "address": "MALAZGİRT MAHALLESİ BARIŞ CADDESİ NO:44A SELÇUKLU",
      "phone": "903322656006",
      "district": "Selçuklu",
      "city": "Konya",
      "latitude": 37.9310821,
      "longitude": 32.4936299,
      "dutyStart": "2026-02-25T09:00:00.000Z",
      "dutyEnd": "2026-02-26T09:00:00.000Z"
    },
    {
      "id": "konya-9",
      "name": "BEYHEKİM ECZANESİ",
      "address": "BEYHEKİM MAHALLESİ ALİ DEMİRTAŞ SOKAK NO:49B1-B2 SELÇUKLU",
      "phone": "903322631010",
      "district": "Selçuklu",
      "city": "Konya",
      "latitude": 37.9842042,
      "longitude": 32.4883324,
      "dutyStart": "2026-02-25T09:00:00.000Z",
      "dutyEnd": "2026-02-26T09:00:00.000Z"
    },
    {
      "id": "konya-10",
      "name": "TÜRKER ECZANESİ",
      "address": "BOSNA HERSEK MAHALLESİ OSMANLI CADDESİ 4F SELÇUKLU",
      "phone": "905415852260",
      "district": "Selçuklu",
      "city": "Konya",
      "latitude": 38.009198,
      "longitude": 32.5213221,
      "dutyStart": "2026-02-25T09:00:00.000Z",
      "dutyEnd": "2026-02-26T09:00:00.000Z"
    },
    {
      "id": "konya-11",
      "name": "SAĞLAM ECZANESİ",
      "address": "SARIYAKUP MAHALLESİ YEDİYILDIZ SOKAK NO:21B KARATAY",
      "phone": "903323523151",
      "district": "Karatay",
      "city": "Konya",
      "latitude": 37.8599734,
      "longitude": 32.5062252,
      "dutyStart": "2026-02-25T09:00:00.000Z",
      "dutyEnd": "2026-02-26T09:00:00.000Z"
    },
    {
      "id": "konya-12",
      "name": "ERGÜN ECZANESİ",
      "address": "İSTASYON MAHALLESİ İSTASYON CADDESİ NO:117AC",
      "phone": "903328120679",
      "district": "Akşehi̇r",
      "city": "Konya",
      "latitude": 38.3647275,
      "longitude": 31.4317695,
      "dutyStart": "2026-02-25T09:00:00.000Z",
      "dutyEnd": "2026-02-26T09:00:00.000Z"
    },
    {
      "id": "konya-13",
      "name": "DİLEK ECZANESİ",
      "address": "ÖLMEZ MAHALLESİ MİLLET CADDESİ NO:4B",
      "phone": "903326312575",
      "district": "Altineki̇n",
      "city": "Konya",
      "latitude": 38.3072871,
      "longitude": 32.8636853,
      "dutyStart": "2026-02-25T09:00:00.000Z",
      "dutyEnd": "2026-02-26T09:00:00.000Z"
    },
    {
      "id": "konya-14",
      "name": "İRFAN ECZANESİ",
      "address": "HACI ARMAĞAN MAHALLESİ 40755. SOKAK NO:3A",
      "phone": "903325123334",
      "district": "Beyşehi̇r",
      "city": "Konya",
      "latitude": 37.6796448,
      "longitude": 31.7237223,
      "dutyStart": "2026-02-25T09:00:00.000Z",
      "dutyEnd": "2026-02-26T09:00:00.000Z"
    },
    {
      "id": "konya-15",
      "name": "ATASEVEN ECZANESİ",
      "address": "YUKARI MAHALLE FEVZİ PAŞA CADDESİ NO:5A",
      "phone": "903324261297",
      "district": "Bozkir",
      "city": "Konya",
      "latitude": 37.1892336,
      "longitude": 32.2449391,
      "dutyStart": "2026-02-25T09:00:00.000Z",
      "dutyEnd": "2026-02-26T09:00:00.000Z"
    },
    {
      "id": "konya-16",
      "name": "KAYHAN ECZANESİ",
      "address": "ATÇEKEN MAHALLESİ HASTANE CADDESİ NO:50C",
      "phone": "903326734131",
      "district": "Ci̇hanbeyli̇",
      "city": "Konya",
      "latitude": 38.6653723,
      "longitude": 32.9219152,
      "dutyStart": "2026-02-25T09:00:00.000Z",
      "dutyEnd": "2026-02-26T09:00:00.000Z"
    },
    {
      "id": "konya-17",
      "name": "SAĞLIK ECZANESİ",
      "address": "YENİCEOBA MAHALLESİ YENİCEOBA CADDESİ NO:84C",
      "phone": "903326762504",
      "district": "Ci̇hanbeyli̇",
      "city": "Konya",
      "latitude": 38.8709,
      "longitude": 32.78807,
      "dutyStart": "2026-02-25T09:00:00.000Z",
      "dutyEnd": "2026-02-26T09:00:00.000Z"
    },
    {
      "id": "konya-18",
      "name": "GÜLLECİ ECZANESİ",
      "address": "BAHÇELİEVLER MAHALLESİ 70619.SOKAK NO:6A",
      "phone": "903328712777",
      "district": "Çelti̇k",
      "city": "Konya",
      "latitude": 39.0254425,
      "longitude": 31.7994425,
      "dutyStart": "2026-02-25T09:00:00.000Z",
      "dutyEnd": "2026-02-26T09:00:00.000Z"
    },
    {
      "id": "konya-19",
      "name": "YENİ ECZANESİ",
      "address": "İZZETBEY MAHALLESİ HÜKÜMET CADDESİ. NO:13C",
      "phone": "903324471073",
      "district": "Çumra",
      "city": "Konya",
      "latitude": 37.5707212,
      "longitude": 32.7831866,
      "dutyStart": "2026-02-25T09:00:00.000Z",
      "dutyEnd": "2026-02-26T09:00:00.000Z"
    },
    {
      "id": "konya-20",
      "name": "YAREN ECZANESİ",
      "address": "ŞIH MAHALLESİ KAZIM KARABEKİR CADDESİ NO:21A",
      "phone": "903325560101",
      "district": "Doğanhi̇sar",
      "city": "Konya",
      "latitude": 38.1422592,
      "longitude": 31.6840085,
      "dutyStart": "2026-02-25T09:00:00.000Z",
      "dutyEnd": "2026-02-26T09:00:00.000Z"
    },
    {
      "id": "konya-21",
      "name": "EGE ECZANESİ",
      "address": "TALATPAŞA MH. KAZIM KARABEKİR CD. YILMAZ TOPBAŞ APT. B BLOK NO:70B",
      "phone": "903327100408",
      "district": "Ereğli̇",
      "city": "Konya",
      "latitude": 37.5183,
      "longitude": 34.06256,
      "dutyStart": "2026-02-25T09:00:00.000Z",
      "dutyEnd": "2026-02-26T09:00:00.000Z"
    },
    {
      "id": "konya-22",
      "name": "ŞİFA ECZANESİ",
      "address": "ULUPINAR MAHALLESİ FATİH CADDESİ NO:27D",
      "phone": "903325431034",
      "district": "Hüyük",
      "city": "Konya",
      "latitude": 37.9531609,
      "longitude": 31.5983827,
      "dutyStart": "2026-02-25T09:00:00.000Z",
      "dutyEnd": "2026-02-26T09:00:00.000Z"
    },
    {
      "id": "konya-23",
      "name": "ÖZLEM ECZANESİ",
      "address": "FAHRETTİN ALTAY MAHALLESİ 115829. SOKAK NO:3C",
      "phone": "903328813300",
      "district": "Ilgin",
      "city": "Konya",
      "latitude": 38.284223,
      "longitude": 31.8946543,
      "dutyStart": "2026-02-25T09:00:00.000Z",
      "dutyEnd": "2026-02-26T09:00:00.000Z"
    },
    {
      "id": "konya-24",
      "name": "ÖMÜR ECZANESİ",
      "address": "ÜNVEREN MAHALLESİ KONYA CADDESİ NO:151C",
      "phone": "903328341291",
      "district": "Kadinhani",
      "city": "Konya",
      "latitude": 38.2398111,
      "longitude": 32.2119299,
      "dutyStart": "2026-02-25T09:00:00.000Z",
      "dutyEnd": "2026-02-26T09:00:00.000Z"
    },
    {
      "id": "konya-25",
      "name": "SAĞLIK ECZANESİ",
      "address": "HANKAPI MAHALLESİ ŞEHİT AHMET SELÇİK CADDESİ NO:4D",
      "phone": "903327556930",
      "district": "Karapinar",
      "city": "Konya",
      "latitude": 37.7165739,
      "longitude": 33.5484988,
      "dutyStart": "2026-02-25T09:00:00.000Z",
      "dutyEnd": "2026-02-26T09:00:00.000Z"
    },
    {
      "id": "konya-26",
      "name": "SIHHAT ECZANESİ",
      "address": "KEMALİYE MAHALLESİ 138243 SOKAK NO:14A",
      "phone": "905434744428",
      "district": "Kulu",
      "city": "Konya",
      "latitude": 39.0849,
      "longitude": 33.07709,
      "dutyStart": "2026-02-25T09:00:00.000Z",
      "dutyEnd": "2026-02-26T09:00:00.000Z"
    },
    {
      "id": "konya-27",
      "name": "AYDINLI ECZANESİ",
      "address": "DOĞU İSTASYON MAHALLESİ YALÇIN CADDESİ 2E",
      "phone": "903326172121",
      "district": "Sarayönü",
      "city": "Konya",
      "latitude": 38.2605957,
      "longitude": 32.4059679,
      "dutyStart": "2026-02-25T09:00:00.000Z",
      "dutyEnd": "2026-02-26T09:00:00.000Z"
    },
    {
      "id": "konya-28",
      "name": "YENİ GÜL ECZANESİ",
      "address": "ALAYLAR İKİ MAHALLESİ MİLLİ EGEMENLİK CADDESİ NO:10A",
      "phone": "903325825221",
      "district": "Seydi̇şehi̇r",
      "city": "Konya",
      "latitude": 37.423881,
      "longitude": 31.8458776,
      "dutyStart": "2026-02-25T09:00:00.000Z",
      "dutyEnd": "2026-02-26T09:00:00.000Z"
    },
    {
      "id": "konya-29",
      "name": "TUZLUKÇU ECZANESİ",
      "address": "AŞAĞI MAHALLESİ AKŞEHİR CADDESİ NO:38",
      "phone": "903328612866",
      "district": "Tuzlukçu",
      "city": "Konya",
      "latitude": 38.4760048,
      "longitude": 31.6266913,
      "dutyStart": "2026-02-25T09:00:00.000Z",
      "dutyEnd": "2026-02-26T09:00:00.000Z"
    },
    {
      "id": "konya-30",
      "name": "GÖKPINAR ECZANESİ",
      "address": "FATİH MAHALLESİ AKŞEHİR CADDESİ NO:41",
      "phone": "903328513595",
      "district": "Yunak",
      "city": "Konya",
      "latitude": 38.80589,
      "longitude": 31.73921,
      "dutyStart": "2026-02-25T09:00:00.000Z",
      "dutyEnd": "2026-02-26T09:00:00.000Z"
    }
  ]
}