{
  "city": "samsun",
  "cityName": "Samsun",
  "cityId": 55,
  "date": "2026-02-25",
  "updatedAt": "2026-02-25T19:00:36.554Z",
  "count": 20,
  "pharmacies": [
    {
      "id": "samsun-0",
      "name": "SENA ÇAKMAK  ECZANESİ",
      "address": "BAHÇELİEVLER MAH. HAMDİ PAŞA SOK. NO:2",
      "phone": "03629997689",
      "district": "İlkadım",
      "city": "Samsun",
      "latitude": 41.277667,
      "longitude": 36.345026,
      "dutyStart": "2026-02-25T08:30:00.000Z",
      "dutyEnd": "2026-02-26T08:30:00.000Z"
    },
    {
      "id": "samsun-1",
      "name": "ÇEVRE ECZANESİ",
      "address": "ÇİFTLİK MAH. 100. YIL BULVARI NO:225/A",
      "phone": "03622336321",
      "district": "İlkadım",
      "city": "Samsun",
      "latitude": 41.280988,
      "longitude": 36.334613,
      "dutyStart": "2026-02-25T08:30:00.000Z",
      "dutyEnd": "2026-02-26T08:30:00.000Z"
    },
    {
      "id": "samsun-2",
      "name": "DOKUZ EYLÜL ECZANESİ",
      "address": "İLYASKÖY MAH. AZİZİYE CAD. NO.205/A",
      "phone": "03622368481",
      "district": "İlkadım",
      "city": "Samsun",
      "latitude": 41.277527,
      "longitude": 36.320004,
      "dutyStart": "2026-02-25T08:30:00.000Z",
      "dutyEnd": "2026-02-26T08:30:00.000Z"
    },
    {
      "id": "samsun-3",
      "name": "GENÇALİOĞLU ECZANESİ",
      "address": "YENİMAHALLE MAH. 100.YIL BULVARI NO.7/13",
      "phone": "03622280200",
      "district": "Canik",
      "city": "Samsun",
      "latitude": 41.272506,
      "longitude": 36.350561,
      "dutyStart": "2026-02-25T08:30:00.000Z",
      "dutyEnd": "2026-02-26T08:30:00.000Z"
    },
    {
      "id": "samsun-4",
      "name": "YENİ ATAKUM ECZANESİ",
      "address": "İSTİKLAL MAH. AYDINLIK CAD. NO:67/B",
      "phone": "03625020355",
      "district": "Atakum",
      "city": "Samsun",
      "latitude": 41.333133,
      "longitude": 36.253329,
      "dutyStart": "2026-02-25T08:30:00.000Z",
      "dutyEnd": "2026-02-26T08:30:00.000Z"
    },
    {
      "id": "samsun-5",
      "name": "BARTU ECZANESİ",
      "address": "MİMARSİNAN MAH 178. SOK. NO:19/B",
      "phone": "03625023940",
      "district": "Atakum",
      "city": "Samsun",
      "latitude": 41.326969,
      "longitude": 36.274748,
      "dutyStart": "2026-02-25T08:30:00.000Z",
      "dutyEnd": "2026-02-26T08:30:00.000Z"
    },
    {
      "id": "samsun-6",
      "name": "VURAL ECZANESİ",
      "address": "19 MAYIS MAH. HACI ALİ EKİNCİ BULVARI NO:4/C",
      "phone": "03622560360",
      "district": "Tekkeköy",
      "city": "Samsun",
      "latitude": 41.220058,
      "longitude": 36.453173,
      "dutyStart": "2026-02-25T08:30:00.000Z",
      "dutyEnd": "2026-02-26T08:30:00.000Z"
    },
    {
      "id": "samsun-7",
      "name": "YENİ ECZANESİ",
      "address": "YENİCAMİ MAH. BAFRA CAD.NO:22/B",
      "phone": "03626220090",
      "district": "Alaçam",
      "city": "Samsun",
      "latitude": 41.607941,
      "longitude": 35.598059,
      "dutyStart": "2026-02-25T08:30:00.000Z",
      "dutyEnd": "2026-02-26T08:30:00.000Z"
    },
    {
      "id": "samsun-8",
      "name": "ÖZYÜREK ECZANESİ",
      "address": "BİÇİNCİK MAHALLESİ ESEN SOK NO:5/1",
      "phone": "03627912203",
      "district": "Asarcık",
      "city": "Samsun",
      "latitude": 41.036083,
      "longitude": 36.226183,
      "dutyStart": "2026-02-25T08:30:00.000Z",
      "dutyEnd": "2026-02-26T08:30:00.000Z"
    },
    {
      "id": "samsun-9",
      "name": "EDA ECZANESİ",
      "address": "EYÜP SULTAN MAH. MUSTAFA GÜLER SOK. NO.8 İÇ KAPI Z-2",
      "phone": "03628132293",
      "district": "Ayvacık",
      "city": "Samsun",
      "latitude": 41.002689,
      "longitude": 36.629566,
      "dutyStart": "2026-02-25T08:30:00.000Z",
      "dutyEnd": "2026-02-26T08:30:00.000Z"
    },
    {
      "id": "samsun-10",
      "name": "BÜŞRA TURAN  ECZANESİ",
      "address": "EMİREFENDİ MAHALLESİ EMNİYET SOKAK NO:5/C",
      "phone": "03625323536",
      "district": "Bafra",
      "city": "Samsun",
      "latitude": 41.561028,
      "longitude": 35.907992,
      "dutyStart": "2026-02-25T08:30:00.000Z",
      "dutyEnd": "2026-02-26T08:30:00.000Z"
    },
    {
      "id": "samsun-11",
      "name": "ALVER ECZANESİ",
      "address": "SUNGURLU MAH. ŞEHİT PİLOT YÜZBAŞI ÜMİT ÖZER SOK. NO:1/A",
      "phone": "03628333540",
      "district": "Çarşamba",
      "city": "Samsun",
      "latitude": 41.202923,
      "longitude": 36.722256,
      "dutyStart": "2026-02-25T08:30:00.000Z",
      "dutyEnd": "2026-02-26T08:30:00.000Z"
    },
    {
      "id": "samsun-12",
      "name": "SÜMER ECZANESİ",
      "address": "25 MAYIS MAH. ŞEHİT JAN.ER MAHMUT KÖKSAL SOK. NO:25/A",
      "phone": "03629991029",
      "district": "Havza",
      "city": "Samsun",
      "latitude": 40.969462,
      "longitude": 35.666249,
      "dutyStart": "2026-02-25T08:30:00.000Z",
      "dutyEnd": "2026-02-26T08:30:00.000Z"
    },
    {
      "id": "samsun-13",
      "name": "YILMAZ ECZANESİ",
      "address": "19 MAYIS MAHALLESİ ADNAN MENDERES CADDESİ NO:75",
      "phone": "03627412701",
      "district": "Kavak",
      "city": "Samsun",
      "latitude": 41.073764,
      "longitude": 36.036254,
      "dutyStart": "2026-02-25T08:30:00.000Z",
      "dutyEnd": "2026-02-26T08:30:00.000Z"
    },
    {
      "id": "samsun-14",
      "name": "ALTUNDAĞ ECZANESİ",
      "address": "BAHŞİ MAH. NO:68/A",
      "phone": "03627713129",
      "district": "Ladik",
      "city": "Samsun",
      "latitude": 40.911691,
      "longitude": 35.894975,
      "dutyStart": "2026-02-25T08:30:00.000Z",
      "dutyEnd": "2026-02-26T08:30:00.000Z"
    },
    {
      "id": "samsun-15",
      "name": "NANE LİMON ECZANESİ",
      "address": "CUMHURİYET MAH.İSMET İNÖNÜ BULVARI NO:12/2",
      "phone": "05528099057",
      "district": "Ondokuzmayıs",
      "city": "Samsun",
      "latitude": 41.495025,
      "longitude": 36.083116,
      "dutyStart": "2026-02-25T08:30:00.000Z",
      "dutyEnd": "2026-02-26T08:30:00.000Z"
    },
    {
      "id": "samsun-16",
      "name": "SALIPAZARI ECZANESİ",
      "address": "BELEDİYE MEYDANI BİLA NO",
      "phone": "03628212219",
      "district": "Salıpazarı",
      "city": "Samsun",
      "latitude": 41.081891,
      "longitude": 36.825887,
      "dutyStart": "2026-02-25T08:30:00.000Z",
      "dutyEnd": "2026-02-26T08:30:00.000Z"
    },
    {
      "id": "samsun-17",
      "name": "TEBESSÜM ECZANESİ",
      "address": "FENK MAH. ÇARŞAMBA CAD. NO:13",
      "phone": "03628888181",
      "district": "Terme",
      "city": "Samsun",
      "latitude": 41.210096,
      "longitude": 36.969972,
      "dutyStart": "2026-02-25T08:30:00.000Z",
      "dutyEnd": "2026-02-26T08:30:00.000Z"
    },
    {
      "id": "samsun-18",
      "name": "YENİ ECZANESİ",
      "address": "MEHMET PAŞA MAH. ORG.FARUK CÖMERT CAD. NO:11",
      "phone": "03626471164",
      "district": "Vezirköprü",
      "city": "Samsun",
      "latitude": 41.14276,
      "longitude": 35.457244,
      "dutyStart": "2026-02-25T08:30:00.000Z",
      "dutyEnd": "2026-02-26T08:30:00.000Z"
    },
    {
      "id": "samsun-25",
      "name": "GİZEM ECZANESİ",
      "address": "GÜZELYURT MAH ERDEMBEY CAD.NO:13/B",
      "phone": "03686712792",
      "district": "Türkeli",
      "city": "Samsun",
      "latitude": 41.947058,
      "longitude": 34.337874,
      "dutyStart": "2026-02-25T08:30:00.000Z",
      "dutyEnd": "2026-02-26T08:30:00.000Z"
    }
  ]
}