{
  "city": "gaziantep",
  "cityName": "Gaziantep",
  "cityId": 27,
  "date": "2026-02-20",
  "updatedAt": "2026-02-20T02:30:31.269Z",
  "count": 21,
  "pharmacies": [
    {
      "id": "gaziantep-0",
      "name": "HIKMET TUNALI ECZANESI",
      "address": "Hürriyet Cd. N:21/D (küçük sigorta binası ve kardeşler simit fırını yanı)",
      "phone": "03422306817",
      "district": "Şahi̇nbey",
      "city": "Gaziantep",
      "latitude": 37.059319,
      "longitude": 37.37981,
      "dutyStart": "2026-02-20T08:30:00.000Z",
      "dutyEnd": "2026-02-21T08:30:00.000Z"
    },
    {
      "id": "gaziantep-1",
      "name": "ALPER SAHİN ECZANESİ",
      "address": "Gümüştekin Mah. 11 Nolu Sok No:36/A (19 Mayıs Lisesi Civarı Cumhuriyet Sağlık Ocağı Yanı)",
      "phone": "03423365163",
      "district": "Şahi̇nbey",
      "city": "Gaziantep",
      "latitude": 37.05302,
      "longitude": 37.36256,
      "dutyStart": "2026-02-20T08:30:00.000Z",
      "dutyEnd": "2026-02-21T08:30:00.000Z"
    },
    {
      "id": "gaziantep-2",
      "name": "ŞULE (ŞAHİNBY)",
      "address": "Perilikaya mahallesi 98105 nolu sokak no :4C ( ABDÜLKADİR YÜKSEL DEVLET HASTANESİ ACİLİ YANI )",
      "phone": "05011770502",
      "district": "Şahi̇nbey",
      "city": "Gaziantep",
      "latitude": 37.06675232813354,
      "longitude": 37.38321304321289,
      "dutyStart": "2026-02-20T08:30:00.000Z",
      "dutyEnd": "2026-02-21T08:30:00.000Z"
    },
    {
      "id": "gaziantep-3",
      "name": "KESKİNÖZ ECZANESİ",
      "address": "23 Nisan mah. Üniversite bulvarı. (Özel Kemal Bayındır Hastanesi Yanı )",
      "phone": "3609030",
      "district": "Şahi̇nbey",
      "city": "Gaziantep",
      "latitude": 37.047088,
      "longitude": 37.332122,
      "dutyStart": "2026-02-20T08:30:00.000Z",
      "dutyEnd": "2026-02-21T08:30:00.000Z"
    },
    {
      "id": "gaziantep-4",
      "name": "UZMAN ECZANESİ",
      "address": "Ibni sina mah 190011nolu sokak kapi no :5ad sahinbey gaziantep ( şehir hastanesi poliklinik kapısı karşısı)",
      "phone": "03425026960",
      "district": "Şahi̇nbey",
      "city": "Gaziantep",
      "latitude": 37.06675232813354,
      "longitude": 37.38321304321289,
      "dutyStart": "2026-02-20T08:30:00.000Z",
      "dutyEnd": "2026-02-21T08:30:00.000Z"
    },
    {
      "id": "gaziantep-5",
      "name": "KATIRCI ECZANESİ",
      "address": "Karataş mah. 103404 nolu cad. Kavaklık Rotary Sağlık Ocağı Karşısı, Günko Sitesi Altı Karataş Merkez/Şahinbey",
      "phone": "03423711636",
      "district": "Şahi̇nbey",
      "city": "Gaziantep",
      "latitude": 37.020569,
      "longitude": 37.34145,
      "dutyStart": "2026-02-20T08:30:00.000Z",
      "dutyEnd": "2026-02-21T08:30:00.000Z"
    },
    {
      "id": "gaziantep-6",
      "name": "NECIP DEMIR ECZANESI",
      "address": "Gaziantep Üniversite Hastanesi Karşısı.Üst Geçit Yanı",
      "phone": "03423238585",
      "district": "Şahi̇nbey",
      "city": "Gaziantep",
      "latitude": 37.0402702511305,
      "longitude": 37.32190848023989,
      "dutyStart": "2026-02-20T08:30:00.000Z",
      "dutyEnd": "2026-02-21T08:30:00.000Z"
    },
    {
      "id": "gaziantep-7",
      "name": "FAHREDDİN ECZANESİ",
      "address": "Ertuğrulgazi mah. 189012 nolu cad. Özgür Akdağ apt. No:9/B - Doğuşer seramik karşı sokağı Şahinbey/Gaziantep",
      "phone": "05327450497",
      "district": "Şahi̇nbey",
      "city": "Gaziantep",
      "latitude": 37.031527,
      "longitude": 37.35244,
      "dutyStart": "2026-02-20T08:30:00.000Z",
      "dutyEnd": "2026-02-21T08:30:00.000Z"
    },
    {
      "id": "gaziantep-8",
      "name": "KAPLAN ECZANESİ",
      "address": "Mücahitler mah Kudüs cd no:34/c Şehitkamil/Gaziantep ( Medical Point Hast Yanı)",
      "phone": "05072168686",
      "district": "Şehi̇tkami̇l",
      "city": "Gaziantep",
      "latitude": 37.076031,
      "longitude": 37.369732,
      "dutyStart": "2026-02-20T08:30:00.000Z",
      "dutyEnd": "2026-02-21T08:30:00.000Z"
    },
    {
      "id": "gaziantep-9",
      "name": "MUMBUÇ ECZANESİ",
      "address": "Gazi Muhtar Paşa Bul.N:39/C(Halı Sarayı Kar.Has Ekmek Yanı)",
      "phone": "03423218384",
      "district": "Şehi̇tkami̇l",
      "city": "Gaziantep",
      "latitude": 37.071468,
      "longitude": 37.365967,
      "dutyStart": "2026-02-20T08:30:00.000Z",
      "dutyEnd": "2026-02-21T08:30:00.000Z"
    },
    {
      "id": "gaziantep-10",
      "name": "MERVE ECZANESİ",
      "address": "Güvenevler Mahallesi 29023 Nolu Cadde No.2/BA (sapphire sitesi altı,tazehan yanı)",
      "phone": "05072373727",
      "district": "Şehi̇tkami̇l",
      "city": "Gaziantep",
      "latitude": 37.084396,
      "longitude": 37.345222,
      "dutyStart": "2026-02-20T08:30:00.000Z",
      "dutyEnd": "2026-02-21T08:30:00.000Z"
    },
    {
      "id": "gaziantep-11",
      "name": "EMEK ENSAR ECZANESI",
      "address": "Ali Nadi Ünler Bul. No:58/A (Emek ASM Yanı-MİGROS Çaprazı)",
      "phone": "03423216994",
      "district": "Şehi̇tkami̇l",
      "city": "Gaziantep",
      "latitude": 37.072979,
      "longitude": 37.35006,
      "dutyStart": "2026-02-20T08:30:00.000Z",
      "dutyEnd": "2026-02-21T08:30:00.000Z"
    },
    {
      "id": "gaziantep-12",
      "name": "GÜLTEN ECZANESİ",
      "address": "Çıksorut mah 15043 nolu sok.11/A (GÜVEN KARAKOLU KARŞISI.FATİH CAMİİ CİVARI)",
      "phone": "03422267144",
      "district": "Şehi̇tkami̇l",
      "city": "Gaziantep",
      "latitude": 37.067093,
      "longitude": 37.401764,
      "dutyStart": "2026-02-20T08:30:00.000Z",
      "dutyEnd": "2026-02-21T08:30:00.000Z"
    },
    {
      "id": "gaziantep-13",
      "name": "YENI FULYA ECZANESI",
      "address": "Pirsultan MhÇetin Emeç Cd.(Kayaönü Şehitkamil.Dev.Hst.Kr.)",
      "phone": "03423244867",
      "district": "Şehi̇tkami̇l",
      "city": "Gaziantep",
      "latitude": 37.089653,
      "longitude": 37.364929,
      "dutyStart": "2026-02-20T08:30:00.000Z",
      "dutyEnd": "2026-02-21T08:30:00.000Z"
    },
    {
      "id": "gaziantep-14",
      "name": "AKKARTAL ECZANESİ",
      "address": "Fısktıklık mah 152071 nolu cadde no 20/J (Fıstıklık parkı yanı, Gap Yazıcık unlu mamülleri bitişiği)",
      "phone": "03422352024",
      "district": "Şehi̇tkami̇l",
      "city": "Gaziantep",
      "latitude": 37.117485,
      "longitude": 37.391186,
      "dutyStart": "2026-02-20T08:30:00.000Z",
      "dutyEnd": "2026-02-21T08:30:00.000Z"
    },
    {
      "id": "gaziantep-15",
      "name": "SEVGI ECZANESI",
      "address": "FATIH SULTAN MAH. YAVUZ SULTAN SELIM BULV. RAUF APT. NO:30/D NİZİP-GAZİANTEP",
      "phone": "03425182627",
      "district": "Ni̇zi̇p",
      "city": "Gaziantep",
      "latitude": 37.009556,
      "longitude": 37.81303,
      "dutyStart": "2026-02-20T08:30:00.000Z",
      "dutyEnd": "2026-02-21T08:30:00.000Z"
    },
    {
      "id": "gaziantep-16",
      "name": "BABACAN ECZANESİ",
      "address": "Yeşiova Mahallesi Dr. Asım Güzelbey Caddesi NO:25/A",
      "phone": "03426112898",
      "district": "Araban",
      "city": "Gaziantep",
      "latitude": 37.06675232813354,
      "longitude": 37.38321304321289,
      "dutyStart": "2026-02-20T08:30:00.000Z",
      "dutyEnd": "2026-02-21T08:30:00.000Z"
    },
    {
      "id": "gaziantep-17",
      "name": "YENİ ECZANESİ",
      "address": "Fatih Mahallesi Numan Durak Aksoy Caddesi No:97 İç Kapı No:A",
      "phone": "05324929636",
      "district": "Oğuzeli̇",
      "city": "Gaziantep",
      "latitude": 37.06675232813354,
      "longitude": 37.38321304321289,
      "dutyStart": "2026-02-20T08:30:00.000Z",
      "dutyEnd": "2026-02-21T08:30:00.000Z"
    },
    {
      "id": "gaziantep-18",
      "name": "ŞİFA ECZANESİ",
      "address": "CUMHURİYET MAH.HÜKÜMET CAD.NO:28 (ESKİ ZİRAAT BANKASI KARŞISI)",
      "phone": "03428624408",
      "district": "İslahi̇ye",
      "city": "Gaziantep",
      "latitude": 37.025147,
      "longitude": 36.633226,
      "dutyStart": "2026-02-20T08:30:00.000Z",
      "dutyEnd": "2026-02-21T08:30:00.000Z"
    },
    {
      "id": "gaziantep-19",
      "name": "ÖZLEM AKSU (NURDAĞI)",
      "address": "Fatih Mahallesi Barbaros Caddesi Dış Kapı No:2 İç Kapı No:1 NURDAĞI",
      "phone": "05053311998",
      "district": "Nurdaği",
      "city": "Gaziantep",
      "latitude": 37.06675232813354,
      "longitude": 37.38321304321289,
      "dutyStart": "2026-02-20T08:30:00.000Z",
      "dutyEnd": "2026-02-21T08:30:00.000Z"
    },
    {
      "id": "gaziantep-20",
      "name": "ÖZLEM ECZANESI",
      "address": "Özlem Eczanesi Hürriyet Mah. İnönü Cad. No =9/A YAVUZELİ",
      "phone": "05549525101",
      "district": "Yavuzeli̇",
      "city": "Gaziantep",
      "latitude": 37.096748,
      "longitude": 37.426849,
      "dutyStart": "2026-02-20T08:30:00.000Z",
      "dutyEnd": "2026-02-21T08:30:00.000Z"
    }
  ]
}