{
  "city": "istanbul",
  "cityName": "İstanbul",
  "cityId": 34,
  "date": "2026-02-20",
  "updatedAt": "2026-02-20T11:31:00.067Z",
  "count": 134,
  "pharmacies": [
    {
      "id": "istanbul-8908",
      "name": "ABDULLAH ECZANESİ",
      "address": "Demirkapı Mahallesi, 1742. Sokak, 1/A",
      "phone": "+902126020037",
      "district": "BAĞCILAR",
      "city": "İstanbul",
      "latitude": 41.0435889098325,
      "longitude": 28.84697546320489,
      "dutyStart": "2026-02-19T21:00:00.000Z",
      "dutyEnd": "2026-02-20T20:59:59.000Z"
    },
    {
      "id": "istanbul-21450",
      "name": "ALFA ECZANESİ",
      "address": "Koşuyolu Mahallesi, Koşuyolu Caddesi, 2/A",
      "phone": "+902163394339",
      "district": "KADIKÖY",
      "city": "İstanbul",
      "latitude": 41.01171499996717,
      "longitude": 29.03861600004604,
      "dutyStart": "2026-02-19T21:00:00.000Z",
      "dutyEnd": "2026-02-20T20:59:59.000Z"
    },
    {
      "id": "istanbul-24446",
      "name": "ALPER ECZANESİ",
      "address": "Akşemsettin Mahallesi, Petrol Yolu Caddesi, Birgül Sokak,No:34/A",
      "phone": "+905321375501",
      "district": "SULTANBEYLİ",
      "city": "İstanbul",
      "latitude": 40.9485902386864,
      "longitude": 29.29809581546398,
      "dutyStart": "2026-02-19T21:00:00.000Z",
      "dutyEnd": "2026-02-20T20:59:59.000Z"
    },
    {
      "id": "istanbul-15768",
      "name": "ALTAN ECZANESİ",
      "address": "İnönü Mahallesi Muammer Aksoy Caddesi 68/B",
      "phone": "+902126961251",
      "district": "KÜÇÜKÇEKMECE",
      "city": "İstanbul",
      "latitude": 41.01591048350915,
      "longitude": 28.804204236814627,
      "dutyStart": "2026-02-19T21:00:00.000Z",
      "dutyEnd": "2026-02-20T20:59:59.000Z"
    },
    {
      "id": "istanbul-29054",
      "name": "ALTINSOY ECZANESİ",
      "address": "Ekşioğlu Mahallesi, Saray Caddesi, No:101/2B",
      "phone": "+902167717810",
      "district": "ÇEKMEKÖY",
      "city": "İstanbul",
      "latitude": 41.03538790241537,
      "longitude": 29.235168911245783,
      "dutyStart": "2026-02-19T21:00:00.000Z",
      "dutyEnd": "2026-02-20T20:59:59.000Z"
    },
    {
      "id": "istanbul-25890",
      "name": "ALİ İMRAN ECZANESİ",
      "address": "Çınardere Mahallesi, Mehtap Sokak, 18",
      "phone": "+902163791323",
      "district": "PENDİK",
      "city": "İstanbul",
      "latitude": 40.89879072958586,
      "longitude": 29.247340258022508,
      "dutyStart": "2026-02-19T21:00:00.000Z",
      "dutyEnd": "2026-02-20T20:59:59.000Z"
    },
    {
      "id": "istanbul-28116",
      "name": "AND ECZANESİ",
      "address": "Karlıbayır Mahallesi, Selçuklu Caddesi, 15-17A/ 15-17B",
      "phone": "+902127415356",
      "district": "ARNAVUTKÖY",
      "city": "İstanbul",
      "latitude": 41.1846218686808,
      "longitude": 28.718283993948443,
      "dutyStart": "2026-02-19T21:00:00.000Z",
      "dutyEnd": "2026-02-20T20:59:59.000Z"
    },
    {
      "id": "istanbul-28740",
      "name": "ARAN ECZANESİ",
      "address": "Turgut Özal Mahallesi, 55. Sokak, 29A",
      "phone": "+902124230446",
      "district": "ESENYURT",
      "city": "İstanbul",
      "latitude": 41.00302653991258,
      "longitude": 28.697547018137186,
      "dutyStart": "2026-02-19T21:00:00.000Z",
      "dutyEnd": "2026-02-20T20:59:59.000Z"
    },
    {
      "id": "istanbul-12824",
      "name": "ARDA ECZANESİ",
      "address": "İdealtepe Mahallesi, Rıfkı Tongsir Caddesi, 28",
      "phone": "+902163665663",
      "district": "MALTEPE",
      "city": "İstanbul",
      "latitude": 40.93916100033734,
      "longitude": 29.118618999980395,
      "dutyStart": "2026-02-19T21:00:00.000Z",
      "dutyEnd": "2026-02-20T20:59:59.000Z"
    },
    {
      "id": "istanbul-26400",
      "name": "ASRIN ECZANESİ",
      "address": "Alibey Mahallesi, Fevzi Çakmak Caddesi, 8B",
      "phone": "+902127271116",
      "district": "SİLİVRİ",
      "city": "İstanbul",
      "latitude": 41.07462148434918,
      "longitude": 28.24893056035451,
      "dutyStart": "2026-02-19T21:00:00.000Z",
      "dutyEnd": "2026-02-20T20:59:59.000Z"
    },
    {
      "id": "istanbul-25350",
      "name": "ATAÇ ECZANESİ",
      "address": "Atakent Mahallesi, 1. Caddesi, 3/B",
      "phone": "+905411065232",
      "district": "KÜÇÜKÇEKMECE",
      "city": "İstanbul",
      "latitude": 41.05675899956982,
      "longitude": 28.781546000591305,
      "dutyStart": "2026-02-19T21:00:00.000Z",
      "dutyEnd": "2026-02-20T20:59:59.000Z"
    },
    {
      "id": "istanbul-6656",
      "name": "ATIŞALANI MEYDAN ECZANESİ",
      "address": "Havaalanı Mahallesi, Taşocağı Caddesi, 28/1",
      "phone": "+902124295656",
      "district": "ESENLER",
      "city": "İstanbul",
      "latitude": 41.05580155797008,
      "longitude": 28.869611654708027,
      "dutyStart": "2026-02-19T21:00:00.000Z",
      "dutyEnd": "2026-02-20T20:59:59.000Z"
    },
    {
      "id": "istanbul-22968",
      "name": "AYLİN ECZANESİ",
      "address": "Sarıgazi Mahallesi, Osmangazi Caddesi, 30/B",
      "phone": "+902166216427",
      "district": "SANCAKTEPE",
      "city": "İstanbul",
      "latitude": 41.006006000264925,
      "longitude": 29.21571000008121,
      "dutyStart": "2026-02-19T21:00:00.000Z",
      "dutyEnd": "2026-02-20T20:59:59.000Z"
    },
    {
      "id": "istanbul-21576",
      "name": "AYÇA ECZANESİ",
      "address": "Safa Mahallesi, Takva Caddesi, 14/A",
      "phone": "+902164844861",
      "district": "SANCAKTEPE",
      "city": "İstanbul",
      "latitude": 41.0086660000399,
      "longitude": 29.248517000520252,
      "dutyStart": "2026-02-19T21:00:00.000Z",
      "dutyEnd": "2026-02-20T20:59:59.000Z"
    },
    {
      "id": "istanbul-29180",
      "name": "BAHAR ECZANESİ",
      "address": "50. Yıl Mahallesi, Muhsin Yazıcıoğlu Caddesi, 153/A",
      "phone": "+905421874763",
      "district": "SULTANGAZİ",
      "city": "İstanbul",
      "latitude": 41.09269199961827,
      "longitude": 28.865591999739703,
      "dutyStart": "2026-02-19T21:00:00.000Z",
      "dutyEnd": "2026-02-20T20:59:59.000Z"
    },
    {
      "id": "istanbul-12264",
      "name": "BARIŞ ECZANESİ",
      "address": "Cumhuriyet Mahallesi, Yüzyıl Caddesi, 50A",
      "phone": "+902164512324",
      "district": "KARTAL",
      "city": "İstanbul",
      "latitude": 40.9078209497697,
      "longitude": 29.22112647848587,
      "dutyStart": "2026-02-19T21:00:00.000Z",
      "dutyEnd": "2026-02-20T20:59:59.000Z"
    },
    {
      "id": "istanbul-27494",
      "name": "BAYLAN ECZANESİ",
      "address": "Kayabaşı Mahallesi, Evliya Çelebi Caddesi, 10-11-12",
      "phone": "+905342372163",
      "district": "BAŞAKŞEHİR",
      "city": "İstanbul",
      "latitude": 41.11737957570498,
      "longitude": 28.77320355281024,
      "dutyStart": "2026-02-19T21:00:00.000Z",
      "dutyEnd": "2026-02-20T20:59:59.000Z"
    },
    {
      "id": "istanbul-28022",
      "name": "BAĞLARÇEŞME ECZANESİ",
      "address": "Bağlarçeşme Mahallesi, Bağlarçeşme Caddesi, 18/D",
      "phone": "+902126284200",
      "district": "ESENYURT",
      "city": "İstanbul",
      "latitude": 41.03528100011219,
      "longitude": 28.675482000000606,
      "dutyStart": "2026-02-19T21:00:00.000Z",
      "dutyEnd": "2026-02-20T20:59:59.000Z"
    },
    {
      "id": "istanbul-27602",
      "name": "BENGİSU ECZANESİ",
      "address": "İçerenköy Mahallesi, Yeşilvadi Sokak, 14",
      "phone": "+902164690694",
      "district": "ATAŞEHİR",
      "city": "İstanbul",
      "latitude": 40.968189412115876,
      "longitude": 29.105595077059398,
      "dutyStart": "2026-02-19T21:00:00.000Z",
      "dutyEnd": "2026-02-20T20:59:59.000Z"
    },
    {
      "id": "istanbul-16216",
      "name": "BERKTUĞ ECZANESİ",
      "address": "Telsizler Mahallesi, Talatpaşa Caddesi, 128/B",
      "phone": "+902122817661",
      "district": "KAĞITHANE",
      "city": "İstanbul",
      "latitude": 41.07887239195936,
      "longitude": 28.998345048488197,
      "dutyStart": "2026-02-19T21:00:00.000Z",
      "dutyEnd": "2026-02-20T20:59:59.000Z"
    },
    {
      "id": "istanbul-33442",
      "name": "BERNA KOÇ ECZANESİ",
      "address": "Yıldırım Mahallesi, Barbaros Sokak, 56",
      "phone": "+902126164391",
      "district": "BAYRAMPAŞA",
      "city": "İstanbul",
      "latitude": 41.063000000300114,
      "longitude": 28.897562999847967,
      "dutyStart": "2026-02-19T21:00:00.000Z",
      "dutyEnd": "2026-02-20T20:59:59.000Z"
    },
    {
      "id": "istanbul-6004",
      "name": "BOĞAZKÖY ECZANESİ",
      "address": "Yunus Emre Mahallesi, Necip Fazıl Caddesi, 243/D-E",
      "phone": "+902126841213",
      "district": "ARNAVUTKÖY",
      "city": "İstanbul",
      "latitude": 41.186326484678936,
      "longitude": 28.76224747594813,
      "dutyStart": "2026-02-19T21:00:00.000Z",
      "dutyEnd": "2026-02-20T20:59:59.000Z"
    },
    {
      "id": "istanbul-33278",
      "name": "BULVAR ECZANESİ",
      "address": "Nuripaşa Mahallesi, 58. Bulvar Caddesi, No:132/B",
      "phone": "+902126658434",
      "district": "ZEYTİNBURNU",
      "city": "İstanbul",
      "latitude": 40.98680747658208,
      "longitude": 28.904142004445685,
      "dutyStart": "2026-02-19T21:00:00.000Z",
      "dutyEnd": "2026-02-20T20:59:59.000Z"
    },
    {
      "id": "istanbul-2338",
      "name": "BURGAZADA ECZANESİ",
      "address": "Burgazadası Mahallesi, Çınarlık Sokak, 3",
      "phone": "+902163812112",
      "district": "ADALAR",
      "city": "İstanbul",
      "latitude": 40.87998754997831,
      "longitude": 29.06919493887321,
      "dutyStart": "2026-02-19T21:00:00.000Z",
      "dutyEnd": "2026-02-20T20:59:59.000Z"
    },
    {
      "id": "istanbul-27016",
      "name": "BURÇ ECZANESİ",
      "address": "Mehmet Akif Ersoy Mahallesi, 1824. Sokak, 19/A",
      "phone": "+902128521090",
      "district": "ESENYURT",
      "city": "İstanbul",
      "latitude": 41.017743000422875,
      "longitude": 28.66665100054722,
      "dutyStart": "2026-02-19T21:00:00.000Z",
      "dutyEnd": "2026-02-20T20:59:59.000Z"
    },
    {
      "id": "istanbul-27868",
      "name": "BUĞDAY ECZANESİ",
      "address": "Güneşli Mahallesi, Üsküp Caddesi, 129-133/F",
      "phone": "+902124890062",
      "district": "BAĞCILAR",
      "city": "İstanbul",
      "latitude": 41.04225299975767,
      "longitude": 28.82845600030234,
      "dutyStart": "2026-02-19T21:00:00.000Z",
      "dutyEnd": "2026-02-20T20:59:59.000Z"
    },
    {
      "id": "istanbul-5942",
      "name": "BUĞRA ECZANESİ",
      "address": "Namık Kemal Mahallesi, Sütçü İmam Caddesi, 4/A",
      "phone": "+902163160111",
      "district": "ÜMRANİYE",
      "city": "İstanbul",
      "latitude": 41.024139000390555,
      "longitude": 29.08360400027502,
      "dutyStart": "2026-02-19T21:00:00.000Z",
      "dutyEnd": "2026-02-20T20:59:59.000Z"
    },
    {
      "id": "istanbul-25234",
      "name": "BÜŞRA ECZANESİ",
      "address": "Kazım Karabekir Mahallesi, 806/1. Sokak, 12A",
      "phone": "+902125377273",
      "district": "GAZİOSMANPAŞA",
      "city": "İstanbul",
      "latitude": 41.07715956740428,
      "longitude": 28.907811067695082,
      "dutyStart": "2026-02-19T21:00:00.000Z",
      "dutyEnd": "2026-02-20T20:59:59.000Z"
    },
    {
      "id": "istanbul-32326",
      "name": "BİZİM EVLER ECZANESİ",
      "address": "Güzelce Mahallesi, Geçit Caddesi, B4/9/1B",
      "phone": "+902128717574",
      "district": "BÜYÜKÇEKMECE",
      "city": "İstanbul",
      "latitude": 41.005155000435515,
      "longitude": 28.51497999998948,
      "dutyStart": "2026-02-19T21:00:00.000Z",
      "dutyEnd": "2026-02-20T20:59:59.000Z"
    },
    {
      "id": "istanbul-10716",
      "name": "BİZİM EVİN ECZANESİ",
      "address": "Feneryolu Mahallesi, Atılay Sokak, 17/1",
      "phone": "+902165666106",
      "district": "KADIKÖY",
      "city": "İstanbul",
      "latitude": 40.983595834136736,
      "longitude": 29.056404347484477,
      "dutyStart": "2026-02-19T21:00:00.000Z",
      "dutyEnd": "2026-02-20T20:59:59.000Z"
    },
    {
      "id": "istanbul-36796",
      "name": "CAN ECZANESİ ",
      "address": "İstinye Mahallesi, Nuripaşa Caddesi, No:6/A",
      "phone": "+905302477563",
      "district": "SARIYER",
      "city": "İstanbul",
      "latitude": 41.118107089058526,
      "longitude": 29.050545685552027,
      "dutyStart": "2026-02-19T21:00:00.000Z",
      "dutyEnd": "2026-02-20T20:59:59.000Z"
    },
    {
      "id": "istanbul-27500",
      "name": "CANDAN ECZANESİ",
      "address": "Fatih Mahallesi, Cengiz Topel Caddesi, 79/1U",
      "phone": "+902128122378",
      "district": "BÜYÜKÇEKMECE",
      "city": "İstanbul",
      "latitude": 41.018424543313834,
      "longitude": 28.59838837567957,
      "dutyStart": "2026-02-19T21:00:00.000Z",
      "dutyEnd": "2026-02-20T20:59:59.000Z"
    },
    {
      "id": "istanbul-7900",
      "name": "DENİZ ECZANESİ",
      "address": "Hürriyet Mahallesi, Mahmutbey Caddesi, 21",
      "phone": "+902125524419",
      "district": "BAHÇELİEVLER",
      "city": "İstanbul",
      "latitude": 40.99411841752317,
      "longitude": 28.84274671418503,
      "dutyStart": "2026-02-19T21:00:00.000Z",
      "dutyEnd": "2026-02-20T20:59:59.000Z"
    },
    {
      "id": "istanbul-5442",
      "name": "DEVA ECZANESİ",
      "address": "Muradiye Mahallesi, Deryadil Sokak, 4/A",
      "phone": "+902123274286",
      "district": "BEŞİKTAŞ",
      "city": "İstanbul",
      "latitude": 41.049064212159955,
      "longitude": 29.000431935524578,
      "dutyStart": "2026-02-19T21:00:00.000Z",
      "dutyEnd": "2026-02-20T20:59:59.000Z"
    },
    {
      "id": "istanbul-17120",
      "name": "DEVA ECZANESİ",
      "address": "Denizköşkler Mahallesi, Ahmet Kaya Caddesi, 72/A",
      "phone": "+902124200368",
      "district": "AVCILAR",
      "city": "İstanbul",
      "latitude": 40.97603620159575,
      "longitude": 28.73371638136144,
      "dutyStart": "2026-02-19T21:00:00.000Z",
      "dutyEnd": "2026-02-20T20:59:59.000Z"
    },
    {
      "id": "istanbul-22748",
      "name": "DOSTLAR ECZANESİ",
      "address": "75. Yıl Mahallesi, 1316. Sokak, 3/A",
      "phone": "+902126500492",
      "district": "SULTANGAZİ",
      "city": "İstanbul",
      "latitude": 41.097781229948225,
      "longitude": 28.905356321376036,
      "dutyStart": "2026-02-19T21:00:00.000Z",
      "dutyEnd": "2026-02-20T20:59:59.000Z"
    },
    {
      "id": "istanbul-15328",
      "name": "DOĞA ECZANESİ",
      "address": "Bağlarbaşı Mahallesi, Bağdat Caddesi, 457/F",
      "phone": "+902163522827",
      "district": "MALTEPE",
      "city": "İstanbul",
      "latitude": 40.92193600006237,
      "longitude": 29.135958000079633,
      "dutyStart": "2026-02-19T21:00:00.000Z",
      "dutyEnd": "2026-02-20T20:59:59.000Z"
    },
    {
      "id": "istanbul-36044",
      "name": "DOĞAN ECZANESİ",
      "address": "Barbaros Mahallesi, Barbaros Caddesi, No:223/A",
      "phone": "+902163156448",
      "district": "ATAŞEHİR",
      "city": "İstanbul",
      "latitude": 40.98995146535889,
      "longitude": 29.101787765048748,
      "dutyStart": "2026-02-19T21:00:00.000Z",
      "dutyEnd": "2026-02-20T20:59:59.000Z"
    },
    {
      "id": "istanbul-23730",
      "name": "DUYGU ECZANESİ",
      "address": "Hürriyet Mahallesi, Menderes Caddesi, 49-51B",
      "phone": "+905300288011",
      "district": "BAĞCILAR",
      "city": "İstanbul",
      "latitude": 41.02703700029825,
      "longitude": 28.830763999466985,
      "dutyStart": "2026-02-19T21:00:00.000Z",
      "dutyEnd": "2026-02-20T20:59:59.000Z"
    },
    {
      "id": "istanbul-14582",
      "name": "DİLEK ECZANESİ",
      "address": "Zafer Mahallesi, Kaptan Sokak, 2/A",
      "phone": "+902125524683",
      "district": "BAHÇELİEVLER",
      "city": "İstanbul",
      "latitude": 41.00833837202621,
      "longitude": 28.83301285318238,
      "dutyStart": "2026-02-19T21:00:00.000Z",
      "dutyEnd": "2026-02-20T20:59:59.000Z"
    },
    {
      "id": "istanbul-22734",
      "name": "ECZANE NAR",
      "address": "Küçükbakkalköy Mahallesi, Kayışdağı Caddesi, Atayol Plaza, 45",
      "phone": "+902165761542",
      "district": "ATAŞEHİR",
      "city": "İstanbul",
      "latitude": 40.97930097463033,
      "longitude": 29.10831689581302,
      "dutyStart": "2026-02-19T21:00:00.000Z",
      "dutyEnd": "2026-02-20T20:59:59.000Z"
    },
    {
      "id": "istanbul-21378",
      "name": "EGEMEN ECZANESİ (V)",
      "address": "Sultan Murat Mahallesi, Sultan Murat Caddesi, 115",
      "phone": "+902125923028",
      "district": "KÜÇÜKÇEKMECE",
      "city": "İstanbul",
      "latitude": 41.00233685074392,
      "longitude": 28.787910459814796,
      "dutyStart": "2026-02-19T21:00:00.000Z",
      "dutyEnd": "2026-02-20T20:59:59.000Z"
    },
    {
      "id": "istanbul-22252",
      "name": "ELİF ÖZTÜRK ECZANESİ",
      "address": "Paşabahçe Mahallesi, Beyaz Erguvan Caddesi, 58A",
      "phone": "+902164258383",
      "district": "BEYKOZ",
      "city": "İstanbul",
      "latitude": 41.1163372141466,
      "longitude": 29.098163348987303,
      "dutyStart": "2026-02-19T21:00:00.000Z",
      "dutyEnd": "2026-02-20T20:59:59.000Z"
    },
    {
      "id": "istanbul-17984",
      "name": "ELİZ DORA ECZANESİ",
      "address": "Nispetiye Mahallesi Ahmet Adnan Saygun Caddesi 8",
      "phone": "+902123525545",
      "district": "BEŞİKTAŞ",
      "city": "İstanbul",
      "latitude": 41.076668588509925,
      "longitude": 29.025286777462,
      "dutyStart": "2026-02-19T21:00:00.000Z",
      "dutyEnd": "2026-02-20T20:59:59.000Z"
    },
    {
      "id": "istanbul-7372",
      "name": "EMEL ECZANESİ",
      "address": "Ferhatpaşa Mahallesi, Atatürk Caddesi, 47/2",
      "phone": "+902127892771",
      "district": "ÇATALCA",
      "city": "İstanbul",
      "latitude": 41.14068211009276,
      "longitude": 28.4640694405952,
      "dutyStart": "2026-02-19T21:00:00.000Z",
      "dutyEnd": "2026-02-20T20:59:59.000Z"
    },
    {
      "id": "istanbul-15138",
      "name": "EMRE ECZANESİ",
      "address": "Esenkent Mahallesi, Kanipaşa Caddesi, 147",
      "phone": "+902164274403",
      "district": "MALTEPE",
      "city": "İstanbul",
      "latitude": 40.92648582092606,
      "longitude": 29.167784799459284,
      "dutyStart": "2026-02-19T21:00:00.000Z",
      "dutyEnd": "2026-02-20T20:59:59.000Z"
    },
    {
      "id": "istanbul-28528",
      "name": "EMİNE ECZANESİ",
      "address": "Pınar Mahallesi, Ondokuz Mayıs Bulvarı, 58/1",
      "phone": "+902125961112",
      "district": "ESENYURT",
      "city": "İstanbul",
      "latitude": 41.02945200028612,
      "longitude": 28.66753999959454,
      "dutyStart": "2026-02-19T21:00:00.000Z",
      "dutyEnd": "2026-02-20T20:59:59.000Z"
    },
    {
      "id": "istanbul-17482",
      "name": "EMİR ECZANESİ",
      "address": "Mimar Sinan Mahallesi, Akkon Sokak, 2-A",
      "phone": "+902166423066",
      "district": "ÇEKMEKÖY",
      "city": "İstanbul",
      "latitude": 41.031251149739866,
      "longitude": 29.18176921716622,
      "dutyStart": "2026-02-19T21:00:00.000Z",
      "dutyEnd": "2026-02-20T20:59:59.000Z"
    },
    {
      "id": "istanbul-35098",
      "name": "EMİR ECZANESİ",
      "address": "Barbaros Hayrettin Paşa Mahallesi, 1999. Sokak, No:3/B",
      "phone": "+905396161683",
      "district": "ESENYURT",
      "city": "İstanbul",
      "latitude": 41.01844430980705,
      "longitude": 28.640003524539942,
      "dutyStart": "2026-02-19T21:00:00.000Z",
      "dutyEnd": "2026-02-20T20:59:59.000Z"
    },
    {
      "id": "istanbul-28108",
      "name": "ENES ECZANESİ",
      "address": "Hasanpaşa Mahallesi, Petrol Yolu Caddesi, No:52/A",
      "phone": "+905013207956",
      "district": "SULTANBEYLİ",
      "city": "İstanbul",
      "latitude": 40.9683630004221,
      "longitude": 29.24942400054313,
      "dutyStart": "2026-02-19T21:00:00.000Z",
      "dutyEnd": "2026-02-20T20:59:59.000Z"
    },
    {
      "id": "istanbul-17708",
      "name": "ERDEM ECZANESİ",
      "address": "Siyavuşpaşa Mahallesi, Siyavuşpaşa Caddesi, No:4/B",
      "phone": "+902124413477",
      "district": "BAHÇELİEVLER",
      "city": "İstanbul",
      "latitude": 40.998226999659835,
      "longitude": 28.85668099944017,
      "dutyStart": "2026-02-19T21:00:00.000Z",
      "dutyEnd": "2026-02-20T20:59:59.000Z"
    },
    {
      "id": "istanbul-34476",
      "name": "ERDEM ECZANESİ",
      "address": "Yeşilpınar Mahallesi, Şelale Sokak, 31C",
      "phone": "+902122944243",
      "district": "EYÜPSULTAN",
      "city": "İstanbul",
      "latitude": 41.07616933616764,
      "longitude": 28.925729980195037,
      "dutyStart": "2026-02-19T21:00:00.000Z",
      "dutyEnd": "2026-02-20T20:59:59.000Z"
    },
    {
      "id": "istanbul-19448",
      "name": "ESMA ECZANESİ",
      "address": "Bağcılar Merkez Mahallesi, Dr. Sadık Ahmet Caddesi, 58/A",
      "phone": "+902124330452",
      "district": "BAĞCILAR",
      "city": "İstanbul",
      "latitude": 41.03080999839324,
      "longitude": 28.8696286619665,
      "dutyStart": "2026-02-19T21:00:00.000Z",
      "dutyEnd": "2026-02-20T20:59:59.000Z"
    },
    {
      "id": "istanbul-11838",
      "name": "FATİH ECZANESİ",
      "address": "Piyalepaşa Mahallesi, Fatih Sultan Caddesi, 12",
      "phone": "+902122551943",
      "district": "BEYOĞLU",
      "city": "İstanbul",
      "latitude": 41.04460536733816,
      "longitude": 28.95887955796329,
      "dutyStart": "2026-02-19T21:00:00.000Z",
      "dutyEnd": "2026-02-20T20:59:59.000Z"
    },
    {
      "id": "istanbul-25288",
      "name": "FATİH ECZANESİ",
      "address": "Hadımköy Mahallesi, Şebeke Caddesi, 1",
      "phone": "+902127801570",
      "district": "ARNAVUTKÖY",
      "city": "İstanbul",
      "latitude": 41.18114612408587,
      "longitude": 28.61046910313059,
      "dutyStart": "2026-02-19T21:00:00.000Z",
      "dutyEnd": "2026-02-20T20:59:59.000Z"
    },
    {
      "id": "istanbul-31152",
      "name": "FLORA ECZANESİ",
      "address": "Ataköy 7-8-9-10.  Kısım Mahallesi, Çobançeşme E-5 Yan Yol Caddesi, 12P",
      "phone": "+902128237723",
      "district": "BAKIRKÖY",
      "city": "İstanbul",
      "latitude": 40.991876999648724,
      "longitude": 28.829650000191098,
      "dutyStart": "2026-02-19T21:00:00.000Z",
      "dutyEnd": "2026-02-20T20:59:59.000Z"
    },
    {
      "id": "istanbul-25624",
      "name": "FLORA ECZANESİ",
      "address": "Bahçeşehir 2.  Kısım Mahallesi, Mercedes Bulvarı, 28/81",
      "phone": "+902129995684",
      "district": "BAŞAKŞEHİR",
      "city": "İstanbul",
      "latitude": 41.092749556541904,
      "longitude": 28.646176944990767,
      "dutyStart": "2026-02-19T21:00:00.000Z",
      "dutyEnd": "2026-02-20T20:59:59.000Z"
    },
    {
      "id": "istanbul-14616",
      "name": "FLORYA ECZANESİ",
      "address": "Şenlikköy Mahallesi, Eceler Sokak, 15",
      "phone": "+902125732541",
      "district": "BAKIRKÖY",
      "city": "İstanbul",
      "latitude": 40.969883310885756,
      "longitude": 28.796263767791565,
      "dutyStart": "2026-02-19T21:00:00.000Z",
      "dutyEnd": "2026-02-20T20:59:59.000Z"
    },
    {
      "id": "istanbul-4208",
      "name": "FURKAN ECZANESİ",
      "address": "Kayışdağı Mahallesi, Uslu Caddesi, 127- 1/B",
      "phone": "+902166616949",
      "district": "ATAŞEHİR",
      "city": "İstanbul",
      "latitude": 40.981360996825515,
      "longitude": 29.155384449799516,
      "dutyStart": "2026-02-19T21:00:00.000Z",
      "dutyEnd": "2026-02-20T20:59:59.000Z"
    },
    {
      "id": "istanbul-14464",
      "name": "GÖKÇE ECZANESİ",
      "address": "Bahçelievler Mahallesi, Aydınlı Caddesi, 5/1",
      "phone": "+902163901173",
      "district": "PENDİK",
      "city": "İstanbul",
      "latitude": 40.882506991371,
      "longitude": 29.235432049621675,
      "dutyStart": "2026-02-19T21:00:00.000Z",
      "dutyEnd": "2026-02-20T20:59:59.000Z"
    },
    {
      "id": "istanbul-29340",
      "name": "GÖZDE ECZANESİ ",
      "address": "Yenidoğan Mahallesi, Abdi İpekçi Caddesi, 35/A",
      "phone": "+902125777071",
      "district": "BAYRAMPAŞA",
      "city": "İstanbul",
      "latitude": 41.0362199998498,
      "longitude": 28.911972000418377,
      "dutyStart": "2026-02-19T21:00:00.000Z",
      "dutyEnd": "2026-02-20T20:59:59.000Z"
    },
    {
      "id": "istanbul-27562",
      "name": "GÜL ECZANESİ",
      "address": "Sultançiftliği Mahallesi, Ordu Caddesi, 67/A BAĞIMSIZ BÖLÜM9",
      "phone": "+902126687040",
      "district": "SULTANGAZİ",
      "city": "İstanbul",
      "latitude": 41.097904999811824,
      "longitude": 28.860938999533232,
      "dutyStart": "2026-02-19T21:00:00.000Z",
      "dutyEnd": "2026-02-20T20:59:59.000Z"
    },
    {
      "id": "istanbul-15524",
      "name": "GÜLHANE ECZANESİ",
      "address": "Osmanağa Mahallesi, Söğütlüçeşme Caddesi, No:21-B",
      "phone": "+902163381297",
      "district": "KADIKÖY",
      "city": "İstanbul",
      "latitude": 40.99100706741052,
      "longitude": 29.0269988808367,
      "dutyStart": "2026-02-19T21:00:00.000Z",
      "dutyEnd": "2026-02-20T20:59:59.000Z"
    },
    {
      "id": "istanbul-32332",
      "name": "GÜLRU ECZANESİ",
      "address": "Güngören Merkez Mahallesi, Meydancık Sokak, 8/A",
      "phone": "+902126429881",
      "district": "GÜNGÖREN",
      "city": "İstanbul",
      "latitude": 41.02409099961313,
      "longitude": 28.872751999424825,
      "dutyStart": "2026-02-19T21:00:00.000Z",
      "dutyEnd": "2026-02-20T20:59:59.000Z"
    },
    {
      "id": "istanbul-6788",
      "name": "GÜLSEREN ECZANESİ",
      "address": "Şişli Merkez Mahallesi, Abidei Hürriyet Caddesi, 132/A",
      "phone": "+902122318206",
      "district": "ŞİŞLİ",
      "city": "İstanbul",
      "latitude": 41.062797329203995,
      "longitude": 28.987779898128995,
      "dutyStart": "2026-02-19T21:00:00.000Z",
      "dutyEnd": "2026-02-20T20:59:59.000Z"
    },
    {
      "id": "istanbul-26260",
      "name": "HALE ECZANESİ",
      "address": "Esentepe Mahallesi, Bulut Sokak, 4B",
      "phone": "+902163741413",
      "district": "KARTAL",
      "city": "İstanbul",
      "latitude": 40.901539000144766,
      "longitude": 29.191446999714252,
      "dutyStart": "2026-02-19T21:00:00.000Z",
      "dutyEnd": "2026-02-20T20:59:59.000Z"
    },
    {
      "id": "istanbul-17962",
      "name": "HALK ECZANESİ",
      "address": "Yavuz Selim Mahallesi, Hoca Ahmet Yesevi Caddesi, 42/A",
      "phone": "+902124369165",
      "district": "BAĞCILAR",
      "city": "İstanbul",
      "latitude": 41.0331214081486,
      "longitude": 28.850043924393365,
      "dutyStart": "2026-02-19T21:00:00.000Z",
      "dutyEnd": "2026-02-20T20:59:59.000Z"
    },
    {
      "id": "istanbul-26068",
      "name": "HAMİDİ ECZANESİ",
      "address": "Telsiz Mahallesi, 82/2. Sokak, 6",
      "phone": "+902126648222",
      "district": "ZEYTİNBURNU",
      "city": "İstanbul",
      "latitude": 40.99592714594652,
      "longitude": 28.914614639858467,
      "dutyStart": "2026-02-19T21:00:00.000Z",
      "dutyEnd": "2026-02-20T20:59:59.000Z"
    },
    {
      "id": "istanbul-6296",
      "name": "HEYBELİADA ECZANESİ",
      "address": "Heybeliada Mahallesi, Ayyıldız Caddesi, No:25/D",
      "phone": "+902163518415",
      "district": "ADALAR",
      "city": "İstanbul",
      "latitude": 40.87751817989951,
      "longitude": 29.1001562048735,
      "dutyStart": "2026-02-19T21:00:00.000Z",
      "dutyEnd": "2026-02-20T20:59:59.000Z"
    },
    {
      "id": "istanbul-13450",
      "name": "HUT ECZANESİ",
      "address": "Camiikebir Mahallesi, Dereboyu Caddesi, 18/1A",
      "phone": "+902122537083",
      "district": "BEYOĞLU",
      "city": "İstanbul",
      "latitude": 41.03466900034657,
      "longitude": 28.96841300030281,
      "dutyStart": "2026-02-19T21:00:00.000Z",
      "dutyEnd": "2026-02-20T20:59:59.000Z"
    },
    {
      "id": "istanbul-22484",
      "name": "HUZUR ECZANESİ",
      "address": "Sarıgöl Mahallesi, Reyhan Sokak, 13/B",
      "phone": "+902126146656",
      "district": "GAZİOSMANPAŞA",
      "city": "İstanbul",
      "latitude": 41.05653664090903,
      "longitude": 28.91858001724092,
      "dutyStart": "2026-02-19T21:00:00.000Z",
      "dutyEnd": "2026-02-20T20:59:59.000Z"
    },
    {
      "id": "istanbul-6988",
      "name": "HÜLYA ECZANESİ",
      "address": "Teşvikiye Mahallesi Av. Süreyya Ağaoğlu Sokak 8/C",
      "phone": "+902122338088",
      "district": "ŞİŞLİ",
      "city": "İstanbul",
      "latitude": 41.04990196936032,
      "longitude": 28.99559426038498,
      "dutyStart": "2026-02-19T21:00:00.000Z",
      "dutyEnd": "2026-02-20T20:59:59.000Z"
    },
    {
      "id": "istanbul-20174",
      "name": "HİLAL ECZANESİ ",
      "address": "Meclis Mahallesi, Katip Çelebi Caddesi, 64/A",
      "phone": "+902166215737",
      "district": "SANCAKTEPE",
      "city": "İstanbul",
      "latitude": 41.00965248285767,
      "longitude": 29.202860626188162,
      "dutyStart": "2026-02-19T21:00:00.000Z",
      "dutyEnd": "2026-02-20T20:59:59.000Z"
    },
    {
      "id": "istanbul-9410",
      "name": "IŞIK ECZANESİ",
      "address": "Bahçelievler Mahallesi, Vezir Sokak, 11/B",
      "phone": "+902125077475",
      "district": "BAHÇELİEVLER",
      "city": "İstanbul",
      "latitude": 41.006207461633565,
      "longitude": 28.870851128706047,
      "dutyStart": "2026-02-19T21:00:00.000Z",
      "dutyEnd": "2026-02-20T20:59:59.000Z"
    },
    {
      "id": "istanbul-35186",
      "name": "KARADAĞ ECZANESİ",
      "address": "Avcılar Merkez Mahallesi, Tüloğlu Sokak, No:22/A",
      "phone": "+902125095993",
      "district": "AVCILAR",
      "city": "İstanbul",
      "latitude": 40.98067199995025,
      "longitude": 28.727584000520455,
      "dutyStart": "2026-02-19T21:00:00.000Z",
      "dutyEnd": "2026-02-20T20:59:59.000Z"
    },
    {
      "id": "istanbul-29280",
      "name": "KAYA ECZANESİ",
      "address": "Cebeci Mahallesi, 1. Cebeci Caddesi, 100/B",
      "phone": "+902124767570",
      "district": "SULTANGAZİ",
      "city": "İstanbul",
      "latitude": 41.11002700015233,
      "longitude": 28.87084699948757,
      "dutyStart": "2026-02-19T21:00:00.000Z",
      "dutyEnd": "2026-02-20T20:59:59.000Z"
    },
    {
      "id": "istanbul-24892",
      "name": "KAİNAT ECZANESİ",
      "address": "Ziya Gökalp Mahallesi, Başkent Sokak, 9I",
      "phone": "+902127777575",
      "district": "BAŞAKŞEHİR",
      "city": "İstanbul",
      "latitude": 41.07759699982597,
      "longitude": 28.781150000226024,
      "dutyStart": "2026-02-19T21:00:00.000Z",
      "dutyEnd": "2026-02-20T20:59:59.000Z"
    },
    {
      "id": "istanbul-32286",
      "name": "KINALI ECZANESİ(V)",
      "address": "Kınalıada Mahallesi, Çarşı Caddesi, 20/A",
      "phone": "+902163814098",
      "district": "ADALAR",
      "city": "İstanbul",
      "latitude": 40.90800100012437,
      "longitude": 29.055135999790647,
      "dutyStart": "2026-02-19T21:00:00.000Z",
      "dutyEnd": "2026-02-20T20:59:59.000Z"
    },
    {
      "id": "istanbul-24374",
      "name": "KURŞUNLU ECZANESİ",
      "address": "Adem Yavuz Mahallesi, Esenlik Sokak, 12A",
      "phone": "+902166110018",
      "district": "ÜMRANİYE",
      "city": "İstanbul",
      "latitude": 41.022176698355864,
      "longitude": 29.158551692860588,
      "dutyStart": "2026-02-19T21:00:00.000Z",
      "dutyEnd": "2026-02-20T20:59:59.000Z"
    },
    {
      "id": "istanbul-24922",
      "name": "KUTAY ECZANESİ",
      "address": "Maden Mahallesi, Nalbant Çeşme Caddesi, 26/C",
      "phone": "+902122425677",
      "district": "SARIYER",
      "city": "İstanbul",
      "latitude": 41.1738168951491,
      "longitude": 29.04984138936638,
      "dutyStart": "2026-02-19T21:00:00.000Z",
      "dutyEnd": "2026-02-20T20:59:59.000Z"
    },
    {
      "id": "istanbul-34050",
      "name": "LALE ECZANESİ",
      "address": "Halkalı Merkez Mahallesi, Mahmutbey Caddesi, NO:14/C",
      "phone": "+902125484209",
      "district": "KÜÇÜKÇEKMECE",
      "city": "İstanbul",
      "latitude": 41.03555668843917,
      "longitude": 28.79230498929849,
      "dutyStart": "2026-02-19T21:00:00.000Z",
      "dutyEnd": "2026-02-20T20:59:59.000Z"
    },
    {
      "id": "istanbul-20724",
      "name": "LİMON ECZANESİ",
      "address": "İstiklal Mahallesi, Mithatpaşa Caddesi, 13",
      "phone": "+902164120909",
      "district": "ÜMRANİYE",
      "city": "İstanbul",
      "latitude": 41.024602959559296,
      "longitude": 29.099586009748858,
      "dutyStart": "2026-02-19T21:00:00.000Z",
      "dutyEnd": "2026-02-20T20:59:59.000Z"
    },
    {
      "id": "istanbul-28378",
      "name": "MASAL ECZANESİ",
      "address": "İçmeler Mahallesi, İncesu Sokak, 16/A",
      "phone": "+902164942210",
      "district": "TUZLA",
      "city": "İstanbul",
      "latitude": 40.848599000209,
      "longitude": 29.30162500029306,
      "dutyStart": "2026-02-19T21:00:00.000Z",
      "dutyEnd": "2026-02-20T20:59:59.000Z"
    },
    {
      "id": "istanbul-18892",
      "name": "MELEK ECZANESİ",
      "address": "Yakuplu Mahallesi, Yakuplu Caddesi, 31/4",
      "phone": "+902128532892",
      "district": "BEYLİKDÜZÜ",
      "city": "İstanbul",
      "latitude": 41.0004855117038,
      "longitude": 28.669904690258818,
      "dutyStart": "2026-02-19T21:00:00.000Z",
      "dutyEnd": "2026-02-20T20:59:59.000Z"
    },
    {
      "id": "istanbul-23728",
      "name": "MELİS ALTINKAYA ECZANESİ",
      "address": "Fenerbahçe Mahallesi, Fuat Paşa Caddesi, 20/A",
      "phone": "+902163572030",
      "district": "KADIKÖY",
      "city": "İstanbul",
      "latitude": 40.97276921857262,
      "longitude": 29.04518204048762,
      "dutyStart": "2026-02-19T21:00:00.000Z",
      "dutyEnd": "2026-02-20T20:59:59.000Z"
    },
    {
      "id": "istanbul-19530",
      "name": "MERKEZ ECZANESİ",
      "address": "Orhantepe Mahallesi, Çınar Caddesi, 7/B",
      "phone": "+902164415348",
      "district": "KARTAL",
      "city": "İstanbul",
      "latitude": 40.90806741563971,
      "longitude": 29.16039441184444,
      "dutyStart": "2026-02-19T21:00:00.000Z",
      "dutyEnd": "2026-02-20T20:59:59.000Z"
    },
    {
      "id": "istanbul-32394",
      "name": "MERVE ECZANESİ",
      "address": "Bereketzade Mahallesi, Bankalar Caddesi, No:8/B",
      "phone": "+902126500840",
      "district": "BEYOĞLU",
      "city": "İstanbul",
      "latitude": 41.02377593265792,
      "longitude": 28.974343997865766,
      "dutyStart": "2026-02-19T21:00:00.000Z",
      "dutyEnd": "2026-02-20T20:59:59.000Z"
    },
    {
      "id": "istanbul-24942",
      "name": "METRO ECZANESİ",
      "address": "Evliya Çelebi Mahallesi, Hatboyu Caddesi, 8/A",
      "phone": "+902164473373",
      "district": "TUZLA",
      "city": "İstanbul",
      "latitude": 40.84392620549076,
      "longitude": 29.299433045805987,
      "dutyStart": "2026-02-19T21:00:00.000Z",
      "dutyEnd": "2026-02-20T20:59:59.000Z"
    },
    {
      "id": "istanbul-32766",
      "name": "MODA ECZANESİ",
      "address": "Başakşehir Mahallesi, Gazi Mustafa Kemal Bulvarı, 3. İstanbul Moda Evleri B1 Blok No:7/AD",
      "phone": "+902128130056",
      "district": "BAŞAKŞEHİR",
      "city": "İstanbul",
      "latitude": 41.12468000041226,
      "longitude": 28.786486000084317,
      "dutyStart": "2026-02-19T21:00:00.000Z",
      "dutyEnd": "2026-02-20T20:59:59.000Z"
    },
    {
      "id": "istanbul-23526",
      "name": "MUTLULUK ECZANESİ",
      "address": "Topselvi Mahallesi, Topselvi Caddesi, 95K",
      "phone": "+905451985907",
      "district": "KARTAL",
      "city": "İstanbul",
      "latitude": 40.89986300012162,
      "longitude": 29.217695999770427,
      "dutyStart": "2026-02-19T21:00:00.000Z",
      "dutyEnd": "2026-02-20T20:59:59.000Z"
    },
    {
      "id": "istanbul-19308",
      "name": "NAR ECZANESİ",
      "address": "Abdurrahmangazi Mahallesi, Ebubekir Caddesi, 38C",
      "phone": "+902165619907",
      "district": "SANCAKTEPE",
      "city": "İstanbul",
      "latitude": 40.99387458443745,
      "longitude": 29.231767025343725,
      "dutyStart": "2026-02-19T21:00:00.000Z",
      "dutyEnd": "2026-02-20T20:59:59.000Z"
    },
    {
      "id": "istanbul-24986",
      "name": "NUREDDİN ECZANESİ",
      "address": "Davutpaşa Mahallesi, Melikşah Caddesi, 3B",
      "phone": "+902125692003",
      "district": "ESENLER",
      "city": "İstanbul",
      "latitude": 41.033688440706854,
      "longitude": 28.886649583131423,
      "dutyStart": "2026-02-19T21:00:00.000Z",
      "dutyEnd": "2026-02-20T20:59:59.000Z"
    },
    {
      "id": "istanbul-22860",
      "name": "NİHAN ERGÜL ECZANESİ",
      "address": "Güvercintepe Mahallesi, Fatih Caddesi, 221/A",
      "phone": "+902126870414",
      "district": "BAŞAKŞEHİR",
      "city": "İstanbul",
      "latitude": 41.08675900026625,
      "longitude": 28.751119999495184,
      "dutyStart": "2026-02-19T21:00:00.000Z",
      "dutyEnd": "2026-02-20T20:59:59.000Z"
    },
    {
      "id": "istanbul-37468",
      "name": "OFİS BULVAR ECZANESİ",
      "address": "Ayazağa Mahallesi, Mimar Sinan Sokak, No:21C C Blok İç Kapı No:1",
      "phone": "+902123225343",
      "district": "SARIYER",
      "city": "İstanbul",
      "latitude": 41.10946300019309,
      "longitude": 28.99383499990851,
      "dutyStart": "2026-02-19T21:00:00.000Z",
      "dutyEnd": "2026-02-20T20:59:59.000Z"
    },
    {
      "id": "istanbul-17054",
      "name": "ORTAKÖY ECZANESİ",
      "address": "Ortaköy Mahallesi, Dereboyu Caddesi, 20/A",
      "phone": "+902122616136",
      "district": "BEŞİKTAŞ",
      "city": "İstanbul",
      "latitude": 41.049754000331504,
      "longitude": 29.025904999469862,
      "dutyStart": "2026-02-19T21:00:00.000Z",
      "dutyEnd": "2026-02-20T20:59:59.000Z"
    },
    {
      "id": "istanbul-38160",
      "name": "PETNA ECZANESİ",
      "address": "Göktürk Merkez Mahallesi, Çeşmebaşı Caddesi, No:10/A",
      "phone": "+902123601823",
      "district": "EYÜPSULTAN",
      "city": "İstanbul",
      "latitude": 41.18374300012225,
      "longitude": 28.886989999517436,
      "dutyStart": "2026-02-19T21:00:00.000Z",
      "dutyEnd": "2026-02-20T20:59:59.000Z"
    },
    {
      "id": "istanbul-24758",
      "name": "PINAR ECZANESİ",
      "address": "Kağıthane Merkez Mahallesi, Sadabat Caddesi, 11/B",
      "phone": "+902122957222",
      "district": "KAĞITHANE",
      "city": "İstanbul",
      "latitude": 41.08114289716196,
      "longitude": 28.972576423251088,
      "dutyStart": "2026-02-19T21:00:00.000Z",
      "dutyEnd": "2026-02-20T20:59:59.000Z"
    },
    {
      "id": "istanbul-23902",
      "name": "SAFA ECZANESİ",
      "address": "Mimar Sinan Mahallesi, Gün Sokak, 14A",
      "phone": "+902127290284",
      "district": "SİLİVRİ",
      "city": "İstanbul",
      "latitude": 41.087958564085355,
      "longitude": 28.243004948622996,
      "dutyStart": "2026-02-19T21:00:00.000Z",
      "dutyEnd": "2026-02-20T20:59:59.000Z"
    },
    {
      "id": "istanbul-10278",
      "name": "SELİN ECZANESİ",
      "address": "Ulus Mahallesi, Atatürk Caddesi, 26/B",
      "phone": "+902128611303",
      "district": "BÜYÜKÇEKMECE",
      "city": "İstanbul",
      "latitude": 41.03028421018501,
      "longitude": 28.55184628405768,
      "dutyStart": "2026-02-19T21:00:00.000Z",
      "dutyEnd": "2026-02-20T20:59:59.000Z"
    },
    {
      "id": "istanbul-27966",
      "name": "SENA ECZANESİ",
      "address": "Feriköy Mahallesi, Kurtuluş Caddesi, 94/A",
      "phone": "+902122249435",
      "district": "ŞİŞLİ",
      "city": "İstanbul",
      "latitude": 41.04995200013756,
      "longitude": 28.98205900011274,
      "dutyStart": "2026-02-19T21:00:00.000Z",
      "dutyEnd": "2026-02-20T20:59:59.000Z"
    },
    {
      "id": "istanbul-16214",
      "name": "SEVAL ECZANESİ",
      "address": "Sahrayıcedit Mahallesi, İmam Ramiz Sokak, 14/C",
      "phone": "+902164672776",
      "district": "KADIKÖY",
      "city": "İstanbul",
      "latitude": 40.98593365429564,
      "longitude": 29.07633121742223,
      "dutyStart": "2026-02-19T21:00:00.000Z",
      "dutyEnd": "2026-02-20T20:59:59.000Z"
    },
    {
      "id": "istanbul-34736",
      "name": "SUADİYE MEST ECZANESİ",
      "address": "Suadiye Mahallesi, Emin Ali Paşa Caddesi, No:61C",
      "phone": "+902167666408",
      "district": "KADIKÖY",
      "city": "İstanbul",
      "latitude": 40.960212760856926,
      "longitude": 29.091440581908678,
      "dutyStart": "2026-02-19T21:00:00.000Z",
      "dutyEnd": "2026-02-20T20:59:59.000Z"
    },
    {
      "id": "istanbul-14986",
      "name": "TAN ECZANESİ",
      "address": "Yüzyıl Mahallesi, Mustafa Kemal Caddesi, 13A",
      "phone": "+902126732362",
      "district": "BAĞCILAR",
      "city": "İstanbul",
      "latitude": 41.068007205316675,
      "longitude": 28.85477097135587,
      "dutyStart": "2026-02-19T21:00:00.000Z",
      "dutyEnd": "2026-02-20T20:59:59.000Z"
    },
    {
      "id": "istanbul-23540",
      "name": "TARÇIN ECZANESİ",
      "address": "Molla Gürani Mahallesi, Karakoyunlu Sokak, 22/A",
      "phone": "+902125300046",
      "district": "FATİH",
      "city": "İstanbul",
      "latitude": 41.01420752929338,
      "longitude": 28.93827073851819,
      "dutyStart": "2026-02-19T21:00:00.000Z",
      "dutyEnd": "2026-02-20T20:59:59.000Z"
    },
    {
      "id": "istanbul-31896",
      "name": "TARÇIN ECZANESİ",
      "address": "Abdurrahmangazi Mahallesi, Balarısı Sokak, 13C",
      "phone": "+902164196628",
      "district": "SULTANBEYLİ",
      "city": "İstanbul",
      "latitude": 40.969764999798485,
      "longitude": 29.257238999635607,
      "dutyStart": "2026-02-19T21:00:00.000Z",
      "dutyEnd": "2026-02-20T20:59:59.000Z"
    },
    {
      "id": "istanbul-27384",
      "name": "TOPRAK ECZANESİ",
      "address": "Merdivenköy Mahallesi, Dikyol Sokak, 2A",
      "phone": "+905418999799",
      "district": "KADIKÖY",
      "city": "İstanbul",
      "latitude": 40.9930338040901,
      "longitude": 29.0681729818133,
      "dutyStart": "2026-02-19T21:00:00.000Z",
      "dutyEnd": "2026-02-20T20:59:59.000Z"
    },
    {
      "id": "istanbul-14752",
      "name": "TUĞBA ECZANESİ",
      "address": "Selimpaşa Merkez Mahallesi 202. Caddesi 23",
      "phone": "+902127316938",
      "district": "SİLİVRİ",
      "city": "İstanbul",
      "latitude": 41.054633822369,
      "longitude": 28.378304336625042,
      "dutyStart": "2026-02-19T21:00:00.000Z",
      "dutyEnd": "2026-02-20T20:59:59.000Z"
    },
    {
      "id": "istanbul-34320",
      "name": "TÜLİN ECZANESİ",
      "address": "Erenköy Mahallesi, Ethemefendi Caddesi, 59 B/C",
      "phone": "+905302782959",
      "district": "KADIKÖY",
      "city": "İstanbul",
      "latitude": 40.972632000202516,
      "longitude": 29.073901999712046,
      "dutyStart": "2026-02-19T21:00:00.000Z",
      "dutyEnd": "2026-02-20T20:59:59.000Z"
    },
    {
      "id": "istanbul-22078",
      "name": "UMUT ECZANESİ",
      "address": "Kavacık Mahallesi Fatih Sultan Mehmet Caddesi 28/2",
      "phone": "+902166800046",
      "district": "BEYKOZ",
      "city": "İstanbul",
      "latitude": 41.09349973775723,
      "longitude": 29.090433918662633,
      "dutyStart": "2026-02-19T21:00:00.000Z",
      "dutyEnd": "2026-02-20T20:59:59.000Z"
    },
    {
      "id": "istanbul-32660",
      "name": "VİLDAN ÜNAL ECZANESİ",
      "address": "Tozkoparan Mahallesi, Cevat Açıkalın Caddesi, 12/A",
      "phone": "+905015763401",
      "district": "GÜNGÖREN",
      "city": "İstanbul",
      "latitude": 41.01543000019352,
      "longitude": 28.896566000411443,
      "dutyStart": "2026-02-19T21:00:00.000Z",
      "dutyEnd": "2026-02-20T20:59:59.000Z"
    },
    {
      "id": "istanbul-16144",
      "name": "YAVUZ ECZANESİ",
      "address": "Bulgurlu Mahallesi, Alemdağ Caddesi, 102-A",
      "phone": "+902164612614",
      "district": "ÜSKÜDAR",
      "city": "İstanbul",
      "latitude": 41.02371708946052,
      "longitude": 29.08220716277702,
      "dutyStart": "2026-02-19T21:00:00.000Z",
      "dutyEnd": "2026-02-20T20:59:59.000Z"
    },
    {
      "id": "istanbul-17002",
      "name": "YAŞAM ECZANESİ",
      "address": "Fevzi Çakmak Mahallesi, Taş Ocakları Sokak, 2B",
      "phone": "+902165971882",
      "district": "PENDİK",
      "city": "İstanbul",
      "latitude": 40.87881826026473,
      "longitude": 29.261771540937396,
      "dutyStart": "2026-02-19T21:00:00.000Z",
      "dutyEnd": "2026-02-20T20:59:59.000Z"
    },
    {
      "id": "istanbul-9914",
      "name": "YENİ HAYAT ECZANESİ",
      "address": "Yeşilköy Mahallesi, Doğruyol Sokak, 7/A",
      "phone": "+902126631197",
      "district": "BAKIRKÖY",
      "city": "İstanbul",
      "latitude": 40.95982416606358,
      "longitude": 28.821406807799946,
      "dutyStart": "2026-02-19T21:00:00.000Z",
      "dutyEnd": "2026-02-20T20:59:59.000Z"
    },
    {
      "id": "istanbul-22780",
      "name": "YEŞİLÇAY ECZANESİ",
      "address": "Ağva Merkez Mahallesi, Yakuplu Caddesi, 9/C",
      "phone": "+902167218900",
      "district": "ŞİLE",
      "city": "İstanbul",
      "latitude": 41.138169014808206,
      "longitude": 29.85531572932006,
      "dutyStart": "2026-02-19T21:00:00.000Z",
      "dutyEnd": "2026-02-20T20:59:59.000Z"
    },
    {
      "id": "istanbul-11530",
      "name": "YILDIZ ECZANESİ",
      "address": "Söğütlüçeşme Mahallesi, Vişne Sokak, 2",
      "phone": "+902126977947",
      "district": "KÜÇÜKÇEKMECE",
      "city": "İstanbul",
      "latitude": 41.02079117974662,
      "longitude": 28.787071628146965,
      "dutyStart": "2026-02-19T21:00:00.000Z",
      "dutyEnd": "2026-02-20T20:59:59.000Z"
    },
    {
      "id": "istanbul-30926",
      "name": "ZEYNEP ECZANESİ",
      "address": "Pınartepe Mahallesi, Yavuz Sultan Selim Bulvarı, A3 Blok No:28M",
      "phone": "+902128562313",
      "district": "BÜYÜKÇEKMECE",
      "city": "İstanbul",
      "latitude": 41.012950223519155,
      "longitude": 28.62557844482567,
      "dutyStart": "2026-02-19T21:00:00.000Z",
      "dutyEnd": "2026-02-20T20:59:59.000Z"
    },
    {
      "id": "istanbul-30932",
      "name": "ÇAĞATAY ECZANESİ",
      "address": "Kartaltepe Mahallesi, İncirli Caddesi, 92/3A",
      "phone": "+902124663810",
      "district": "BAKIRKÖY",
      "city": "İstanbul",
      "latitude": 40.99408199991893,
      "longitude": 28.870163999442013,
      "dutyStart": "2026-02-19T21:00:00.000Z",
      "dutyEnd": "2026-02-20T20:59:59.000Z"
    },
    {
      "id": "istanbul-27834",
      "name": "ÇEMBERLİTAŞ ECZANESİ",
      "address": "Binbirdirek Mahallesi, Peykane Caddesi, 25/A",
      "phone": "+902125909009",
      "district": "FATİH",
      "city": "İstanbul",
      "latitude": 41.00734046115505,
      "longitude": 28.972032194360395,
      "dutyStart": "2026-02-19T21:00:00.000Z",
      "dutyEnd": "2026-02-20T20:59:59.000Z"
    },
    {
      "id": "istanbul-32760",
      "name": "ÇINAR ECZANESİ",
      "address": "Yeni Mahallesi, Paşaçayırı Caddesi, 78/80",
      "phone": "+902124778384",
      "district": "GAZİOSMANPAŞA",
      "city": "İstanbul",
      "latitude": 41.06988800002141,
      "longitude": 28.897752000196242,
      "dutyStart": "2026-02-19T21:00:00.000Z",
      "dutyEnd": "2026-02-20T20:59:59.000Z"
    },
    {
      "id": "istanbul-25178",
      "name": "ÖZAYDIN ECZANESİ",
      "address": "Cerrahpaşa Mahallesi, Koca Mustafapaşa Caddesi, 72",
      "phone": "+902125873191",
      "district": "FATİH",
      "city": "İstanbul",
      "latitude": 41.00640129463833,
      "longitude": 28.93957346659845,
      "dutyStart": "2026-02-19T21:00:00.000Z",
      "dutyEnd": "2026-02-20T20:59:59.000Z"
    },
    {
      "id": "istanbul-22654",
      "name": "ÖZLEM ECZANESİ",
      "address": "Çakmak Mahallesi, Varan Caddesi, 1",
      "phone": "+902165946373",
      "district": "ÜMRANİYE",
      "city": "İstanbul",
      "latitude": 41.016082685126555,
      "longitude": 29.127337066541326,
      "dutyStart": "2026-02-19T21:00:00.000Z",
      "dutyEnd": "2026-02-20T20:59:59.000Z"
    },
    {
      "id": "istanbul-18110",
      "name": "ÖZSAHRA ECZANESİ",
      "address": "Sultan Selim Mahallesi, Şahinler Caddesi, 6C",
      "phone": "+902122816882",
      "district": "KAĞITHANE",
      "city": "İstanbul",
      "latitude": 41.09227944606938,
      "longitude": 29.001655545983418,
      "dutyStart": "2026-02-19T21:00:00.000Z",
      "dutyEnd": "2026-02-20T20:59:59.000Z"
    },
    {
      "id": "istanbul-20160",
      "name": "ÜMRANİYE SAĞLIK ECZANESİ",
      "address": "İnkılap Mahallesi, Haşim İşcan Sokak, 10/A",
      "phone": "+902166301080",
      "district": "ÜMRANİYE",
      "city": "İstanbul",
      "latitude": 41.03436375900492,
      "longitude": 29.109893738639034,
      "dutyStart": "2026-02-19T21:00:00.000Z",
      "dutyEnd": "2026-02-20T20:59:59.000Z"
    },
    {
      "id": "istanbul-32876",
      "name": "ÜSKÜDAR ÇARŞI ECZANESİ",
      "address": "Mimar Sinan Mahallesi, Otopark Arkası Sokak, 16/B",
      "phone": "+902163105923",
      "district": "ÜSKÜDAR",
      "city": "İstanbul",
      "latitude": 41.02308429041554,
      "longitude": 29.01726248121101,
      "dutyStart": "2026-02-19T21:00:00.000Z",
      "dutyEnd": "2026-02-20T20:59:59.000Z"
    },
    {
      "id": "istanbul-24132",
      "name": "İNCİR ECZANESİ",
      "address": "Kirazlıtepe Mahallesi, Mehmet Akif Ersoy Caddesi, 124",
      "phone": "+902165575641",
      "district": "ÜSKÜDAR",
      "city": "İstanbul",
      "latitude": 41.03595500029686,
      "longitude": 29.064111000503146,
      "dutyStart": "2026-02-19T21:00:00.000Z",
      "dutyEnd": "2026-02-20T20:59:59.000Z"
    },
    {
      "id": "istanbul-20268",
      "name": "İPEK ECZANESİ",
      "address": "Kumbaba Mahallesi, Yazgülü Sokak, 38/2",
      "phone": "+902167103040",
      "district": "ŞİLE",
      "city": "İstanbul",
      "latitude": 41.16287560839821,
      "longitude": 29.572125926200027,
      "dutyStart": "2026-02-19T21:00:00.000Z",
      "dutyEnd": "2026-02-20T20:59:59.000Z"
    },
    {
      "id": "istanbul-21994",
      "name": "İSTANBUL ECZANESİ",
      "address": "Soğanlık Yeni Mahallesi Atatürk Caddesi 3",
      "phone": "+902163705457",
      "district": "KARTAL",
      "city": "İstanbul",
      "latitude": 40.91451881506011,
      "longitude": 29.194387262270062,
      "dutyStart": "2026-02-19T21:00:00.000Z",
      "dutyEnd": "2026-02-20T20:59:59.000Z"
    },
    {
      "id": "istanbul-22566",
      "name": "İSTANBUL ECZANESİ",
      "address": "Cumhuriyet Mahallesi, Kayın Sokak, 9A",
      "phone": "+902126780408",
      "district": "KÜÇÜKÇEKMECE",
      "city": "İstanbul",
      "latitude": 41.00181999992825,
      "longitude": 28.778652999643704,
      "dutyStart": "2026-02-19T21:00:00.000Z",
      "dutyEnd": "2026-02-20T20:59:59.000Z"
    },
    {
      "id": "istanbul-7682",
      "name": "İSTANBUL ECZANESİ",
      "address": "Muratreis Mahallesi, Nuhkuyusu Caddesi, 293/A",
      "phone": "+902163344642",
      "district": "ÜSKÜDAR",
      "city": "İstanbul",
      "latitude": 41.02313099515575,
      "longitude": 29.036228539897454,
      "dutyStart": "2026-02-19T21:00:00.000Z",
      "dutyEnd": "2026-02-20T20:59:59.000Z"
    },
    {
      "id": "istanbul-29154",
      "name": "ŞEKER ECZANESİ",
      "address": "Topçular Mahallesi, Muhtar Celil Kulaksız Sokak, No:85/A",
      "phone": "+902125777837",
      "district": "EYÜPSULTAN",
      "city": "İstanbul",
      "latitude": 41.04252505629653,
      "longitude": 28.925300147857705,
      "dutyStart": "2026-02-19T21:00:00.000Z",
      "dutyEnd": "2026-02-20T20:59:59.000Z"
    },
    {
      "id": "istanbul-12168",
      "name": "ŞÜKRAN ECZANESİ",
      "address": "Mecidiyeköy Mahallesi, Zertop Sokak, 6/A",
      "phone": "+902122138272",
      "district": "ŞİŞLİ",
      "city": "İstanbul",
      "latitude": 41.06892042443219,
      "longitude": 28.99482342261875,
      "dutyStart": "2026-02-19T21:00:00.000Z",
      "dutyEnd": "2026-02-20T20:59:59.000Z"
    },
    {
      "id": "istanbul-9200",
      "name": "ŞİFA ECZANESİ",
      "address": "Şifa Mahallesi Egemenlik Caddesi 40/A",
      "phone": "+902164230053",
      "district": "TUZLA",
      "city": "İstanbul",
      "latitude": 40.82875898590278,
      "longitude": 29.355065609445898,
      "dutyStart": "2026-02-19T21:00:00.000Z",
      "dutyEnd": "2026-02-20T20:59:59.000Z"
    },
    {
      "id": "istanbul-11636",
      "name": "ŞİFA ECZANESİ",
      "address": "Atikali Mahallesi, Müstakimzade Sokak, 40",
      "phone": "+902126316470",
      "district": "FATİH",
      "city": "İstanbul",
      "latitude": 41.02385939220075,
      "longitude": 28.94669052502092,
      "dutyStart": "2026-02-19T21:00:00.000Z",
      "dutyEnd": "2026-02-20T20:59:59.000Z"
    },
    {
      "id": "istanbul-36430",
      "name": "ŞİRİN ECZANESİ",
      "address": "Kavaklı Mahallesi, Havadar Sokak, No:44 İç Kapı No:5-6",
      "phone": "",
      "district": "BEYLİKDÜZÜ",
      "city": "İstanbul",
      "latitude": 40.97675957924379,
      "longitude": 28.6549200386404,
      "dutyStart": "2026-02-19T21:00:00.000Z",
      "dutyEnd": "2026-02-20T20:59:59.000Z"
    }
  ]
}