{
  "city": "kocaeli",
  "cityName": "Kocaeli",
  "cityId": 41,
  "date": "2026-02-20",
  "updatedAt": "2026-02-20T19:00:32.670Z",
  "count": 23,
  "pharmacies": [
    {
      "id": "kocaeli-0",
      "name": "BAHAR ECZANESİ",
      "address": "KARABAŞ MAH. LEYLA ATAKAN CAD.İBRAHİM DEDE APT. NO:31/C İZMİT",
      "phone": "05523576741",
      "district": "İzmit",
      "city": "Kocaeli",
      "latitude": 40.764918,
      "longitude": 29.934269,
      "dutyStart": "2026-02-20T08:30:00.000Z",
      "dutyEnd": "2026-02-21T08:30:00.000Z"
    },
    {
      "id": "kocaeli-1",
      "name": "YAHYA KAPTAN ECZANESİ",
      "address": "YAHYA KAPTAN MAH.AKKAVAKLAR CAD.NO:9/U İZMİT",
      "phone": "05055759139",
      "district": "İzmit",
      "city": "Kocaeli",
      "latitude": 40.763487,
      "longitude": 29.971768,
      "dutyStart": "2026-02-20T08:30:00.000Z",
      "dutyEnd": "2026-02-21T08:30:00.000Z"
    },
    {
      "id": "kocaeli-2",
      "name": "DERMAN ECZANESİ",
      "address": "YENIDOGAN MAH. HASTANE YOLU SOK NO:11/C İZMİT/KOCAELİ",
      "phone": "02623211720",
      "district": "İzmit",
      "city": "Kocaeli",
      "latitude": 40.76442,
      "longitude": 29.899253,
      "dutyStart": "2026-02-20T08:30:00.000Z",
      "dutyEnd": "2026-02-21T08:30:00.000Z"
    },
    {
      "id": "kocaeli-3",
      "name": "UMUTTEPE ECZANESİ",
      "address": "KABAOĞLU MAH. PROF. BAKİ KOMSUOĞLU BULVARI NO:495/E İZMİT",
      "phone": "02625036897",
      "district": "İzmit",
      "city": "Kocaeli",
      "latitude": 40.822799,
      "longitude": 29.927958,
      "dutyStart": "2026-02-20T08:30:00.000Z",
      "dutyEnd": "2026-02-21T08:30:00.000Z"
    },
    {
      "id": "kocaeli-4",
      "name": "YENİKÖY ECZANESİ",
      "address": "ATAKENT MAH. BAYSAL SOK. NO:2/A BAŞİSKELE",
      "phone": "05528250541",
      "district": "İzmit",
      "city": "Kocaeli",
      "latitude": 40.701347,
      "longitude": 29.889751,
      "dutyStart": "2026-02-20T08:30:00.000Z",
      "dutyEnd": "2026-02-21T08:30:00.000Z"
    },
    {
      "id": "kocaeli-5",
      "name": "GÜL ECZANESİ",
      "address": "ÇAYIROVA MAH.5213 SOK.NO:59/A ÇAYIROVA",
      "phone": "02627420602",
      "district": "Başiskele",
      "city": "Kocaeli",
      "latitude": 40.820415,
      "longitude": 29.37232,
      "dutyStart": "2026-02-20T08:30:00.000Z",
      "dutyEnd": "2026-02-21T08:30:00.000Z"
    },
    {
      "id": "kocaeli-6",
      "name": "AKKUZU ECZANESİ",
      "address": "İNÖNÜ MAH.145. SOK. NO:14/A ÇAYIROVA",
      "phone": "02627444142",
      "district": "Çayırova",
      "city": "Kocaeli",
      "latitude": 40.823558,
      "longitude": 29.392928,
      "dutyStart": "2026-02-20T08:30:00.000Z",
      "dutyEnd": "2026-02-21T08:30:00.000Z"
    },
    {
      "id": "kocaeli-7",
      "name": "DURU ECZANESİ",
      "address": "NENEHATUN MAH.ERTUĞRULGAZİ CAD.NO:80/A",
      "phone": "02627454721",
      "district": "Çayırova",
      "city": "Kocaeli",
      "latitude": 40.780913,
      "longitude": 29.382252,
      "dutyStart": "2026-02-20T08:30:00.000Z",
      "dutyEnd": "2026-02-21T08:30:00.000Z"
    },
    {
      "id": "kocaeli-8",
      "name": "OYA ECZANESİ",
      "address": "FEVZI ÇAKMAK MAH. DR.ZEKI ACAR CAD. NO:57/B DARICA",
      "phone": "02626565252",
      "district": "Darıca",
      "city": "Kocaeli",
      "latitude": 40.771678,
      "longitude": 29.40482,
      "dutyStart": "2026-02-20T08:30:00.000Z",
      "dutyEnd": "2026-02-21T08:30:00.000Z"
    },
    {
      "id": "kocaeli-9",
      "name": "ASLI DERMAN ECZANESİ",
      "address": "BAGDAT CAD. ORHANGAZI MAH. NO: 106/B",
      "phone": "02627546622",
      "district": "Dilovası",
      "city": "Kocaeli",
      "latitude": 40.785164,
      "longitude": 29.542836,
      "dutyStart": "2026-02-20T08:30:00.000Z",
      "dutyEnd": "2026-02-21T08:30:00.000Z"
    },
    {
      "id": "kocaeli-10",
      "name": "ESRA ECZANESİ",
      "address": "ATAEVLER MAH.ŞEN SOK.NO:64C-64D KARTEPE",
      "phone": "05403293772",
      "district": "Kartepe",
      "city": "Kocaeli",
      "latitude": 40.744145,
      "longitude": 30.038694,
      "dutyStart": "2026-02-20T08:30:00.000Z",
      "dutyEnd": "2026-02-21T08:30:00.000Z"
    },
    {
      "id": "kocaeli-11",
      "name": "BİLGE ECZANESİ",
      "address": "SULTAN ORHAN MAH. 1110/1 SOK. NO: 2/A GEBZE",
      "phone": "02626424444",
      "district": "Gebze",
      "city": "Kocaeli",
      "latitude": 40.802034,
      "longitude": 29.439723,
      "dutyStart": "2026-02-20T08:30:00.000Z",
      "dutyEnd": "2026-02-21T08:30:00.000Z"
    },
    {
      "id": "kocaeli-12",
      "name": "FIRAT ECZANESİ",
      "address": "YENİKENT MAH. 2424 SOK. NO:27/A GEBZE",
      "phone": "02626432255",
      "district": "Gebze",
      "city": "Kocaeli",
      "latitude": 40.82096,
      "longitude": 29.417444,
      "dutyStart": "2026-02-20T08:30:00.000Z",
      "dutyEnd": "2026-02-21T08:30:00.000Z"
    },
    {
      "id": "kocaeli-13",
      "name": "NAZLI ECZANESİ",
      "address": "KÖSKLÜÇESME MAH. BAGDAT CAD. NO:459/A GEBZE",
      "phone": "02626434114",
      "district": "Gebze",
      "city": "Kocaeli",
      "latitude": 40.795517,
      "longitude": 29.420917,
      "dutyStart": "2026-02-20T08:30:00.000Z",
      "dutyEnd": "2026-02-21T08:30:00.000Z"
    },
    {
      "id": "kocaeli-14",
      "name": "ÖZBAY ECZANESİ",
      "address": "SEHITLER MAH. KOCATEPE CAD. NO: 82/A",
      "phone": "02624124382",
      "district": "Gölcük",
      "city": "Kocaeli",
      "latitude": 40.714194,
      "longitude": 29.831479,
      "dutyStart": "2026-02-20T08:30:00.000Z",
      "dutyEnd": "2026-02-21T08:30:00.000Z"
    },
    {
      "id": "kocaeli-15",
      "name": "UĞUR ECZANESİ",
      "address": "MIMAR SINAN MAH. MIMAR SINAN CAD. NO: 65/A",
      "phone": "02627430333",
      "district": "Gebze",
      "city": "Kocaeli",
      "latitude": 40.811529,
      "longitude": 29.385261,
      "dutyStart": "2026-02-20T08:30:00.000Z",
      "dutyEnd": "2026-02-21T08:30:00.000Z"
    },
    {
      "id": "kocaeli-16",
      "name": "ALCAN ECZANESİ",
      "address": "MERKEZ MAH. CUMHURIYET CAD. NO:17/B D.DERE",
      "phone": "02624272549",
      "district": "Gölcük",
      "city": "Kocaeli",
      "latitude": 40.720962,
      "longitude": 29.785167,
      "dutyStart": "2026-02-20T08:30:00.000Z",
      "dutyEnd": "2026-02-21T08:30:00.000Z"
    },
    {
      "id": "kocaeli-17",
      "name": "SEYMEN ECZANESİ",
      "address": "ÇİFTLİK MAH. KAZIM KARABEKİR CAD. NO:14/A GÖLCÜK",
      "phone": "02624355080",
      "district": "Gölcük",
      "city": "Kocaeli",
      "latitude": 40.705833,
      "longitude": 29.846875,
      "dutyStart": "2026-02-20T08:30:00.000Z",
      "dutyEnd": "2026-02-21T08:30:00.000Z"
    },
    {
      "id": "kocaeli-18",
      "name": "FURKAN ECZANESİ",
      "address": "AKDURAK MAH.HALİL İBRAHİM ERDEN SOK.NO:13/A KANDIRA",
      "phone": "02625512858",
      "district": "Kandıra",
      "city": "Kocaeli",
      "latitude": 41.068492,
      "longitude": 30.154724,
      "dutyStart": "2026-02-20T08:30:00.000Z",
      "dutyEnd": "2026-02-21T08:30:00.000Z"
    },
    {
      "id": "kocaeli-19",
      "name": "LAVANTA ECZANESİ",
      "address": "4 TEMMUZ MAH. BEYTİ KARACA SOK. NO:20/A KARAMÜRSEL",
      "phone": "02624527700",
      "district": "Karamürsel",
      "city": "Kocaeli",
      "latitude": 40.693757,
      "longitude": 29.617109,
      "dutyStart": "2026-02-20T08:30:00.000Z",
      "dutyEnd": "2026-02-21T08:30:00.000Z"
    },
    {
      "id": "kocaeli-20",
      "name": "FİLİZ ECZANESİ",
      "address": "KUZEY MAH. AGADERE CAD. NO:21 KÖRFEZ",
      "phone": "02625267090",
      "district": "Körfez",
      "city": "Kocaeli",
      "latitude": 40.76289,
      "longitude": 29.786979,
      "dutyStart": "2026-02-20T08:30:00.000Z",
      "dutyEnd": "2026-02-21T08:30:00.000Z"
    },
    {
      "id": "kocaeli-21",
      "name": "HAKAN ECZANESİ",
      "address": "HACI OSMAN MAH. KARABEKIR SOK. NO:7/A KÖRFEZ",
      "phone": "02625285015",
      "district": "Körfez",
      "city": "Kocaeli",
      "latitude": 40.774414,
      "longitude": 29.74701,
      "dutyStart": "2026-02-20T08:30:00.000Z",
      "dutyEnd": "2026-02-21T08:30:00.000Z"
    },
    {
      "id": "kocaeli-22",
      "name": "UÇAN ECZANESİ",
      "address": "DUMLUPINAR MAH.KAHRAMANLAR CAD.NO:116/A DERİNCE",
      "phone": "02622291313",
      "district": "Derince",
      "city": "Kocaeli",
      "latitude": 40.752659,
      "longitude": 29.827529,
      "dutyStart": "2026-02-20T08:30:00.000Z",
      "dutyEnd": "2026-02-21T08:30:00.000Z"
    }
  ]
}