{
  "city": "mersin",
  "cityName": "Mersin",
  "cityId": 33,
  "date": "2026-02-20",
  "updatedAt": "2026-02-20T01:00:31.268Z",
  "count": 16,
  "pharmacies": [
    {
      "id": "mersin-0",
      "name": "BABAM ECZANESİ",
      "address": "YUSUF KILIÇ MH. 217. CD. NO:84/1A",
      "phone": "05425118737",
      "district": "Toroslar",
      "city": "Mersin",
      "latitude": 36.824127,
      "longitude": 34.603944,
      "dutyStart": "2026-02-20T08:30:00.000Z",
      "dutyEnd": "2026-02-21T08:30:00.000Z"
    },
    {
      "id": "mersin-1",
      "name": "EKİNCİ ECZANESİ",
      "address": "KORUKENT MH. 96015 SK. NO:9/A-B",
      "phone": "05524545490",
      "district": "Toroslar",
      "city": "Mersin",
      "latitude": 36.851298,
      "longitude": 34.60763,
      "dutyStart": "2026-02-20T08:30:00.000Z",
      "dutyEnd": "2026-02-21T08:30:00.000Z"
    },
    {
      "id": "mersin-2",
      "name": "ERGÜL ECZANESİ",
      "address": "ATATÜRK MAH. 35 SOK.NO:23/E",
      "phone": "03243575524",
      "district": "Mezi̇tli̇",
      "city": "Mersin",
      "latitude": 36.763695,
      "longitude": 34.548706,
      "dutyStart": "2026-02-20T08:30:00.000Z",
      "dutyEnd": "2026-02-21T08:30:00.000Z"
    },
    {
      "id": "mersin-3",
      "name": "ESEN ECZANESİ",
      "address": "MESUDİYE MAH. ÇAKMAK CAD. NO:31/E",
      "phone": "03242315880",
      "district": "Akdeni̇z",
      "city": "Mersin",
      "latitude": 36.804377,
      "longitude": 34.630646,
      "dutyStart": "2026-02-20T08:30:00.000Z",
      "dutyEnd": "2026-02-21T08:30:00.000Z"
    },
    {
      "id": "mersin-4",
      "name": "MERVE ÖNEL ECZANESİ",
      "address": "YENİ MH. 5314 SK. NO:2/B",
      "phone": "03242312080",
      "district": "Akdeni̇z",
      "city": "Mersin",
      "latitude": 36.806426,
      "longitude": 34.63582,
      "dutyStart": "2026-02-20T08:30:00.000Z",
      "dutyEnd": "2026-02-21T08:30:00.000Z"
    },
    {
      "id": "mersin-5",
      "name": "POLAT MERSİN ECZANESİ",
      "address": "ÇİFTLİKKÖY MAH. MİMAR SİNAN CAD. PARADİSE HOMES C BLOK NO:24CI",
      "phone": "03245032506",
      "district": "Yeni̇şehi̇r",
      "city": "Mersin",
      "latitude": 36.786103,
      "longitude": 34.539818,
      "dutyStart": "2026-02-20T08:30:00.000Z",
      "dutyEnd": "2026-02-21T08:30:00.000Z"
    },
    {
      "id": "mersin-6",
      "name": "SENEM ECZANESİ",
      "address": "MENTEŞ MH. BARBAROS BULV. NO:107/B",
      "phone": "03249999745",
      "district": "Yeni̇şehi̇r",
      "city": "Mersin",
      "latitude": 36.79259,
      "longitude": 34.582614,
      "dutyStart": "2026-02-20T08:30:00.000Z",
      "dutyEnd": "2026-02-21T08:30:00.000Z"
    },
    {
      "id": "mersin-7",
      "name": "DARENDE ECZANESİ",
      "address": "ÖĞRETMENLER MAH. 2903 SOK. NO:21/A",
      "phone": "03246222264",
      "district": "Tarsus",
      "city": "Mersin",
      "latitude": 36.914573,
      "longitude": 34.883143,
      "dutyStart": "2026-02-20T08:30:00.000Z",
      "dutyEnd": "2026-02-21T08:30:00.000Z"
    },
    {
      "id": "mersin-8",
      "name": "SERAP ECZANESİ",
      "address": "TEKKE MH. 3745 SK. NO:1AA",
      "phone": "03246247486",
      "district": "Tarsus",
      "city": "Mersin",
      "latitude": 36.914218,
      "longitude": 34.912402,
      "dutyStart": "2026-02-20T08:30:00.000Z",
      "dutyEnd": "2026-02-21T08:30:00.000Z"
    },
    {
      "id": "mersin-9",
      "name": "YONCA ECZANESİ",
      "address": "GÖKSU MH. CELAL BAYAR CD. NO:128B",
      "phone": "03245027007",
      "district": "Si̇li̇fke",
      "city": "Mersin",
      "latitude": 36.386457,
      "longitude": 33.942492,
      "dutyStart": "2026-02-20T08:30:00.000Z",
      "dutyEnd": "2026-02-21T08:30:00.000Z"
    },
    {
      "id": "mersin-10",
      "name": "ÖMÜR ECZANESİ",
      "address": "BARABANLI MAH. BARABANLI SOK. NO:353/H",
      "phone": "03247747472",
      "district": "Mut",
      "city": "Mersin",
      "latitude": 36.662384,
      "longitude": 33.422219,
      "dutyStart": "2026-02-20T08:30:00.000Z",
      "dutyEnd": "2026-02-21T08:30:00.000Z"
    },
    {
      "id": "mersin-11",
      "name": "NADİR ECZANESİ",
      "address": "SARAY MAH. AKKAVAK CAD. NO:14/C",
      "phone": "03247512116",
      "district": "Gülnar",
      "city": "Mersin",
      "latitude": 36.338338,
      "longitude": 33.403489,
      "dutyStart": "2026-02-20T08:30:00.000Z",
      "dutyEnd": "2026-02-21T08:30:00.000Z"
    },
    {
      "id": "mersin-12",
      "name": "DEVA ECZANESİ",
      "address": "MERKEZ MH. KAZIM KARABEKİR CD. NO:84/A",
      "phone": "03245150505",
      "district": "Erdemli̇",
      "city": "Mersin",
      "latitude": 36.611032,
      "longitude": 34.302422,
      "dutyStart": "2026-02-20T08:30:00.000Z",
      "dutyEnd": "2026-02-21T08:30:00.000Z"
    },
    {
      "id": "mersin-13",
      "name": "AKDENİZ ECZANESİ",
      "address": "ÇOPURLU MAH.ŞEHITLER CAD.NO:8/1",
      "phone": "03248513157",
      "district": "Bozyazi",
      "city": "Mersin",
      "latitude": 36.115081,
      "longitude": 32.971999,
      "dutyStart": "2026-02-20T08:30:00.000Z",
      "dutyEnd": "2026-02-21T08:30:00.000Z"
    },
    {
      "id": "mersin-14",
      "name": "DAMLA ECZANESİ",
      "address": "BAHÇE MH.ALPARSLAN TÜRKES BULV.NO:14",
      "phone": "03248146434",
      "district": "Anamur",
      "city": "Mersin",
      "latitude": 36.085127,
      "longitude": 32.856055,
      "dutyStart": "2026-02-20T08:30:00.000Z",
      "dutyEnd": "2026-02-21T08:30:00.000Z"
    },
    {
      "id": "mersin-15",
      "name": "KUTAY ECZANESİ",
      "address": "CUMHURİYET MAH. SİLİFKE CAD. NO:1/D",
      "phone": "03248412233",
      "district": "Aydincik",
      "city": "Mersin",
      "latitude": 36.152821,
      "longitude": 33.33882,
      "dutyStart": "2026-02-20T08:30:00.000Z",
      "dutyEnd": "2026-02-21T08:30:00.000Z"
    }
  ]
}