{
  "city": "bursa",
  "cityName": "Bursa",
  "cityId": 16,
  "date": "2026-03-05",
  "updatedAt": "2026-03-05T00:00:45.527Z",
  "count": 32,
  "pharmacies": [
    {
      "id": "bursa-0",
      "name": "KANSU ECZANESİ",
      "address": "BEŞEVLER MAH. YILDIRIM CAD. NO:202/A,  (ÖZEL NEV ANADOLU HASTANESİ ARKASI ANA CADDE) ,  0224 451 84 41",
      "phone": "02244518441",
      "district": "NİLÜFER",
      "city": "Bursa",
      "latitude": 40.21028,
      "longitude": 28.97463,
      "dutyStart": "2026-03-04T18:30:00.000Z",
      "dutyEnd": "2026-03-05T08:30:00.000Z"
    },
    {
      "id": "bursa-1",
      "name": "BANDIRMA ECZANESİ",
      "address": "100.YIL MAH. PROF.DR.ERDAL İNÖNÜ CAD. NO:4/D ,  (100.YIL MAH. STARBUCKS YANI) ,  0224 502 07 47 / 0552 332 63 76",
      "phone": "02245020747",
      "district": "NİLÜFER",
      "city": "Bursa",
      "latitude": 40.226451584839204,
      "longitude": 28.906215503811836,
      "dutyStart": "2026-03-04T18:30:00.000Z",
      "dutyEnd": "2026-03-05T08:30:00.000Z"
    },
    {
      "id": "bursa-2",
      "name": "GONCA ERYILMAZ ECZANESİ",
      "address": "23 NİSAN MAH. 75.YIL BULVARI NO:3AC,  (ATA BULVARI OSB GİRİŞİ - DURMAZLAR KARŞISI) ,  0224 441 81 68 / 0530 911 81 68",
      "phone": "02244418168",
      "district": "NİLÜFER",
      "city": "Bursa",
      "latitude": 40.2210484,
      "longitude": 28.9512778,
      "dutyStart": "2026-03-04T18:30:00.000Z",
      "dutyEnd": "2026-03-05T08:30:00.000Z"
    },
    {
      "id": "bursa-3",
      "name": "YENİ ÇAMLICA ECZANESİ",
      "address": "ÇAMLICA MAH. KAVAKDERE CAD. NO:154/A,  (PAZAR YERİ ÇAPRAZI) ,  0224-4532416 / 5434532416",
      "phone": "02244532416",
      "district": "NİLÜFER",
      "city": "Bursa",
      "latitude": 40.194597,
      "longitude": 28.983757999999966,
      "dutyStart": "2026-03-04T18:30:00.000Z",
      "dutyEnd": "2026-03-05T08:30:00.000Z"
    },
    {
      "id": "bursa-4",
      "name": "MELEK ŞİFA ECZANESİ",
      "address": "KURTULUŞ MAH. 4(510).SOK. D-BLOK NO:17,  (GÖRÜKLE GÖÇMEN KONUTLARI KURTULUŞ ASM KARŞISI) ,  0224 441 82 61",
      "phone": "02244418261",
      "district": "NİLÜFER",
      "city": "Bursa",
      "latitude": 40.2173851,
      "longitude": 28.8246649,
      "dutyStart": "2026-03-04T18:30:00.000Z",
      "dutyEnd": "2026-03-05T08:30:00.000Z"
    },
    {
      "id": "bursa-5",
      "name": "BİRSEN ECZANESİ",
      "address": "İHSANİYE MAH. FATİH CAD. NO:16,  (CAVİT ÇAĞLAR ORTAOKULU ÇIKIŞI - İHSANİYE MUHTARLIĞI ÇAPRAZI) ,  0224 249 57 23 / 0224 2495724",
      "phone": "02242495723",
      "district": "NİLÜFER",
      "city": "Bursa",
      "latitude": 40.22092008269787,
      "longitude": 28.986470547171848,
      "dutyStart": "2026-03-04T18:30:00.000Z",
      "dutyEnd": "2026-03-05T08:30:00.000Z"
    },
    {
      "id": "bursa-6",
      "name": "SAKARYA ECZANESİ",
      "address": "SAKARYA MAH. UĞURLU SOK. NO:9/A,  (ULUYOL SAKARYA ASM VE CAMİ KARŞISI) ,  0224 251 85 92 / 0224 272 16 54",
      "phone": "02242518592",
      "district": "OSMANGAZİ",
      "city": "Bursa",
      "latitude": 40.19336441,
      "longitude": 29.06581682,
      "dutyStart": "2026-03-04T18:30:00.000Z",
      "dutyEnd": "2026-03-05T08:30:00.000Z"
    },
    {
      "id": "bursa-7",
      "name": "GEÇİT ÖZEL ECZANESİ",
      "address": "GEÇİT MAH. GÜRBÜZ SOK. BELEN-1 SİTESİ NO:59/A-1,  (GEÇİT ÖZDİLEK ARKA ÇIKIŞ KAPISI KARŞISI) ,  0224 244 70 77",
      "phone": "02242447077",
      "district": "OSMANGAZİ",
      "city": "Bursa",
      "latitude": 40.2682743,
      "longitude": 28.9514768,
      "dutyStart": "2026-03-04T18:30:00.000Z",
      "dutyEnd": "2026-03-05T08:30:00.000Z"
    },
    {
      "id": "bursa-8",
      "name": "CÖMERT ECZANESİ",
      "address": "KÜKÜRTLÜ MAH. KÜKÜRTLÜ CAD. NO:28/C,  (KÜKÜRTLÜ TİCARET VE SANAYİ ODASI ORTAOKULU KARŞISI) ,  0224 242 32 92",
      "phone": "02242423292",
      "district": "OSMANGAZİ",
      "city": "Bursa",
      "latitude": 40.20572252379723,
      "longitude": 29.025113135576248,
      "dutyStart": "2026-03-04T18:30:00.000Z",
      "dutyEnd": "2026-03-05T08:30:00.000Z"
    },
    {
      "id": "bursa-9",
      "name": "ALTINOLUK ECZANESİ",
      "address": "BAŞARAN MAH. 3.BAŞARAN SOK. NO:4,  (BAŞARAN SAĞLIK OCAĞI YANI) ,  0224 272 11 77",
      "phone": "02242721177",
      "district": "OSMANGAZİ",
      "city": "Bursa",
      "latitude": 40.20964813062368,
      "longitude": 29.072735072160313,
      "dutyStart": "2026-03-04T18:30:00.000Z",
      "dutyEnd": "2026-03-05T08:30:00.000Z"
    },
    {
      "id": "bursa-10",
      "name": "FAHRİYE ECZANESİ",
      "address": "ÇİRİŞHANE MAH. DR.SADIK AHMET CAD. NO:358/A,  (ETİBANK DOLMUŞ DURAĞI YANI) ,  0224 254 07 83",
      "phone": "02242540783",
      "district": "OSMANGAZİ",
      "city": "Bursa",
      "latitude": 40.2023,
      "longitude": 29.049049,
      "dutyStart": "2026-03-04T18:30:00.000Z",
      "dutyEnd": "2026-03-05T08:30:00.000Z"
    },
    {
      "id": "bursa-11",
      "name": "GÖKÇEN ECZANESİ",
      "address": "HAMİTLER MAH. 1.FATİH CAD. NO:23/A,  (HAMİTLER YENİ KAPALI PAZAR KARŞISI) ,  0536 951 91 95",
      "phone": "05369519195",
      "district": "OSMANGAZİ",
      "city": "Bursa",
      "latitude": 40.25000990780761,
      "longitude": 28.992541035588033,
      "dutyStart": "2026-03-04T18:30:00.000Z",
      "dutyEnd": "2026-03-05T08:30:00.000Z"
    },
    {
      "id": "bursa-12",
      "name": "YILMAZ ECZANESİ",
      "address": "ANADOLU MAH. VATAN SOK. NO:11/D,  (ŞÜKRANİYE SARI CAMİ ALTI) ,  0536 452 20 22",
      "phone": "05364522022",
      "district": "YILDIRIM",
      "city": "Bursa",
      "latitude": 40.19223343,
      "longitude": 29.09364223,
      "dutyStart": "2026-03-04T18:30:00.000Z",
      "dutyEnd": "2026-03-05T08:30:00.000Z"
    },
    {
      "id": "bursa-13",
      "name": "AKSU ECZANESİ",
      "address": "SELÇUKBEY MAH. SELÇUKBEY CAD. C-BLOK NO:23/A,  (DR.SADIK AHMET SPOR TESİSLERİ YANI) ,  0224 368 12 77",
      "phone": "02243681277",
      "district": "YILDIRIM",
      "city": "Bursa",
      "latitude": 40.17988578337232,
      "longitude": 29.113213321490463,
      "dutyStart": "2026-03-04T18:30:00.000Z",
      "dutyEnd": "2026-03-05T08:30:00.000Z"
    },
    {
      "id": "bursa-14",
      "name": "İSABEY ECZANESİ",
      "address": "DEMETEVLER MAH. İSMETPAŞA CAD. NO:33/A ,  0224 371 34 68 ,  Eczaneyi haritada görüntülemek için tıklayınız...",
      "phone": "02243713468",
      "district": "YILDIRIM",
      "city": "Bursa",
      "latitude": 40.202440779331134,
      "longitude": 29.177977210081142,
      "dutyStart": "2026-03-04T18:30:00.000Z",
      "dutyEnd": "2026-03-05T08:30:00.000Z"
    },
    {
      "id": "bursa-15",
      "name": "MİLLET ECZANESİ",
      "address": "MEVLANA MAH. ŞEHİT EREN BÜLBÜL CAD. NO:8/A,  (HÜMA HATUN EVLERİ YANI) ,  0224 361 61 13",
      "phone": "02243616113",
      "district": "YILDIRIM",
      "city": "Bursa",
      "latitude": 40.206115,
      "longitude": 29.118955,
      "dutyStart": "2026-03-04T18:30:00.000Z",
      "dutyEnd": "2026-03-05T08:30:00.000Z"
    },
    {
      "id": "bursa-16",
      "name": "BÜYÜKORHAN ECZANESİ",
      "address": "ORHAN MAH. DR.İBRAHİM ÖKTEM CAD. NO:13/B ,  0224 841 23 70 ,  Eczaneyi haritada görüntülemek için tıklayınız...",
      "phone": "02248412370",
      "district": "BÜYÜKORHAN",
      "city": "Bursa",
      "latitude": 39.773187817429196,
      "longitude": 28.885376751422882,
      "dutyStart": "2026-03-04T19:00:00.000Z",
      "dutyEnd": "2026-03-05T08:30:00.000Z"
    },
    {
      "id": "bursa-17",
      "name": "TUĞBA ECZANESİ",
      "address": "EŞREF DİNÇER MAH. IRMAK SOK. NO:289,  (YENİ GEMLİK DEVLET HASTANESİ YOLU ÜZERİ) ,  0224-5130465",
      "phone": "02245130465",
      "district": "GEMLİK",
      "city": "Bursa",
      "latitude": 40.430823855753324,
      "longitude": 29.179243892033355,
      "dutyStart": "2026-03-04T18:30:00.000Z",
      "dutyEnd": "2026-03-05T08:30:00.000Z"
    },
    {
      "id": "bursa-18",
      "name": "BURSA ECZANESİ",
      "address": "ZAFER MAH. ZAFER CAD. NO: 116-118/B ,  0224 371 71 12 ,  Eczaneyi haritada görüntülemek için tıklayınız...",
      "phone": "02243717112",
      "district": "GÜRSU",
      "city": "Bursa",
      "latitude": 40.221675,
      "longitude": 29.184416,
      "dutyStart": "2026-03-04T18:30:00.000Z",
      "dutyEnd": "2026-03-05T09:00:00.000Z"
    },
    {
      "id": "bursa-19",
      "name": "ULAŞ ECZANESİ",
      "address": "MERKEZ MAH. FEVZİ PAŞA CAD. NO:9/A ,  0224-8812272 ,  Eczaneyi haritada görüntülemek için tıklayınız...",
      "phone": "02248812272",
      "district": "HARMANCIK",
      "city": "Bursa",
      "latitude": 39.679027,
      "longitude": 29.154901999999993,
      "dutyStart": "2026-03-04T18:00:00.000Z",
      "dutyEnd": "2026-03-05T08:30:00.000Z"
    },
    {
      "id": "bursa-20",
      "name": "ÖZGÜN ECZANESİ",
      "address": "KEMALPAŞA MAH. ORTAOKUL SOK. NO:14/A ,  0224 711 93 62 ,  Eczaneyi haritada görüntülemek için tıklayınız...",
      "phone": "02247119362",
      "district": "İNEGÖL",
      "city": "Bursa",
      "latitude": 40.075184,
      "longitude": 29.508316,
      "dutyStart": "2026-03-04T18:00:00.000Z",
      "dutyEnd": "2026-03-05T08:30:00.000Z"
    },
    {
      "id": "bursa-21",
      "name": "UĞUR ECZANESİ",
      "address": "MUSTAFAKEMALPAŞA MAH. ORHANGAZİ CAD. NO:26/B ,  0224 757 16 56 ,  Eczaneyi haritada görüntülemek için tıklayınız...",
      "phone": "02247571656",
      "district": "İZNİK",
      "city": "Bursa",
      "latitude": 40.436916,
      "longitude": 29.720001,
      "dutyStart": "2026-03-04T18:00:00.000Z",
      "dutyEnd": "2026-03-05T08:30:00.000Z"
    },
    {
      "id": "bursa-22",
      "name": "SEHER ECZANESİ",
      "address": "TABAKLAR MAH. DR.RÜŞTÜ ÖZÜT CAD. NO:7 ,  0224 677 05 00 ,  Eczaneyi haritada görüntülemek için tıklayınız...",
      "phone": "02246770500",
      "district": "KARACABEY",
      "city": "Bursa",
      "latitude": 40.225498,
      "longitude": 28.372730000000047,
      "dutyStart": "2026-03-04T18:00:00.000Z",
      "dutyEnd": "2026-03-05T08:30:00.000Z"
    },
    {
      "id": "bursa-23",
      "name": "ŞİFA ECZANESİ",
      "address": "CUMA MAH. ATATÜRK CAD. ÇARŞI İÇİ NO:3/B ,  0224 861 21 64 ,  Eczaneyi haritada görüntülemek için tıklayınız...",
      "phone": "02248612164",
      "district": "KELES",
      "city": "Bursa",
      "latitude": 39.91276107279525,
      "longitude": 29.233170631710127,
      "dutyStart": "2026-03-04T18:00:00.000Z",
      "dutyEnd": "2026-03-05T08:30:00.000Z"
    },
    {
      "id": "bursa-24",
      "name": "KESTEL ECZANESİ",
      "address": "KALE MAH. BURSA CAD. NO:2/B ,  0224 372 10 15 ,  Eczaneyi haritada görüntülemek için tıklayınız...",
      "phone": "02243721015",
      "district": "KESTEL",
      "city": "Bursa",
      "latitude": 40.200982,
      "longitude": 29.212310000000002,
      "dutyStart": "2026-03-04T18:00:00.000Z",
      "dutyEnd": "2026-03-05T08:30:00.000Z"
    },
    {
      "id": "bursa-25",
      "name": "MUDANYA DERMAN ECZANESİ",
      "address": "GÜZELYALI SİTELER MAH. BURSA ASFALTI CAD. NO:162/2B ,  0224-5440627 ,  Eczaneyi haritada görüntülemek için tıklayınız...",
      "phone": "02245440627",
      "district": "MUDANYA",
      "city": "Bursa",
      "latitude": 40.357593,
      "longitude": 28.9127091,
      "dutyStart": "2026-03-04T18:00:00.000Z",
      "dutyEnd": "2026-03-05T08:30:00.000Z"
    },
    {
      "id": "bursa-26",
      "name": "DOĞU ECZANESİ",
      "address": "HALİTPAŞA MAH. MUSTAFAKEMALPAŞA CAD. NO:143/A ,  0224 544 14 57 ,  Eczaneyi haritada görüntülemek için tıklayınız...",
      "phone": "02245441457",
      "district": "MUDANYA",
      "city": "Bursa",
      "latitude": 40.3801,
      "longitude": 28.878,
      "dutyStart": "2026-03-04T18:00:00.000Z",
      "dutyEnd": "2026-03-05T08:30:00.000Z"
    },
    {
      "id": "bursa-27",
      "name": "ÇELEBİ ECZANESİ",
      "address": "YÜZBAŞI SABRİBEY MAH. TAHIL MEYDANI NO:7 ,  0224 613 82 36 ,  Eczaneyi haritada görüntülemek için tıklayınız...",
      "phone": "02246138236",
      "district": "MUSTAFAKEMALPAŞA",
      "city": "Bursa",
      "latitude": 40.03613,
      "longitude": 28.410963000000038,
      "dutyStart": "2026-03-04T18:00:00.000Z",
      "dutyEnd": "2026-03-05T08:30:00.000Z"
    },
    {
      "id": "bursa-28",
      "name": "YALÇIN ECZANESİ",
      "address": "İSMETPAŞA MAH. CAMİ KARŞISI SOK. NO:3 ,  0224-8171286 / 0224-8171286 ,  Eczaneyi haritada görüntülemek için tıklayınız...",
      "phone": "02248171286",
      "district": "ORHANELİ",
      "city": "Bursa",
      "latitude": 39.902445,
      "longitude": 28.988786000000005,
      "dutyStart": "2026-03-04T18:00:00.000Z",
      "dutyEnd": "2026-03-05T08:30:00.000Z"
    },
    {
      "id": "bursa-29",
      "name": "SENA ECZANESİ",
      "address": "MURADİYE MAH. HÜKÜMET CAD. NO:8/C ,  0224 573 10 42 ,  Eczaneyi haritada görüntülemek için tıklayınız...",
      "phone": "02245731042",
      "district": "ORHANGAZİ",
      "city": "Bursa",
      "latitude": 40.490958,
      "longitude": 29.309159,
      "dutyStart": "2026-03-04T18:00:00.000Z",
      "dutyEnd": "2026-03-05T08:30:00.000Z"
    },
    {
      "id": "bursa-30",
      "name": "ESİN SERHAT ECZANESİ",
      "address": "DEMİRTAŞ CUMHURİYET MAH. ÇEVREYOLU CAD. 1229.SOK. NO:17 ,  0552 394 94 06 ,  Eczaneyi haritada görüntülemek için tıklayınız...",
      "phone": "05523949406",
      "district": "OSMANGAZİ",
      "city": "Bursa",
      "latitude": 40.2687647,
      "longitude": 29.0906821,
      "dutyStart": "2026-03-04T18:30:00.000Z",
      "dutyEnd": "2026-03-05T08:30:00.000Z"
    },
    {
      "id": "bursa-31",
      "name": "ŞİFA ECZANESİ",
      "address": "ULUCAMİ MAH. BELEDİYE MEYDANI NO:5 16900 ,  2247730465 / 2247731351 ,  Eczaneyi haritada görüntülemek için tıklayınız...",
      "phone": "2247730465",
      "district": "YENİŞEHİR",
      "city": "Bursa",
      "latitude": 40.261891,
      "longitude": 29.65017899999998,
      "dutyStart": "2026-03-04T18:00:00.000Z",
      "dutyEnd": "2026-03-05T08:00:00.000Z"
    }
  ]
}