{
  "city": "mersin",
  "cityName": "Mersin",
  "cityId": 33,
  "date": "2026-03-05",
  "updatedAt": "2026-03-05T02:00:45.236Z",
  "count": 17,
  "pharmacies": [
    {
      "id": "mersin-0",
      "name": "AYŞEM ECZANESİ",
      "address": "TOZKOPARAN MH. 87045 SK. NO:19/A",
      "phone": "03243202026",
      "district": "Toroslar",
      "city": "Mersin",
      "latitude": 36.819278,
      "longitude": 34.614734,
      "dutyStart": "2026-03-05T08:30:00.000Z",
      "dutyEnd": "2026-03-06T08:30:00.000Z"
    },
    {
      "id": "mersin-1",
      "name": "BAL ECZANESİ",
      "address": "Eğriçam Mh. GMK Bulv. No:564",
      "phone": "03243414101",
      "district": "Yeni̇şehi̇r",
      "city": "Mersin",
      "latitude": 36.771294,
      "longitude": 34.562708,
      "dutyStart": "2026-03-05T08:30:00.000Z",
      "dutyEnd": "2026-03-06T08:30:00.000Z"
    },
    {
      "id": "mersin-2",
      "name": "EKİNCİ ECZANESİ",
      "address": "KORUKENT MH. 96015 SK. NO:9/A-B",
      "phone": "05524545490",
      "district": "Toroslar",
      "city": "Mersin",
      "latitude": 36.851298,
      "longitude": 34.60763,
      "dutyStart": "2026-03-05T08:30:00.000Z",
      "dutyEnd": "2026-03-06T08:30:00.000Z"
    },
    {
      "id": "mersin-3",
      "name": "KAMER ECZANESİ",
      "address": "İHSANİYE MH. KUVAYİ MİLLİYE CD. NO:173C",
      "phone": "03243364676",
      "district": "Akdeni̇z",
      "city": "Mersin",
      "latitude": 36.809174,
      "longitude": 34.621277,
      "dutyStart": "2026-03-05T08:30:00.000Z",
      "dutyEnd": "2026-03-06T08:30:00.000Z"
    },
    {
      "id": "mersin-4",
      "name": "KEMAL ECZANESİ",
      "address": "YENİ MH. 5319 SK. NO:38/A",
      "phone": "03242380370",
      "district": "Akdeni̇z",
      "city": "Mersin",
      "latitude": 36.806321,
      "longitude": 34.632542,
      "dutyStart": "2026-03-05T08:30:00.000Z",
      "dutyEnd": "2026-03-06T08:30:00.000Z"
    },
    {
      "id": "mersin-5",
      "name": "SİNGEÇ ECZANESİ",
      "address": "MENTEŞ MAH.BARBAROS CAD.NO:101/B",
      "phone": "03243250636",
      "district": "Yeni̇şehi̇r",
      "city": "Mersin",
      "latitude": 36.791569,
      "longitude": 34.582099,
      "dutyStart": "2026-03-05T08:30:00.000Z",
      "dutyEnd": "2026-03-06T08:30:00.000Z"
    },
    {
      "id": "mersin-6",
      "name": "YAKUPOĞLU ECZANESİ",
      "address": "ATATÜRK MH. HAL CD. NO:3/A",
      "phone": "03245035996",
      "district": "Mezi̇tli̇",
      "city": "Mersin",
      "latitude": 36.759148,
      "longitude": 34.543425,
      "dutyStart": "2026-03-05T08:30:00.000Z",
      "dutyEnd": "2026-03-06T08:30:00.000Z"
    },
    {
      "id": "mersin-7",
      "name": "YILMAZ ECZANESİ",
      "address": "BAHÇELİEVLER MH. 16. CD. NO:55E",
      "phone": "03249998133",
      "district": "Yeni̇şehi̇r",
      "city": "Mersin",
      "latitude": 36.790204,
      "longitude": 34.596995,
      "dutyStart": "2026-03-05T08:30:00.000Z",
      "dutyEnd": "2026-03-06T08:30:00.000Z"
    },
    {
      "id": "mersin-8",
      "name": "GÜLSÜM ECZANESİ",
      "address": "ÖĞRETMENLER MAH. 2901 SOK. NO:19/A",
      "phone": "03246246676",
      "district": "Tarsus",
      "city": "Mersin",
      "latitude": 36.913748,
      "longitude": 34.882177,
      "dutyStart": "2026-03-05T08:30:00.000Z",
      "dutyEnd": "2026-03-06T08:30:00.000Z"
    },
    {
      "id": "mersin-9",
      "name": "YUSUF YÜKSEK ECZANESİ",
      "address": "TEKKE MH. TÜRKMENİSTAN CD. NO: 58BI",
      "phone": "05335058633",
      "district": "Tarsus",
      "city": "Mersin",
      "latitude": 36.914281,
      "longitude": 34.91269,
      "dutyStart": "2026-03-05T08:30:00.000Z",
      "dutyEnd": "2026-03-06T08:30:00.000Z"
    },
    {
      "id": "mersin-10",
      "name": "GÖKSU ECZANESİ",
      "address": "Göksu Mah. Oğuz Kağan Cad.No:15/B",
      "phone": "03247120502",
      "district": "Si̇li̇fke",
      "city": "Mersin",
      "latitude": 36.381575,
      "longitude": 33.931827,
      "dutyStart": "2026-03-05T08:30:00.000Z",
      "dutyEnd": "2026-03-06T08:30:00.000Z"
    },
    {
      "id": "mersin-11",
      "name": "FERDA ECZANESİ",
      "address": "BARABANLI MAH. BARABANLI SOK. NO:353/F",
      "phone": "03247741206",
      "district": "Mut",
      "city": "Mersin",
      "latitude": 36.662375,
      "longitude": 33.422165,
      "dutyStart": "2026-03-05T08:30:00.000Z",
      "dutyEnd": "2026-03-06T08:30:00.000Z"
    },
    {
      "id": "mersin-12",
      "name": "GÜLNAR ECZANESİ",
      "address": "AKDENİZ MH. KÖY HİZMETLERİ SK. NO:1C",
      "phone": "03247517007",
      "district": "Gülnar",
      "city": "Mersin",
      "latitude": 36.323313,
      "longitude": 33.411885,
      "dutyStart": "2026-03-05T08:30:00.000Z",
      "dutyEnd": "2026-03-06T08:30:00.000Z"
    },
    {
      "id": "mersin-13",
      "name": "ZEYNEL ECZANESİ",
      "address": "MERKEZ MH. KAZIM KARABEKİR CD. NO:74/F",
      "phone": "03245154050",
      "district": "Erdemli̇",
      "city": "Mersin",
      "latitude": 36.610144,
      "longitude": 34.303197,
      "dutyStart": "2026-03-05T08:30:00.000Z",
      "dutyEnd": "2026-03-06T08:30:00.000Z"
    },
    {
      "id": "mersin-14",
      "name": "ATALAY ECZANESİ",
      "address": "MERKEZ MAH. SAĞLIK OCAĞI ÖZCAN ÇETİNKAYA APT.NO:10/A",
      "phone": "03248513399",
      "district": "Bozyazi",
      "city": "Mersin",
      "latitude": 36.106187,
      "longitude": 32.970492,
      "dutyStart": "2026-03-05T08:30:00.000Z",
      "dutyEnd": "2026-03-06T08:30:00.000Z"
    },
    {
      "id": "mersin-15",
      "name": "ÇETİN ECZANESİ",
      "address": "BAHÇELİEVLER MH. HOCA AHMET YESEVİ BULV. B BLOK NO:16/B",
      "phone": "03248142580",
      "district": "Anamur",
      "city": "Mersin",
      "latitude": 36.078452,
      "longitude": 32.849159,
      "dutyStart": "2026-03-05T08:30:00.000Z",
      "dutyEnd": "2026-03-06T08:30:00.000Z"
    },
    {
      "id": "mersin-16",
      "name": "ÜNAL ECZANESİ",
      "address": "CUMHURİYET MAH. BARBOROS CD.NO:3/B",
      "phone": "05538413084",
      "district": "Aydincik",
      "city": "Mersin",
      "latitude": 36.152856,
      "longitude": 33.339095,
      "dutyStart": "2026-03-05T08:30:00.000Z",
      "dutyEnd": "2026-03-06T08:30:00.000Z"
    }
  ]
}