{
  "city": "antalya",
  "cityName": "Antalya",
  "cityId": 7,
  "date": "2026-02-24",
  "updatedAt": "2026-02-24T20:00:56.918Z",
  "count": 38,
  "pharmacies": [
    {
      "id": "antalya-0",
      "name": "EFENDİOĞLU ECZANESİ",
      "address": "",
      "phone": "02422370088",
      "district": "Muratpaşa",
      "city": "Antalya",
      "latitude": 36.892699009451796,
      "longitude": 30.68479272357692,
      "dutyStart": "2026-02-24T08:00:00.000Z",
      "dutyEnd": "2026-02-25T08:00:00.000Z"
    },
    {
      "id": "antalya-1",
      "name": "EGEMEN ECZANESİ",
      "address": "YILDIZ MAH.YILDIZ CAD.NO:23/D /EĞİTİM ARAŞTIRMA HASTANESİNDEN TRT İSTİKAMETİNE 200 M.MURATPAŞA",
      "phone": "02423350796",
      "district": "Antalya",
      "city": "Antalya",
      "latitude": 36.8993051209539,
      "longitude": 30.689513683319092,
      "dutyStart": "2026-02-24T08:00:00.000Z",
      "dutyEnd": "2026-02-25T08:00:00.000Z"
    },
    {
      "id": "antalya-2",
      "name": "EVRE ECZANESİ",
      "address": "GÜVENLİK MAH. GÜLLÜK CADDESİ.NO:141/D .ATATÜRK DEVLET HASTANESİ ACİL GİRİŞ ÇAPRAZ KARŞISI.(ESKİ SSK)MURATPAŞA",
      "phone": "02422473430",
      "district": "Antalya",
      "city": "Antalya",
      "latitude": 36.898748,
      "longitude": 30.724397,
      "dutyStart": "2026-02-24T08:00:00.000Z",
      "dutyEnd": "2026-02-25T08:00:00.000Z"
    },
    {
      "id": "antalya-3",
      "name": "YILMAZ ECZANESİ",
      "address": "GEBIZLI MAH.1115 SOK.KARALAR APT.NO:10/C KARALAR DÜGÜN SARAYI YANI GEBİZLİ MAH.YAŞAM HASTANESİ ACİL KARŞISI",
      "phone": "02423129365",
      "district": "Antalya",
      "city": "Antalya",
      "latitude": 36.8879503933,
      "longitude": 30.7229526311,
      "dutyStart": "2026-02-24T08:00:00.000Z",
      "dutyEnd": "2026-02-25T08:00:00.000Z"
    },
    {
      "id": "antalya-4",
      "name": "YALI ECZANESİ",
      "address": "ÇAYBAŞI MAH.ALİ ÇETİNKAYA CAD.ADEM APT.144/B MURATPAŞA ( KIZILTOPRAK PTT KARŞISI )",
      "phone": "02423165051",
      "district": "Antalya",
      "city": "Antalya",
      "latitude": 36.8630463129,
      "longitude": 30.7302606012,
      "dutyStart": "2026-02-24T08:00:00.000Z",
      "dutyEnd": "2026-02-25T08:00:00.000Z"
    },
    {
      "id": "antalya-5",
      "name": "YAREN ECZANESİ",
      "address": "SIRINYALI MAH. İSMET GÖKŞENCAD.1487 SK.305/2 YASAM HASTANESI YANI",
      "phone": "05441980707",
      "district": "Antalya",
      "city": "Antalya",
      "latitude": 36.851834,
      "longitude": 30.763957,
      "dutyStart": "2026-02-24T08:00:00.000Z",
      "dutyEnd": "2026-02-25T08:00:00.000Z"
    },
    {
      "id": "antalya-6",
      "name": "SERTER ECZANESİ",
      "address": "ÇAĞLAYAN MAH. BARINAKLAR BULV. NO:13/A MURATPAŞA ANTALYA (BEYAZ DÜNYA KAVŞAĞINDAN GÜZELOBA YÖNÜNE DOĞRU, DENİZBANK KARŞISI)",
      "phone": "02423496386",
      "district": "Antalya",
      "city": "Antalya",
      "latitude": 36.8585483289,
      "longitude": 30.7939162617,
      "dutyStart": "2026-02-24T08:00:00.000Z",
      "dutyEnd": "2026-02-25T08:00:00.000Z"
    },
    {
      "id": "antalya-7",
      "name": "ERDOĞAN ECZANESİ",
      "address": "GÜZELOBA MAH. 2246 SOK.NO:3/B MURATPAŞA ÖZEL LARA ANADOLU HASTANESİ YANI",
      "phone": "02423351035",
      "district": "Kepez",
      "city": "Antalya",
      "latitude": 36.9105124411,
      "longitude": 30.6771923426,
      "dutyStart": "2026-02-24T08:00:00.000Z",
      "dutyEnd": "2026-02-25T08:00:00.000Z"
    },
    {
      "id": "antalya-8",
      "name": "LEVENT ECZANESİ",
      "address": "ÖZDILEK PARK AVM IÇI 1.BODRUM KAT",
      "phone": "02423393139",
      "district": "Antalya",
      "city": "Antalya",
      "latitude": 36.9175891915,
      "longitude": 30.7340645334,
      "dutyStart": "2026-02-24T08:00:00.000Z",
      "dutyEnd": "2026-02-25T08:00:00.000Z"
    },
    {
      "id": "antalya-9",
      "name": "ERENKÖY ECZANESİ",
      "address": "DÜDENBASI MAH.2354 SOKAK GÜNESEVLER SIT. A BLOK NO:5 DEMİRGÜL İLKÖĞRETİM OKULU KARŞISI",
      "phone": "02423327900",
      "district": "Antalya",
      "city": "Antalya",
      "latitude": 36.92414807134278,
      "longitude": 30.721462815999985,
      "dutyStart": "2026-02-24T08:00:00.000Z",
      "dutyEnd": "2026-02-25T08:00:00.000Z"
    },
    {
      "id": "antalya-10",
      "name": "GEBİZ ECZANESİ",
      "address": "MEHMET AKİF ERSOY MAH. MEHMET ATAY CAD. 6758 SOK.15 KATLI BİNADAN 500 METRE BATIDA, BİM ARKASI",
      "phone": "5525076603",
      "district": "Antalya",
      "city": "Antalya",
      "latitude": 36.90928889041112,
      "longitude": 30.646759313586614,
      "dutyStart": "2026-02-24T08:00:00.000Z",
      "dutyEnd": "2026-02-25T08:00:00.000Z"
    },
    {
      "id": "antalya-11",
      "name": "UNCALI EBRU ECZANESİ",
      "address": "YEŞİLYURT MAH.4322 SOK.NO:7A-B KEPEZ.YEŞİLYURT SAĞLIK OCAĞI KARŞISI.",
      "phone": "02422274414",
      "district": "Antalya",
      "city": "Antalya",
      "latitude": 36.89240760231291,
      "longitude": 30.62622068645544,
      "dutyStart": "2026-02-24T08:00:00.000Z",
      "dutyEnd": "2026-02-25T08:00:00.000Z"
    },
    {
      "id": "antalya-12",
      "name": "CANSEV ECZANESİ",
      "address": "MOLLA YUSUF MAH. 1419 SOKAK. NO:31 KONYAALTI .UNCALI ÇEVİK KUVVET KARŞISI .UNCALI SEMT POLİKLİNİĞİ YANI",
      "phone": "02422288508",
      "district": "Antalya",
      "city": "Antalya",
      "latitude": 36.8739691645208,
      "longitude": 30.65249115228653,
      "dutyStart": "2026-02-24T08:00:00.000Z",
      "dutyEnd": "2026-02-25T08:00:00.000Z"
    },
    {
      "id": "antalya-13",
      "name": "UMUT ECZANESİ",
      "address": "ARAPSUYU MAH.BELEDİYE CAD.( İL SAĞLIK MÜD.'DEN DENİZ İSTİKAMETİNE DOĞRU YOL BİTİNCE SAĞA DÖNÜLECEK) KONYAALTI",
      "phone": "05065572618",
      "district": "Antalya",
      "city": "Antalya",
      "latitude": 37.06361469295338,
      "longitude": 30.599772334098816,
      "dutyStart": "2026-02-24T08:00:00.000Z",
      "dutyEnd": "2026-02-25T08:00:00.000Z"
    },
    {
      "id": "antalya-14",
      "name": "ELİF METİN ECZANESİ",
      "address": "YENİKÖY MAH. 347 SOK. NO:7/3 DÖŞEMEALTI ANTALYA (DÖŞEMEALTI AĞIZ VE DİŞ SAĞLIĞI MERKEZİ ÇAPRAZI )",
      "phone": "02424641881",
      "district": "Aksu",
      "city": "Antalya",
      "latitude": 36.960429080300386,
      "longitude": 30.786809364415454,
      "dutyStart": "2026-02-24T08:00:00.000Z",
      "dutyEnd": "2026-02-25T08:00:00.000Z"
    },
    {
      "id": "antalya-15",
      "name": "ALPER ECZANESİ",
      "address": "ÇAMKÖY MAHALLESİ 21034.SOKAK NO:38/A AKSU/ANTALYA (ÇAMKÖY KAPALI PAZAR YERİ YANI)",
      "phone": "02425128814",
      "district": "Alanya",
      "city": "Antalya",
      "latitude": 36.5474486097,
      "longitude": 31.9973150267,
      "dutyStart": "2026-02-24T08:00:00.000Z",
      "dutyEnd": "2026-02-25T08:00:00.000Z"
    },
    {
      "id": "antalya-16",
      "name": "SAĞLIK ECZANESİ",
      "address": "SEVKET TOKUÇ CAD. 25 M.LIK YOL GARANTI BATI ÇAPRAZI",
      "phone": "02425136667",
      "district": "Antalya",
      "city": "Antalya",
      "latitude": 36.5527087185,
      "longitude": 31.9961353519,
      "dutyStart": "2026-02-24T08:00:00.000Z",
      "dutyEnd": "2026-02-25T08:00:00.000Z"
    },
    {
      "id": "antalya-17",
      "name": "OBA YÜKSEK ECZANESİ",
      "address": "KADIPASA MAH. IKIZLER SOK. 2 NOLU SAGLIK OCAGI KARSISI",
      "phone": "02425389898",
      "district": "Antalya",
      "city": "Antalya",
      "latitude": 36.54126838800784,
      "longitude": 32.043138594803395,
      "dutyStart": "2026-02-24T08:00:00.000Z",
      "dutyEnd": "2026-02-25T08:00:00.000Z"
    },
    {
      "id": "antalya-18",
      "name": "EMİR ECZANESİ",
      "address": "OBA MAH.FİDANLIK CADDESİ.ŞÜKRÜ KIR APT. NO:64/C ALANYA/ANTALYA",
      "phone": "02425287173",
      "district": "Antalya",
      "city": "Antalya",
      "latitude": 36.48383680245501,
      "longitude": 32.10572163684925,
      "dutyStart": "2026-02-24T08:00:00.000Z",
      "dutyEnd": "2026-02-25T08:00:00.000Z"
    },
    {
      "id": "antalya-19",
      "name": "YENİ MEVLANA ECZANESİ",
      "address": "MAHMUTLAR MAH.ATATÜRK CAD.NO:129FD /ALANYA",
      "phone": "02425653600",
      "district": "Antalya",
      "city": "Antalya",
      "latitude": 36.59060174026097,
      "longitude": 31.864149570465088,
      "dutyStart": "2026-02-24T08:00:00.000Z",
      "dutyEnd": "2026-02-25T08:00:00.000Z"
    },
    {
      "id": "antalya-20",
      "name": "KÜBRA ECZANESİ",
      "address": "KALE MAH. ALAADDIN KEYKUBAT BULVARI NO6/B KONAKLI",
      "phone": "02427420098",
      "district": "Manavgat",
      "city": "Antalya",
      "latitude": 36.781069,
      "longitude": 31.454378,
      "dutyStart": "2026-02-24T08:00:00.000Z",
      "dutyEnd": "2026-02-25T08:00:00.000Z"
    },
    {
      "id": "antalya-21",
      "name": "TUĞÇE SUNTUR ECZANESİ",
      "address": "ÖRNEK MAH.1528 SOK.11/C 75.YIL İLKÖĞRETİM OKULU KARŞISI 6 NO'LU SAĞLIK OCAĞI YANI",
      "phone": "02427421764",
      "district": "Antalya",
      "city": "Antalya",
      "latitude": 36.77963907265491,
      "longitude": 31.42784798618524,
      "dutyStart": "2026-02-24T08:00:00.000Z",
      "dutyEnd": "2026-02-25T08:00:00.000Z"
    },
    {
      "id": "antalya-22",
      "name": "GÜLENDAM ECZANESİ",
      "address": "SORGUN MAHALLESİ 8002.SOKAK NO:55/A MANAVGAT/ANTALYA (MANAVGAT OTOGAR KARŞISI)",
      "phone": "02426434466",
      "district": "Antalya",
      "city": "Antalya",
      "latitude": 37.067801031279906,
      "longitude": 30.19906908273697,
      "dutyStart": "2026-02-24T08:00:00.000Z",
      "dutyEnd": "2026-02-25T08:00:00.000Z"
    },
    {
      "id": "antalya-23",
      "name": "MELİS ECZANESİ",
      "address": "KIREMITLI MH. BURDUR CD. TOYKARA IS MERKEZI 22/5",
      "phone": "02426182218",
      "district": "Antalya",
      "city": "Antalya",
      "latitude": 36.7419377360546,
      "longitude": 29.913314703371725,
      "dutyStart": "2026-02-24T08:00:00.000Z",
      "dutyEnd": "2026-02-25T08:00:00.000Z"
    },
    {
      "id": "antalya-24",
      "name": "KAŞ DERMAN ECZANESİ",
      "address": "CAMIATIK MH.SELAHATTIN TOPÇU CD.NO:4/A",
      "phone": "02428454282",
      "district": "Kaş",
      "city": "Antalya",
      "latitude": 36.3122832293,
      "longitude": 29.7402890573,
      "dutyStart": "2026-02-24T08:00:00.000Z",
      "dutyEnd": "2026-02-25T08:00:00.000Z"
    },
    {
      "id": "antalya-25",
      "name": "BUKET ECZANESİ",
      "address": "KINIK MAH.GÖL CAD.KÜÇÜK SANAYİ SİTESİ E BLK.NO:30-5/1",
      "phone": "02428443321",
      "district": "Antalya",
      "city": "Antalya",
      "latitude": 36.2662191294,
      "longitude": 29.4133954935,
      "dutyStart": "2026-02-24T08:00:00.000Z",
      "dutyEnd": "2026-02-25T08:00:00.000Z"
    },
    {
      "id": "antalya-26",
      "name": "KUMSAL ECZANESİ",
      "address": "MENTESE MH. CUMHURIYET CD. NO:4/A KALKAN",
      "phone": "05065168913",
      "district": "Antalya",
      "city": "Antalya",
      "latitude": 36.199636,
      "longitude": 29.660008,
      "dutyStart": "2026-02-24T08:00:00.000Z",
      "dutyEnd": "2026-02-25T08:00:00.000Z"
    },
    {
      "id": "antalya-27",
      "name": "ATA ECZANESİ",
      "address": "ANDİFLİ MAH. FEVZİ GÜRSOY SOK. NO:1A /1 KAŞ ANTALYA",
      "phone": "02428721717",
      "district": "Antalya",
      "city": "Antalya",
      "latitude": 36.24387065891574,
      "longitude": 30.016880460103103,
      "dutyStart": "2026-02-24T08:00:00.000Z",
      "dutyEnd": "2026-02-25T08:00:00.000Z"
    },
    {
      "id": "antalya-28",
      "name": "YENİ NUR ECZANESİ",
      "address": "BEYMELEK MAH. ÇAYBAŞI SOK. NO:8/B DEMRE (HASTAHANE YOLU)",
      "phone": "02428551454",
      "district": "Antalya",
      "city": "Antalya",
      "latitude": 36.304723,
      "longitude": 30.148494,
      "dutyStart": "2026-02-24T08:00:00.000Z",
      "dutyEnd": "2026-02-25T08:00:00.000Z"
    },
    {
      "id": "antalya-29",
      "name": "ÇOBAN NEFES ECZANESİ",
      "address": "KUM MAH. 142. SOKAK. NO:1/1 FİNİKE ANTALYA",
      "phone": "02428522852",
      "district": "Antalya",
      "city": "Antalya",
      "latitude": 36.34747183393795,
      "longitude": 30.1190659757708,
      "dutyStart": "2026-02-24T08:00:00.000Z",
      "dutyEnd": "2026-02-25T08:00:00.000Z"
    },
    {
      "id": "antalya-30",
      "name": "EMRE ECZANESİ",
      "address": "**(GECE SAAT 23.59'A KADAR AÇIK)**",
      "phone": "05303680780",
      "district": "Antalya",
      "city": "Antalya",
      "latitude": 36.33840391978616,
      "longitude": 30.213528624479277,
      "dutyStart": "2026-02-24T08:00:00.000Z",
      "dutyEnd": "2026-02-25T08:00:00.000Z"
    },
    {
      "id": "antalya-31",
      "name": "GÜL ECZANESİ",
      "address": "**(GECE SAAT 23.59'A KADAR AÇIK)**",
      "phone": "02428873535",
      "district": "Kumluca",
      "city": "Antalya",
      "latitude": 36.37714650068728,
      "longitude": 30.298967284022005,
      "dutyStart": "2026-02-24T08:00:00.000Z",
      "dutyEnd": "2026-02-25T08:00:00.000Z"
    },
    {
      "id": "antalya-32",
      "name": "ŞEN ECZANESİ",
      "address": "KASAPÇAYIRI MAH. KANUNİ SOK. NO:7/11 KUMLUCA",
      "phone": "02428248044",
      "district": "Kemer",
      "city": "Antalya",
      "latitude": 36.60039563038189,
      "longitude": 30.561137795448303,
      "dutyStart": "2026-02-24T08:00:00.000Z",
      "dutyEnd": "2026-02-25T08:00:00.000Z"
    },
    {
      "id": "antalya-33",
      "name": "ORÇUN ECZANESİ",
      "address": "MERKEZ MAH.ATATÜRK CAD. NO:13/AB KEMER",
      "phone": "02428151085",
      "district": "Antalya",
      "city": "Antalya",
      "latitude": 36.91949471685039,
      "longitude": 31.110074541785366,
      "dutyStart": "2026-02-24T08:00:00.000Z",
      "dutyEnd": "2026-02-25T08:00:00.000Z"
    },
    {
      "id": "antalya-34",
      "name": "BELEK DİLEK ECZANESİ",
      "address": "YENİ MAH. HÜRRİYET CAD. NO:112-B//B 722 73 46 HAL YOLU GAFFAR DEĞİRMEN KARŞISI SERİK",
      "phone": "02427153311",
      "district": "Antalya",
      "city": "Antalya",
      "latitude": 36.862727,
      "longitude": 31.058128,
      "dutyStart": "2026-02-24T08:00:00.000Z",
      "dutyEnd": "2026-02-25T08:00:00.000Z"
    },
    {
      "id": "antalya-35",
      "name": "FAHRİ OĞUZ ECZANESİ",
      "address": "BELEK MAH. VATAN CAD. NO:4/A SERİK ANTALYA (GECE SAAT 02:00'A KADAR AÇIK)",
      "phone": "02425724567",
      "district": "Antalya",
      "city": "Antalya",
      "latitude": 36.27219741796862,
      "longitude": 32.30914682149887,
      "dutyStart": "2026-02-24T08:00:00.000Z",
      "dutyEnd": "2026-02-25T08:00:00.000Z"
    },
    {
      "id": "antalya-36",
      "name": "MERKEZ ECZANESİ",
      "address": "CUMHURIYET MAH.HASTANE CAD.NO:9/1 GAZİPAŞA",
      "phone": "02426781184",
      "district": "Akseki",
      "city": "Antalya",
      "latitude": 37.046704329412094,
      "longitude": 31.789321303367615,
      "dutyStart": "2026-02-24T08:00:00.000Z",
      "dutyEnd": "2026-02-25T08:00:00.000Z"
    },
    {
      "id": "antalya-37",
      "name": "0 242 311 03 29",
      "address": "ÖMER DURAK CAD. NO:42/7",
      "phone": "02423110329",
      "district": "Antalya",
      "city": "Antalya",
      "latitude": 36.876696,
      "longitude": 30.735134,
      "dutyStart": "2026-02-24T08:00:00.000Z",
      "dutyEnd": "2026-02-25T08:00:00.000Z"
    }
  ]
}