{
  "city": "bursa",
  "cityName": "Bursa",
  "cityId": 16,
  "date": "2026-02-24",
  "updatedAt": "2026-02-24T02:00:25.595Z",
  "count": 31,
  "pharmacies": [
    {
      "id": "bursa-0",
      "name": "ÖZLEM TATALLAR ECZANESİ",
      "address": "BEŞEVLER MAH. BEŞEVLER CAD. NO:106/B,  (KARAFATMA HEYKELİ YANI - DİŞ HASTANESİ KARŞISI) ,  0224 452 16 06",
      "phone": "02244521606",
      "district": "NİLÜFER",
      "city": "Bursa",
      "latitude": 40.2082902,
      "longitude": 28.971115599999962,
      "dutyStart": "2026-02-23T18:30:00.000Z",
      "dutyEnd": "2026-02-24T08:30:00.000Z"
    },
    {
      "id": "bursa-1",
      "name": "ÖZGEM ECZANESİ",
      "address": "ATAEVLER MAH. NENE HATUN CAD. NEŞEPARK NO:17/H ,  (MAGAZİN AVM VE ÖZEN GROSS MARKET KARŞISI) ,  0224 503 56 16",
      "phone": "02245035616",
      "district": "NİLÜFER",
      "city": "Bursa",
      "latitude": 40.22032294971632,
      "longitude": 28.9580218911854,
      "dutyStart": "2026-02-23T18:30:00.000Z",
      "dutyEnd": "2026-02-24T08:30:00.000Z"
    },
    {
      "id": "bursa-2",
      "name": "SAYGINKENT ECZANESİ",
      "address": "100.YIL MAH. PROF.DR. ERDAL İNÖNÜ CAD. NO:11,  (SAYGINKENT İŞ MERKEZİ H-BLOK ) ,  0224 413 34 32 / 0530 824 16 58",
      "phone": "02244133432",
      "district": "NİLÜFER",
      "city": "Bursa",
      "latitude": 40.223141,
      "longitude": 28.902782,
      "dutyStart": "2026-02-23T18:30:00.000Z",
      "dutyEnd": "2026-02-24T08:30:00.000Z"
    },
    {
      "id": "bursa-3",
      "name": "NİLÜFER PARK ECZANESİ",
      "address": "KONAK MAH. BARIŞ SOK. KONAK BUTİK-2 SİTESİ NO:8/D,  (ÖZEL NİLÜFER DORUK HASTANESİ ARKA GİRİŞ KAPISI KARŞISI) ,  0224 502 11 14",
      "phone": "02245021114",
      "district": "NİLÜFER",
      "city": "Bursa",
      "latitude": 40.20974196343837,
      "longitude": 28.991286543171075,
      "dutyStart": "2026-02-23T18:30:00.000Z",
      "dutyEnd": "2026-02-24T08:30:00.000Z"
    },
    {
      "id": "bursa-4",
      "name": "UYAR SAĞLIK ECZANESİ",
      "address": "ESENTEPE MAH. GÜRLER CAD. NO:92/A,  (CARREFOURSA SUPER YANI) ,  0543 183 55 16",
      "phone": "05431835516",
      "district": "NİLÜFER",
      "city": "Bursa",
      "latitude": 40.2258,
      "longitude": 28.983809,
      "dutyStart": "2026-02-23T18:30:00.000Z",
      "dutyEnd": "2026-02-24T08:30:00.000Z"
    },
    {
      "id": "bursa-5",
      "name": "GÖRÜKLE ECZANESİ",
      "address": "GÖRÜKLE DUMLUPINAR MAH. ATATÜRK CAD. NO:46/A,  (GÖRÜKLE ASM KARŞISI) ,  0224 483 21 28",
      "phone": "02244832128",
      "district": "NİLÜFER",
      "city": "Bursa",
      "latitude": 40.22950488,
      "longitude": 28.84232998,
      "dutyStart": "2026-02-23T18:30:00.000Z",
      "dutyEnd": "2026-02-24T08:30:00.000Z"
    },
    {
      "id": "bursa-6",
      "name": "GÖRSEL ECZANESİ",
      "address": "İSTİKLAL MAH. İSTİKLAL CAD. NO:15/A,  (ŞEHİT TOLGA TAŞTAN İLKOKULU KARŞISI) ,  0224 245 62 45",
      "phone": "02242456245",
      "district": "OSMANGAZİ",
      "city": "Bursa",
      "latitude": 40.222296080978005,
      "longitude": 29.006627148610928,
      "dutyStart": "2026-02-23T18:30:00.000Z",
      "dutyEnd": "2026-02-24T08:30:00.000Z"
    },
    {
      "id": "bursa-7",
      "name": "VATAN ECZANESİ",
      "address": "HÜDAVENDİGAR MAH. 1.KANAL CAD. NO:36/B,  (HÜDAVENDİGAR MUHTARLIK KARŞISI - OSMANGAZİ İLÇE SAĞ. MÜD. YANI) ,  0224 234 60 92",
      "phone": "02242346092",
      "district": "OSMANGAZİ",
      "city": "Bursa",
      "latitude": 40.20128594140163,
      "longitude": 29.011243784927704,
      "dutyStart": "2026-02-23T18:30:00.000Z",
      "dutyEnd": "2026-02-24T08:30:00.000Z"
    },
    {
      "id": "bursa-8",
      "name": "ÖZVARLIK ECZANESİ",
      "address": "ATICILAR MAH. DAVUT SOK. NO:15,  (ATICILAR SAĞLIK OCAĞI KARŞISI) ,  0224-2733301 / 0224 2732999",
      "phone": "02242733301",
      "district": "OSMANGAZİ",
      "city": "Bursa",
      "latitude": 40.20209609,
      "longitude": 29.08082664,
      "dutyStart": "2026-02-23T18:30:00.000Z",
      "dutyEnd": "2026-02-24T08:30:00.000Z"
    },
    {
      "id": "bursa-9",
      "name": "EMEK MERKEZ ECZANESİ",
      "address": "EMEK ADNAN MENDERES MAH. T.ÖZAL CAD. NO:70/A,  (EMEK POLİS MERKEZİ AMİRLİĞİ YUKARISI) ,  0224 999 56 81",
      "phone": "02249995681",
      "district": "OSMANGAZİ",
      "city": "Bursa",
      "latitude": 40.258368,
      "longitude": 28.962245,
      "dutyStart": "2026-02-23T18:30:00.000Z",
      "dutyEnd": "2026-02-24T08:30:00.000Z"
    },
    {
      "id": "bursa-10",
      "name": "TOKOĞLU ECZANESİ",
      "address": "ALAADDİN MAH. PROF.ORHAN KARMIŞ CAD. NO:1/C,  (MURADİYE DEVLET VE ALİ OSMAN SÖNMEZ ONKOLOJİ HASTANESİ YANI) ,  0224 222 91 82",
      "phone": "02242229182",
      "district": "OSMANGAZİ",
      "city": "Bursa",
      "latitude": 40.18637743,
      "longitude": 29.0533179,
      "dutyStart": "2026-02-23T18:30:00.000Z",
      "dutyEnd": "2026-02-24T08:30:00.000Z"
    },
    {
      "id": "bursa-11",
      "name": "GÜNEŞTEPE ŞİFA ECZANESİ",
      "address": "GÜNEŞTEPE MAH. 10.GÜNEY SOK. NO:15/A,  (GÜNEŞTEPE CAMİ KARŞISI) ,  0224 573 93 59",
      "phone": "02245739359",
      "district": "OSMANGAZİ",
      "city": "Bursa",
      "latitude": 40.25022103239176,
      "longitude": 29.005011320114136,
      "dutyStart": "2026-02-23T18:30:00.000Z",
      "dutyEnd": "2026-02-24T08:30:00.000Z"
    },
    {
      "id": "bursa-12",
      "name": "MELİS ECZANESİ",
      "address": "EĞİTİM MAH. PROF.TEZOK CAD. NO:132,  (MESKEN YOLU 3.OTOBÜS DURAĞI ÖNÜ) ,  0224 363 29 16",
      "phone": "02243632916",
      "district": "YILDIRIM",
      "city": "Bursa",
      "latitude": 40.18409268,
      "longitude": 29.1100949,
      "dutyStart": "2026-02-23T18:30:00.000Z",
      "dutyEnd": "2026-02-24T08:30:00.000Z"
    },
    {
      "id": "bursa-13",
      "name": "YAZICI SAĞLIK ECZANESİ",
      "address": "75.YIL MAH. YAZICI CAD. NO:52/A,  (ALİ YAZICI CAMİ YANI - 75.YIL ASM KARŞISI) ,  0224 342 12 02",
      "phone": "02243421202",
      "district": "YILDIRIM",
      "city": "Bursa",
      "latitude": 40.183672,
      "longitude": 29.146887,
      "dutyStart": "2026-02-23T18:30:00.000Z",
      "dutyEnd": "2026-02-24T08:30:00.000Z"
    },
    {
      "id": "bursa-14",
      "name": "SAHRA ECZANESİ",
      "address": "YUNUS EMRE MAH. KIRKPINAR CAD. NO:93,  (YUNUSEMRE SAĞLIK OCAĞI KARŞISI) ,  0224 241 61 88",
      "phone": "02242416188",
      "district": "YILDIRIM",
      "city": "Bursa",
      "latitude": 40.19987025,
      "longitude": 29.10363883,
      "dutyStart": "2026-02-23T18:30:00.000Z",
      "dutyEnd": "2026-02-24T08:30:00.000Z"
    },
    {
      "id": "bursa-15",
      "name": "YENİ ORHAN ECZANESİ",
      "address": "ORHAN MAH. DR.İBRAHİM ÖKTEM CAD. NO:35 ,  0506 226 03 44 ,  Eczaneyi haritada görüntülemek için tıklayınız...",
      "phone": "05062260344",
      "district": "BÜYÜKORHAN",
      "city": "Bursa",
      "latitude": 39.775043,
      "longitude": 28.881995,
      "dutyStart": "2026-02-23T19:00:00.000Z",
      "dutyEnd": "2026-02-24T08:30:00.000Z"
    },
    {
      "id": "bursa-16",
      "name": "ERATA ECZANESİ",
      "address": "OSMANİYE MAH. ESKİ PAZAR CAD. NO:23/B ,  0224 513 35 52 ,  Eczaneyi haritada görüntülemek için tıklayınız...",
      "phone": "02245133552",
      "district": "GEMLİK",
      "city": "Bursa",
      "latitude": 40.4334552186323,
      "longitude": 29.158817338322056,
      "dutyStart": "2026-02-23T18:30:00.000Z",
      "dutyEnd": "2026-02-24T08:30:00.000Z"
    },
    {
      "id": "bursa-17",
      "name": "GÜLŞAH ECZANESİ",
      "address": "KURTULUŞ MAH. ATATÜRK CAD. NO:130 ,  0224-3719020 ,  Eczaneyi haritada görüntülemek için tıklayınız...",
      "phone": "02243719020",
      "district": "GÜRSU",
      "city": "Bursa",
      "latitude": 40.211832,
      "longitude": 29.192106999999965,
      "dutyStart": "2026-02-23T18:30:00.000Z",
      "dutyEnd": "2026-02-24T09:00:00.000Z"
    },
    {
      "id": "bursa-18",
      "name": "DERMAN ECZANESİ",
      "address": "MERKEZ MAH. FEVZİ PAŞA CAD. NO:11/1 ,  0224-8812295 ,  Eczaneyi haritada görüntülemek için tıklayınız...",
      "phone": "02248812295",
      "district": "HARMANCIK",
      "city": "Bursa",
      "latitude": 39.679107,
      "longitude": 29.155259,
      "dutyStart": "2026-02-23T18:00:00.000Z",
      "dutyEnd": "2026-02-24T08:30:00.000Z"
    },
    {
      "id": "bursa-19",
      "name": "SAĞLIK ECZANESİ",
      "address": "SÜLEYMANİYE MAH. KOYUNCU SOK. NO:8/2 ,  0224-7135005 ,  Eczaneyi haritada görüntülemek için tıklayınız...",
      "phone": "02247135005",
      "district": "İNEGÖL",
      "city": "Bursa",
      "latitude": 40.08538799999999,
      "longitude": 29.50641900000005,
      "dutyStart": "2026-02-23T18:00:00.000Z",
      "dutyEnd": "2026-02-24T08:30:00.000Z"
    },
    {
      "id": "bursa-20",
      "name": "YENİ ECZANESİ",
      "address": "YENİ MAH. KILIÇASLAN CAD. NO:134 ,  0224 757 24 25 ,  Eczaneyi haritada görüntülemek için tıklayınız...",
      "phone": "02247572425",
      "district": "İZNİK",
      "city": "Bursa",
      "latitude": 40.42921094982254,
      "longitude": 29.72274899482727,
      "dutyStart": "2026-02-23T18:30:00.000Z",
      "dutyEnd": "2026-02-24T08:30:00.000Z"
    },
    {
      "id": "bursa-21",
      "name": "ŞİFA ECZANESİ",
      "address": "TAVŞANLI MAH. BURSA CAD. SAİT ÖZER APT. ALTI NO:5/A ,  0224 676 11 47 / 2246764571 ,  Eczaneyi haritada görüntülemek için tıklayınız...",
      "phone": "02246761147",
      "district": "KARACABEY",
      "city": "Bursa",
      "latitude": 40.215545,
      "longitude": 28.358911000000035,
      "dutyStart": "2026-02-23T18:00:00.000Z",
      "dutyEnd": "2026-02-24T08:30:00.000Z"
    },
    {
      "id": "bursa-22",
      "name": "ŞİFA ECZANESİ",
      "address": "CUMA MAH. ATATÜRK CAD. ÇARŞI İÇİ NO:3/B ,  0224 861 21 64 ,  Eczaneyi haritada görüntülemek için tıklayınız...",
      "phone": "02248612164",
      "district": "KELES",
      "city": "Bursa",
      "latitude": 39.91276107279525,
      "longitude": 29.233170631710127,
      "dutyStart": "2026-02-23T18:00:00.000Z",
      "dutyEnd": "2026-02-24T08:30:00.000Z"
    },
    {
      "id": "bursa-23",
      "name": "HARUN ECZANESİ",
      "address": "VANİ MEHMET MAH. ŞEHİT MUSTAFA KURT CAD. NO:13/A ,  0224 372 21 28 ,  Eczaneyi haritada görüntülemek için tıklayınız...",
      "phone": "02243722128",
      "district": "KESTEL",
      "city": "Bursa",
      "latitude": 40.196873,
      "longitude": 29.215825,
      "dutyStart": "2026-02-23T18:00:00.000Z",
      "dutyEnd": "2026-02-24T08:30:00.000Z"
    },
    {
      "id": "bursa-24",
      "name": "YENİ SAĞLIK ECZANESİ",
      "address": "GÜZELYALI MAH. FUNDA SOK. AYSAY APT. C-BLOK NO:5 ,  2245542712 ,  Eczaneyi haritada görüntülemek için tıklayınız...",
      "phone": "2245542712",
      "district": "MUDANYA",
      "city": "Bursa",
      "latitude": 40.3543998,
      "longitude": 28.928767,
      "dutyStart": "2026-02-23T18:00:00.000Z",
      "dutyEnd": "2026-02-24T08:30:00.000Z"
    },
    {
      "id": "bursa-25",
      "name": "MERKEZ ŞİFA ECZANESİ",
      "address": "MÜTAREKE MAH. MUSTAFAKEMALPAŞA CAD. NO:46 ,  0224 544 10 35 ,  Eczaneyi haritada görüntülemek için tıklayınız...",
      "phone": "02245441035",
      "district": "MUDANYA",
      "city": "Bursa",
      "latitude": 40.378979,
      "longitude": 28.88080100000002,
      "dutyStart": "2026-02-23T18:00:00.000Z",
      "dutyEnd": "2026-02-24T08:30:00.000Z"
    },
    {
      "id": "bursa-26",
      "name": "MERKEZ ECZANESİ",
      "address": "LALAŞAHİN MAH. HACI EMİN IŞIKOĞLU ÇIKMAZI NO:30 ,  0224-6122960 ,  Eczaneyi haritada görüntülemek için tıklayınız...",
      "phone": "02246122960",
      "district": "MUSTAFAKEMALPAŞA",
      "city": "Bursa",
      "latitude": 40.034176,
      "longitude": 28.413869999999974,
      "dutyStart": "2026-02-23T18:00:00.000Z",
      "dutyEnd": "2026-02-24T08:30:00.000Z"
    },
    {
      "id": "bursa-27",
      "name": "ORAL ECZANESİ",
      "address": "İSMETPAŞA MAH. HASTANE SOK. NO:1 ,  0224 817 11 07 ,  Eczaneyi haritada görüntülemek için tıklayınız...",
      "phone": "02248171107",
      "district": "ORHANELİ",
      "city": "Bursa",
      "latitude": 39.906719,
      "longitude": 28.988620999999966,
      "dutyStart": "2026-02-23T18:00:00.000Z",
      "dutyEnd": "2026-02-24T08:30:00.000Z"
    },
    {
      "id": "bursa-28",
      "name": "ÖZGÜR ECZANESİ",
      "address": "ARAPZADE MAH. FINDIKLI YOLU CAD. NO:40/A ,  0224 573 38 48 ,  Eczaneyi haritada görüntülemek için tıklayınız...",
      "phone": "02245733848",
      "district": "ORHANGAZİ",
      "city": "Bursa",
      "latitude": 40.49780420890997,
      "longitude": 29.2983216047287,
      "dutyStart": "2026-02-23T18:00:00.000Z",
      "dutyEnd": "2026-02-24T08:30:00.000Z"
    },
    {
      "id": "bursa-29",
      "name": "OKUMUŞ ECZANESİ",
      "address": "DEMİRTAŞ DUMLUPINAR MAH. 47.CAD. NO:76/B,  (DOSAB SEMT POLİKLİNİĞİ KARŞISI) ,  0224 262 11 44",
      "phone": "02242621144",
      "district": "OSMANGAZİ",
      "city": "Bursa",
      "latitude": 40.2703946595204,
      "longitude": 29.08002734184265,
      "dutyStart": "2026-02-23T18:30:00.000Z",
      "dutyEnd": "2026-02-24T08:30:00.000Z"
    },
    {
      "id": "bursa-30",
      "name": "DEVA ECZANESİ",
      "address": "YENİGÜN MAH. İZNİK CAD. ALİCAN APT. NO:27/D ,  0224 773 39 62 ,  Eczaneyi haritada görüntülemek için tıklayınız...",
      "phone": "02247733962",
      "district": "YENİŞEHİR",
      "city": "Bursa",
      "latitude": 40.26866,
      "longitude": 29.652327000000014,
      "dutyStart": "2026-02-23T18:00:00.000Z",
      "dutyEnd": "2026-02-24T08:00:00.000Z"
    }
  ]
}