{
  "city": "istanbul",
  "cityName": "İstanbul",
  "cityId": 34,
  "date": "2026-02-24",
  "updatedAt": "2026-02-24T10:00:22.149Z",
  "count": 134,
  "pharmacies": [
    {
      "id": "istanbul-31874",
      "name": "AKAR ECZANESİ",
      "address": "Piri Mehmet Paşa Mahallesi, Bakaner Sokak, 3B",
      "phone": "+902127271279",
      "district": "SİLİVRİ",
      "city": "İstanbul",
      "latitude": 41.07872500033568,
      "longitude": 28.238029000471577,
      "dutyStart": "2026-02-23T21:00:00.000Z",
      "dutyEnd": "2026-02-24T20:59:59.000Z"
    },
    {
      "id": "istanbul-36808",
      "name": "AKŞEMSETTİN ECZANESİ",
      "address": "Akşemsettin Mahallesi, Cengiz Topel Caddesi, 84/A",
      "phone": "+905334371234",
      "district": "EYÜPSULTAN",
      "city": "İstanbul",
      "latitude": 41.08516900007112,
      "longitude": 28.927037000122205,
      "dutyStart": "2026-02-23T21:00:00.000Z",
      "dutyEnd": "2026-02-24T20:59:59.000Z"
    },
    {
      "id": "istanbul-23758",
      "name": "ALİÇELEBİ ECZANESİ",
      "address": "75. Yıl Mahallesi Istıklal Caddesi 14/C",
      "phone": "+902126501578",
      "district": "SULTANGAZİ",
      "city": "İstanbul",
      "latitude": 41.09673978838091,
      "longitude": 28.907428359152565,
      "dutyStart": "2026-02-23T21:00:00.000Z",
      "dutyEnd": "2026-02-24T20:59:59.000Z"
    },
    {
      "id": "istanbul-28316",
      "name": "ARYA ECZANESİ",
      "address": "Soğanlı Mahallesi, Mustafa Kemalpaşa Caddesi, 141/A",
      "phone": "+902126423828",
      "district": "BAHÇELİEVLER",
      "city": "İstanbul",
      "latitude": 41.01394078512505,
      "longitude": 28.85717101837729,
      "dutyStart": "2026-02-23T21:00:00.000Z",
      "dutyEnd": "2026-02-24T20:59:59.000Z"
    },
    {
      "id": "istanbul-35554",
      "name": "ASLAN ECZANESİ ",
      "address": "Barbaros Mahallesi, 167. Sokak, No:6/A",
      "phone": "+902125500321",
      "district": "BAĞCILAR",
      "city": "İstanbul",
      "latitude": 41.02977100021048,
      "longitude": 28.83903800014027,
      "dutyStart": "2026-02-23T21:00:00.000Z",
      "dutyEnd": "2026-02-24T20:59:59.000Z"
    },
    {
      "id": "istanbul-17990",
      "name": "ASRIN DENİZ ECZANESİ",
      "address": "Emek Mahallesi, Mehmet Akif Ersoy Caddesi, 9/1",
      "phone": "+902166216393",
      "district": "SANCAKTEPE",
      "city": "İstanbul",
      "latitude": 41.003557740701225,
      "longitude": 29.199525833681786,
      "dutyStart": "2026-02-23T21:00:00.000Z",
      "dutyEnd": "2026-02-24T20:59:59.000Z"
    },
    {
      "id": "istanbul-26262",
      "name": "AVRUPA ECZANESİ",
      "address": "Halaskargazi Mahallesi, Zafer Sokak, 18/12",
      "phone": "+902122303234",
      "district": "ŞİŞLİ",
      "city": "İstanbul",
      "latitude": 41.05076800008571,
      "longitude": 28.98863399990794,
      "dutyStart": "2026-02-23T21:00:00.000Z",
      "dutyEnd": "2026-02-24T20:59:59.000Z"
    },
    {
      "id": "istanbul-27380",
      "name": "AYDEMİR ECZANESİ",
      "address": "İçerenköy Mahallesi, Sonbahar Sokak, 46/B",
      "phone": "+902169990674",
      "district": "ATAŞEHİR",
      "city": "İstanbul",
      "latitude": 40.96889050949491,
      "longitude": 29.11434469679014,
      "dutyStart": "2026-02-23T21:00:00.000Z",
      "dutyEnd": "2026-02-24T20:59:59.000Z"
    },
    {
      "id": "istanbul-12928",
      "name": "AYNUR ECZANESİ",
      "address": "Güzeltepe Mahallesi, Namazgah Caddesi, 51A",
      "phone": "+902164226333",
      "district": "ÜSKÜDAR",
      "city": "İstanbul",
      "latitude": 41.04641440752225,
      "longitude": 29.075994752957367,
      "dutyStart": "2026-02-23T21:00:00.000Z",
      "dutyEnd": "2026-02-24T20:59:59.000Z"
    },
    {
      "id": "istanbul-18444",
      "name": "AYSUN ECZANESİ",
      "address": "Şirinevler Mahallesi, Mareşal Fevzi Çakmak Caddesi, 5/A",
      "phone": "+902124515104",
      "district": "BAHÇELİEVLER",
      "city": "İstanbul",
      "latitude": 40.99258967158281,
      "longitude": 28.845394258993966,
      "dutyStart": "2026-02-23T21:00:00.000Z",
      "dutyEnd": "2026-02-24T20:59:59.000Z"
    },
    {
      "id": "istanbul-26496",
      "name": "AZRA NİHAN ECZANESİ",
      "address": "Altayçeşme Mahallesi, Saldıray Sokak, 2A",
      "phone": "+902166296517",
      "district": "MALTEPE",
      "city": "İstanbul",
      "latitude": 40.93546699961989,
      "longitude": 29.124243999702422,
      "dutyStart": "2026-02-23T21:00:00.000Z",
      "dutyEnd": "2026-02-24T20:59:59.000Z"
    },
    {
      "id": "istanbul-28190",
      "name": "AİLE ECZANESİ",
      "address": "Mustafa Kemal Paşa Mahallesi, Eski Edirne Asfaltı Caddesi, No:1548 D7 Kat:1",
      "phone": "+905388996022",
      "district": "ARNAVUTKÖY",
      "city": "İstanbul",
      "latitude": 41.18546048296583,
      "longitude": 28.725106430605813,
      "dutyStart": "2026-02-23T21:00:00.000Z",
      "dutyEnd": "2026-02-24T20:59:59.000Z"
    },
    {
      "id": "istanbul-32738",
      "name": "BATUHAN ECZANESİ",
      "address": "Küçükyalı Merkez Mahallesi, Ahmet Kutsi Tecer Sokak, 19/B",
      "phone": "+905073883050",
      "district": "MALTEPE",
      "city": "İstanbul",
      "latitude": 40.94643400014624,
      "longitude": 29.11002400003432,
      "dutyStart": "2026-02-23T21:00:00.000Z",
      "dutyEnd": "2026-02-24T20:59:59.000Z"
    },
    {
      "id": "istanbul-30518",
      "name": "BAYRAM ECZANESİ",
      "address": "Cihangir Mahallesi, Şükran Sokak, No:18/A",
      "phone": "+902125900712",
      "district": "AVCILAR",
      "city": "İstanbul",
      "latitude": 40.98999242673917,
      "longitude": 28.712879314959604,
      "dutyStart": "2026-02-23T21:00:00.000Z",
      "dutyEnd": "2026-02-24T20:59:59.000Z"
    },
    {
      "id": "istanbul-15062",
      "name": "BAŞAKŞEHİR ECZANESİ",
      "address": "Başakşehir Mahallesi, Cihangir Sokak, 1. Etap Kiptaş Çarşı No:13/B2",
      "phone": "+905559926767",
      "district": "BAŞAKŞEHİR",
      "city": "İstanbul",
      "latitude": 41.10372626808275,
      "longitude": 28.792011026375377,
      "dutyStart": "2026-02-23T21:00:00.000Z",
      "dutyEnd": "2026-02-24T20:59:59.000Z"
    },
    {
      "id": "istanbul-18482",
      "name": "BOZKIR ECZANESİ",
      "address": "Telsiz Mahallesi, 86/1. Sokak, 7/C",
      "phone": "+902124162747",
      "district": "ZEYTİNBURNU",
      "city": "İstanbul",
      "latitude": 40.99741700033872,
      "longitude": 28.91260999972065,
      "dutyStart": "2026-02-23T21:00:00.000Z",
      "dutyEnd": "2026-02-24T20:59:59.000Z"
    },
    {
      "id": "istanbul-26470",
      "name": "BOZTEMUR ECZANESİ",
      "address": "Mustafa Kemal Paşa Mahallesi, Firuzköy Bulvarı, 113A",
      "phone": "+905511974493",
      "district": "AVCILAR",
      "city": "İstanbul",
      "latitude": 41.002252331719845,
      "longitude": 28.71018930304695,
      "dutyStart": "2026-02-23T21:00:00.000Z",
      "dutyEnd": "2026-02-24T20:59:59.000Z"
    },
    {
      "id": "istanbul-23612",
      "name": "BUHARA ECZANESİ",
      "address": "İncirköy Mahallesi, Fabrika Yanı Sokak, 38",
      "phone": "+902163225852",
      "district": "BEYKOZ",
      "city": "İstanbul",
      "latitude": 41.11859600205816,
      "longitude": 29.105562000090256,
      "dutyStart": "2026-02-23T21:00:00.000Z",
      "dutyEnd": "2026-02-24T20:59:59.000Z"
    },
    {
      "id": "istanbul-2338",
      "name": "BURGAZADA ECZANESİ",
      "address": "Burgazadası Mahallesi, Çınarlık Sokak, 3",
      "phone": "+902163812112",
      "district": "ADALAR",
      "city": "İstanbul",
      "latitude": 40.87998754997831,
      "longitude": 29.06919493887321,
      "dutyStart": "2026-02-23T21:00:00.000Z",
      "dutyEnd": "2026-02-24T20:59:59.000Z"
    },
    {
      "id": "istanbul-24280",
      "name": "BÜYÜK ÜSKÜDAR ECZANESİ",
      "address": "Mimar Sinan Mahallesi, Selami Ali Efendi Caddesi, No:5A",
      "phone": "+902163344004",
      "district": "ÜSKÜDAR",
      "city": "İstanbul",
      "latitude": 41.024734288293594,
      "longitude": 29.016881829600653,
      "dutyStart": "2026-02-23T21:00:00.000Z",
      "dutyEnd": "2026-02-24T20:59:59.000Z"
    },
    {
      "id": "istanbul-16056",
      "name": "CADDE 360 ECZANESİ",
      "address": "Caddebostan Mahallesi, Bağdat Caddesi, 327/A",
      "phone": "+902163580968",
      "district": "KADIKÖY",
      "city": "İstanbul",
      "latitude": 40.96537915545746,
      "longitude": 29.07182291495403,
      "dutyStart": "2026-02-23T21:00:00.000Z",
      "dutyEnd": "2026-02-24T20:59:59.000Z"
    },
    {
      "id": "istanbul-34290",
      "name": "CADDE ECZANESİ",
      "address": "Harmantepe Mahallesi, Talatpaşa Caddesi, 257/A",
      "phone": "+902124298422",
      "district": "KAĞITHANE",
      "city": "İstanbul",
      "latitude": 41.08108687829516,
      "longitude": 28.99242321740941,
      "dutyStart": "2026-02-23T21:00:00.000Z",
      "dutyEnd": "2026-02-24T20:59:59.000Z"
    },
    {
      "id": "istanbul-22302",
      "name": "CADDEPARK ECZANESİ",
      "address": "Cennet Mahallesi, Yahya Kemal Beyatlı Caddesi, 25-27A",
      "phone": "+902125402010",
      "district": "KÜÇÜKÇEKMECE",
      "city": "İstanbul",
      "latitude": 40.992156000306665,
      "longitude": 28.78028800018199,
      "dutyStart": "2026-02-23T21:00:00.000Z",
      "dutyEnd": "2026-02-24T20:59:59.000Z"
    },
    {
      "id": "istanbul-19908",
      "name": "CAN ECZANESİ",
      "address": "Nispetiye Mahallesi, Fecri Ebcioğlu Sokak, 5A",
      "phone": "+902122806930",
      "district": "BEŞİKTAŞ",
      "city": "İstanbul",
      "latitude": 41.07453289224484,
      "longitude": 29.01881559266765,
      "dutyStart": "2026-02-23T21:00:00.000Z",
      "dutyEnd": "2026-02-24T20:59:59.000Z"
    },
    {
      "id": "istanbul-22688",
      "name": "CAĞALOĞLU ECZANESİ",
      "address": "Hocapaşa Mahallesi, Ankara Caddesi, 13/C",
      "phone": "+902125205503",
      "district": "FATİH",
      "city": "İstanbul",
      "latitude": 41.01225470369685,
      "longitude": 28.97526109789217,
      "dutyStart": "2026-02-23T21:00:00.000Z",
      "dutyEnd": "2026-02-24T20:59:59.000Z"
    },
    {
      "id": "istanbul-18054",
      "name": "CEBECİ ECZANESİ",
      "address": "Cebeci Mahallesi, 1. Cebecı Yolu Caddesi, 98/1",
      "phone": "+902124750492",
      "district": "SULTANGAZİ",
      "city": "İstanbul",
      "latitude": 41.1099331503743,
      "longitude": 28.870577719678874,
      "dutyStart": "2026-02-23T21:00:00.000Z",
      "dutyEnd": "2026-02-24T20:59:59.000Z"
    },
    {
      "id": "istanbul-18126",
      "name": "CEMİL ECZANESİ",
      "address": "Orta Mahallesi, Kaptanıderya Caddesi, 40/B",
      "phone": "+902163770848",
      "district": "KARTAL",
      "city": "İstanbul",
      "latitude": 40.912987233869224,
      "longitude": 29.202934477380857,
      "dutyStart": "2026-02-23T21:00:00.000Z",
      "dutyEnd": "2026-02-24T20:59:59.000Z"
    },
    {
      "id": "istanbul-18840",
      "name": "DENİZ ECZANESİ",
      "address": "Feneryolu Mahallesi, Bağdat Caddesi, 73B",
      "phone": "+902163481128",
      "district": "KADIKÖY",
      "city": "İstanbul",
      "latitude": 40.9806885702923,
      "longitude": 29.042546983505034,
      "dutyStart": "2026-02-23T21:00:00.000Z",
      "dutyEnd": "2026-02-24T20:59:59.000Z"
    },
    {
      "id": "istanbul-17256",
      "name": "DENİZ ECZANESİ",
      "address": "Yeşilköy Mahallesi, Yeşilköy İstanbul Caddesi, 79/D",
      "phone": "+902126633773",
      "district": "BAKIRKÖY",
      "city": "İstanbul",
      "latitude": 40.95969890565727,
      "longitude": 28.835554551680328,
      "dutyStart": "2026-02-23T21:00:00.000Z",
      "dutyEnd": "2026-02-24T20:59:59.000Z"
    },
    {
      "id": "istanbul-17288",
      "name": "DEVA ECZANESİ",
      "address": "Kumbaba Mahallesi, Ayvalık Caddesi, 1/1",
      "phone": "+902167122023",
      "district": "ŞİLE",
      "city": "İstanbul",
      "latitude": 41.16516189811898,
      "longitude": 29.581553404784398,
      "dutyStart": "2026-02-23T21:00:00.000Z",
      "dutyEnd": "2026-02-24T20:59:59.000Z"
    },
    {
      "id": "istanbul-11052",
      "name": "DEVA ECZANESİ",
      "address": "Halkalı Merkez Mahallesi, Mahmutbey Caddesi, 15",
      "phone": "+902124712626",
      "district": "KÜÇÜKÇEKMECE",
      "city": "İstanbul",
      "latitude": 41.03587155563943,
      "longitude": 28.790646033667226,
      "dutyStart": "2026-02-23T21:00:00.000Z",
      "dutyEnd": "2026-02-24T20:59:59.000Z"
    },
    {
      "id": "istanbul-31238",
      "name": "DEYYAROĞLU ECZANESİ",
      "address": "Çarşı Mahallesi, Yakakent Caddesi, 15-A",
      "phone": "+902166710988",
      "district": "KARTAL",
      "city": "İstanbul",
      "latitude": 40.91903300034093,
      "longitude": 29.222322000161455,
      "dutyStart": "2026-02-23T21:00:00.000Z",
      "dutyEnd": "2026-02-24T20:59:59.000Z"
    },
    {
      "id": "istanbul-25162",
      "name": "DOĞA ECZANESİ",
      "address": "Mehmet Akif Mahallesi, Ziya Ülhak Caddesi, 102A",
      "phone": "+902164193406",
      "district": "SULTANBEYLİ",
      "city": "İstanbul",
      "latitude": 40.958130053807835,
      "longitude": 29.266144458504844,
      "dutyStart": "2026-02-23T21:00:00.000Z",
      "dutyEnd": "2026-02-24T20:59:59.000Z"
    },
    {
      "id": "istanbul-33406",
      "name": "EBRAR ECZANESİ",
      "address": "Batı Mahallesi, Dr. Orhan Maltepe Caddesi, No: 11",
      "phone": "+902164832160",
      "district": "PENDİK",
      "city": "İstanbul",
      "latitude": 40.87691374326683,
      "longitude": 29.229315647111854,
      "dutyStart": "2026-02-23T21:00:00.000Z",
      "dutyEnd": "2026-02-24T20:59:59.000Z"
    },
    {
      "id": "istanbul-22980",
      "name": "EKİN ECZANESİ",
      "address": "Atatürk Mahallesi, Demokrasi Caddesi, 62/B",
      "phone": "+902166208107",
      "district": "SANCAKTEPE",
      "city": "İstanbul",
      "latitude": 41.012792296741054,
      "longitude": 29.21923601494149,
      "dutyStart": "2026-02-23T21:00:00.000Z",
      "dutyEnd": "2026-02-24T20:59:59.000Z"
    },
    {
      "id": "istanbul-23878",
      "name": "ERDEM ECZANESİ",
      "address": "Atakent Mahallesi, 237. Sokak, 2",
      "phone": "+902126969400",
      "district": "KÜÇÜKÇEKMECE",
      "city": "İstanbul",
      "latitude": 41.03721887598553,
      "longitude": 28.77191214675855,
      "dutyStart": "2026-02-23T21:00:00.000Z",
      "dutyEnd": "2026-02-24T20:59:59.000Z"
    },
    {
      "id": "istanbul-12122",
      "name": "ERKAM ECZANESİ",
      "address": "Kanarya Mahallesi Balıkçın Caddesi 3/B",
      "phone": "+902125980023",
      "district": "KÜÇÜKÇEKMECE",
      "city": "İstanbul",
      "latitude": 41.01150336628624,
      "longitude": 28.777229144477765,
      "dutyStart": "2026-02-23T21:00:00.000Z",
      "dutyEnd": "2026-02-24T20:59:59.000Z"
    },
    {
      "id": "istanbul-24488",
      "name": "ESİNTİ ECZANESİ",
      "address": "Sultan Selim Mahallesi, Şahinler Caddesi, 6A",
      "phone": "+902122835900",
      "district": "KAĞITHANE",
      "city": "İstanbul",
      "latitude": 41.092243221414165,
      "longitude": 29.00162100733805,
      "dutyStart": "2026-02-23T21:00:00.000Z",
      "dutyEnd": "2026-02-24T20:59:59.000Z"
    },
    {
      "id": "istanbul-29716",
      "name": "FATİH ECZANESİ",
      "address": "Kurtköy Mahallesi, Emir Sokak, 10/A",
      "phone": "+905536544726",
      "district": "PENDİK",
      "city": "İstanbul",
      "latitude": 40.913895000278025,
      "longitude": 29.30062800014523,
      "dutyStart": "2026-02-23T21:00:00.000Z",
      "dutyEnd": "2026-02-24T20:59:59.000Z"
    },
    {
      "id": "istanbul-27056",
      "name": "FATİH ECZANESİ",
      "address": "Yeşilkent Mahallesi, 2011. Sokak, 16/B",
      "phone": "+905469675450",
      "district": "ESENYURT",
      "city": "İstanbul",
      "latitude": 41.02638400020265,
      "longitude": 28.65894399953042,
      "dutyStart": "2026-02-23T21:00:00.000Z",
      "dutyEnd": "2026-02-24T20:59:59.000Z"
    },
    {
      "id": "istanbul-5614",
      "name": "FİLİZ ECZANESİ",
      "address": "Kartaltepe Mahallesi, Filiz Sokak, 47/A",
      "phone": "+902124663635",
      "district": "BAKIRKÖY",
      "city": "İstanbul",
      "latitude": 40.98371436210902,
      "longitude": 28.876726396458828,
      "dutyStart": "2026-02-23T21:00:00.000Z",
      "dutyEnd": "2026-02-24T20:59:59.000Z"
    },
    {
      "id": "istanbul-20592",
      "name": "GEYLANİ ECZANESİ",
      "address": "Barış Mahallesi, Palmiye Sokak, 4D",
      "phone": "+902128529433",
      "district": "BEYLİKDÜZÜ",
      "city": "İstanbul",
      "latitude": 40.99897802402166,
      "longitude": 28.64925384562914,
      "dutyStart": "2026-02-23T21:00:00.000Z",
      "dutyEnd": "2026-02-24T20:59:59.000Z"
    },
    {
      "id": "istanbul-23366",
      "name": "GONCA ECZANESİ",
      "address": "Kocasinan Merkez Mahallesi, Mahmutbey Caddesi, 160/B",
      "phone": "+902128431040",
      "district": "BAHÇELİEVLER",
      "city": "İstanbul",
      "latitude": 41.006093999623964,
      "longitude": 28.841481000282283,
      "dutyStart": "2026-02-23T21:00:00.000Z",
      "dutyEnd": "2026-02-24T20:59:59.000Z"
    },
    {
      "id": "istanbul-27210",
      "name": "GÖKTÜRK ECZANESİ",
      "address": "Acıbadem Mahallesi, Sarayardı Caddesi, 1/B",
      "phone": "+902163255017",
      "district": "KADIKÖY",
      "city": "İstanbul",
      "latitude": 40.99797191142388,
      "longitude": 29.03267104284607,
      "dutyStart": "2026-02-23T21:00:00.000Z",
      "dutyEnd": "2026-02-24T20:59:59.000Z"
    },
    {
      "id": "istanbul-32976",
      "name": "GÜLERYÜZ ECZANESİ",
      "address": "Dizdariye Mahallesi, Nutuk Caddesi, 7/A-3",
      "phone": "+902128817070",
      "district": "BÜYÜKÇEKMECE",
      "city": "İstanbul",
      "latitude": 41.023423881812235,
      "longitude": 28.581438742265863,
      "dutyStart": "2026-02-23T21:00:00.000Z",
      "dutyEnd": "2026-02-24T20:59:59.000Z"
    },
    {
      "id": "istanbul-25708",
      "name": "GÜLHANE ECZANESİ",
      "address": "Kavaklı Mahallesi, Olimpiyat Caddesi, 35/2D-12",
      "phone": "+902128775690",
      "district": "BEYLİKDÜZÜ",
      "city": "İstanbul",
      "latitude": 40.98088059300546,
      "longitude": 28.661620810334597,
      "dutyStart": "2026-02-23T21:00:00.000Z",
      "dutyEnd": "2026-02-24T20:59:59.000Z"
    },
    {
      "id": "istanbul-31936",
      "name": "GÜNEŞ ECZANESİ",
      "address": "Havaalanı Mahallesi, Taşocağı Caddesi, 13/B",
      "phone": "+902126283695",
      "district": "ESENLER",
      "city": "İstanbul",
      "latitude": 41.05498399989995,
      "longitude": 28.869633999518985,
      "dutyStart": "2026-02-23T21:00:00.000Z",
      "dutyEnd": "2026-02-24T20:59:59.000Z"
    },
    {
      "id": "istanbul-15102",
      "name": "GÜNGÖR ECZANESİ",
      "address": "Esenkent Mahallesi, Süleyman Demirel Caddesi, 4",
      "phone": "+902126729401",
      "district": "ESENYURT",
      "city": "İstanbul",
      "latitude": 41.05691453114632,
      "longitude": 28.672246212158377,
      "dutyStart": "2026-02-23T21:00:00.000Z",
      "dutyEnd": "2026-02-24T20:59:59.000Z"
    },
    {
      "id": "istanbul-29790",
      "name": "GİZEM ECZANESİ",
      "address": "Erenköy Mahallesi, Erenköy İstasyon Caddesi, 35/E",
      "phone": "+902162083291",
      "district": "KADIKÖY",
      "city": "İstanbul",
      "latitude": 40.97523900013182,
      "longitude": 29.079445000540247,
      "dutyStart": "2026-02-23T21:00:00.000Z",
      "dutyEnd": "2026-02-24T20:59:59.000Z"
    },
    {
      "id": "istanbul-22538",
      "name": "HAYAT ECZANESİ",
      "address": "Akevler Mahallesi, 1057. Sokak, 10A",
      "phone": "+902124502316",
      "district": "ESENYURT",
      "city": "İstanbul",
      "latitude": 41.021045789172895,
      "longitude": 28.67500332424837,
      "dutyStart": "2026-02-23T21:00:00.000Z",
      "dutyEnd": "2026-02-24T20:59:59.000Z"
    },
    {
      "id": "istanbul-26206",
      "name": "HAZAL ECZANESİ",
      "address": "Bağlarçeşme Mahallesi, 1168. Sokak, 1D",
      "phone": "+902126999996",
      "district": "ESENYURT",
      "city": "İstanbul",
      "latitude": 41.03319765691971,
      "longitude": 28.67629404605867,
      "dutyStart": "2026-02-23T21:00:00.000Z",
      "dutyEnd": "2026-02-24T20:59:59.000Z"
    },
    {
      "id": "istanbul-6296",
      "name": "HEYBELİADA ECZANESİ",
      "address": "Heybeliada Mahallesi, Ayyıldız Caddesi, No:25/D",
      "phone": "+902163518415",
      "district": "ADALAR",
      "city": "İstanbul",
      "latitude": 40.87751817989951,
      "longitude": 29.1001562048735,
      "dutyStart": "2026-02-23T21:00:00.000Z",
      "dutyEnd": "2026-02-24T20:59:59.000Z"
    },
    {
      "id": "istanbul-26986",
      "name": "HOROZ ECZANESİ",
      "address": "Aydınlı Mahallesi, Bahçeler Sokak, 2/B",
      "phone": "+905446548352",
      "district": "TUZLA",
      "city": "İstanbul",
      "latitude": 40.87104162452576,
      "longitude": 29.326027295485932,
      "dutyStart": "2026-02-23T21:00:00.000Z",
      "dutyEnd": "2026-02-24T20:59:59.000Z"
    },
    {
      "id": "istanbul-12696",
      "name": "HİJENYA ECZANESİ",
      "address": "Şenlikköy Mahallesi Yeşilköy Caddesi Flyinn Alışveriş Merkezi, 48",
      "phone": "+902125743082",
      "district": "BAKIRKÖY",
      "city": "İstanbul",
      "latitude": 40.973212021192104,
      "longitude": 28.804277678753987,
      "dutyStart": "2026-02-23T21:00:00.000Z",
      "dutyEnd": "2026-02-24T20:59:59.000Z"
    },
    {
      "id": "istanbul-27986",
      "name": "IHLAMUR ECZANESİ",
      "address": "İslambey Mahallesi, İslambey Caddesi, 91/A",
      "phone": "+902124179545",
      "district": "EYÜPSULTAN",
      "city": "İstanbul",
      "latitude": 41.052528999728466,
      "longitude": 28.924296999609847,
      "dutyStart": "2026-02-23T21:00:00.000Z",
      "dutyEnd": "2026-02-24T20:59:59.000Z"
    },
    {
      "id": "istanbul-31418",
      "name": "KARE ECZANESİ",
      "address": "Dumlupınar Mahallesi, Barış Sokak, 7AF Bağımsız Bölüm:183",
      "phone": "+905333724039",
      "district": "KADIKÖY",
      "city": "İstanbul",
      "latitude": 40.99474315747395,
      "longitude": 29.05843186215045,
      "dutyStart": "2026-02-23T21:00:00.000Z",
      "dutyEnd": "2026-02-24T20:59:59.000Z"
    },
    {
      "id": "istanbul-22296",
      "name": "KAĞAN ECZANESİ",
      "address": "50. Yıl Mahallesi, 2162. Sokak, 22",
      "phone": "+902126681817",
      "district": "SULTANGAZİ",
      "city": "İstanbul",
      "latitude": 41.09164410863371,
      "longitude": 28.86912579302915,
      "dutyStart": "2026-02-23T21:00:00.000Z",
      "dutyEnd": "2026-02-24T20:59:59.000Z"
    },
    {
      "id": "istanbul-32286",
      "name": "KINALI ECZANESİ(V)",
      "address": "Kınalıada Mahallesi, Çarşı Caddesi, 20/A",
      "phone": "+902163814098",
      "district": "ADALAR",
      "city": "İstanbul",
      "latitude": 40.90800100012437,
      "longitude": 29.055135999790647,
      "dutyStart": "2026-02-23T21:00:00.000Z",
      "dutyEnd": "2026-02-24T20:59:59.000Z"
    },
    {
      "id": "istanbul-27270",
      "name": "KORU ECZANESİ",
      "address": "Barbaros Mahallesi, Tophanelioğlu Caddesi, D2 BLOK 72B/I",
      "phone": "+902167712796",
      "district": "ÜSKÜDAR",
      "city": "İstanbul",
      "latitude": 41.01337030472595,
      "longitude": 29.040472941576347,
      "dutyStart": "2026-02-23T21:00:00.000Z",
      "dutyEnd": "2026-02-24T20:59:59.000Z"
    },
    {
      "id": "istanbul-34986",
      "name": "KOÇ ECZANESİ",
      "address": "Güven Mahallesi, Lalezar Sokak, 7/A",
      "phone": "+902126445973",
      "district": "GÜNGÖREN",
      "city": "İstanbul",
      "latitude": 41.01127900027069,
      "longitude": 28.876011999995374,
      "dutyStart": "2026-02-23T21:00:00.000Z",
      "dutyEnd": "2026-02-24T20:59:59.000Z"
    },
    {
      "id": "istanbul-19276",
      "name": "KUMKÖY ECZANESİ",
      "address": "Kilyos Mahallesi, Turban Caddesi, 3A",
      "phone": "+902122012456",
      "district": "SARIYER",
      "city": "İstanbul",
      "latitude": 41.245281360302045,
      "longitude": 29.036742641996362,
      "dutyStart": "2026-02-23T21:00:00.000Z",
      "dutyEnd": "2026-02-24T20:59:59.000Z"
    },
    {
      "id": "istanbul-21800",
      "name": "KÜÇÜKBAKKALKÖY ECZANESİ",
      "address": "Küçükbakkalköy Mahallesi, Kayışdağı Caddesi, No:115/C",
      "phone": "+902166292200",
      "district": "ATAŞEHİR",
      "city": "İstanbul",
      "latitude": 40.97840500024746,
      "longitude": 29.120991999639795,
      "dutyStart": "2026-02-23T21:00:00.000Z",
      "dutyEnd": "2026-02-24T20:59:59.000Z"
    },
    {
      "id": "istanbul-24800",
      "name": "LAVANTA ECZANESİ",
      "address": "Mevlana Mahallesi, Evliya Çelebi Caddesi, 4/4",
      "phone": "+902128533593",
      "district": "ESENYURT",
      "city": "İstanbul",
      "latitude": 41.01207499999481,
      "longitude": 28.65383199947438,
      "dutyStart": "2026-02-23T21:00:00.000Z",
      "dutyEnd": "2026-02-24T20:59:59.000Z"
    },
    {
      "id": "istanbul-32496",
      "name": "LOTUS ECZANESİ",
      "address": "Yayla Mahallesi, Vatan Caddesi, 72/1/5",
      "phone": "+902167595689",
      "district": "TUZLA",
      "city": "İstanbul",
      "latitude": 40.82728600033362,
      "longitude": 29.30740099968289,
      "dutyStart": "2026-02-23T21:00:00.000Z",
      "dutyEnd": "2026-02-24T20:59:59.000Z"
    },
    {
      "id": "istanbul-29804",
      "name": "MANOLYA ECZANESİ",
      "address": "Gayrettepe Mahallesi, Cemil Arslan Güder Sokak, 4/D",
      "phone": "+902122732043",
      "district": "BEŞİKTAŞ",
      "city": "İstanbul",
      "latitude": 41.06351700004737,
      "longitude": 29.004741000123502,
      "dutyStart": "2026-02-23T21:00:00.000Z",
      "dutyEnd": "2026-02-24T20:59:59.000Z"
    },
    {
      "id": "istanbul-26480",
      "name": "MANZARA ADALAR ECZANESİ",
      "address": "Karlıktepe Mahallesi, Yakacık Caddesi, 67B-2",
      "phone": "+905416299524",
      "district": "KARTAL",
      "city": "İstanbul",
      "latitude": 40.895588999960566,
      "longitude": 29.198902999564744,
      "dutyStart": "2026-02-23T21:00:00.000Z",
      "dutyEnd": "2026-02-24T20:59:59.000Z"
    },
    {
      "id": "istanbul-18008",
      "name": "MARMARA ECZANESİ",
      "address": "Merkez Mahallesi, Madalyon Sokak, 13/A",
      "phone": "+902126168228",
      "district": "GAZİOSMANPAŞA",
      "city": "İstanbul",
      "latitude": 41.05727914823959,
      "longitude": 28.916572220981482,
      "dutyStart": "2026-02-23T21:00:00.000Z",
      "dutyEnd": "2026-02-24T20:59:59.000Z"
    },
    {
      "id": "istanbul-22826",
      "name": "MARMARA FORUM ECZANESİ",
      "address": "Osmaniye Mahallesi, Çoban Çeşme Sokak, No:3, Marmara Forum AVM S-Blok Zemin Kat 025B",
      "phone": "+902124666424",
      "district": "BAKIRKÖY",
      "city": "İstanbul",
      "latitude": 40.997383507642766,
      "longitude": 28.88553325368737,
      "dutyStart": "2026-02-23T21:00:00.000Z",
      "dutyEnd": "2026-02-24T20:59:59.000Z"
    },
    {
      "id": "istanbul-33872",
      "name": "MARİPOSA ECZANESİ ",
      "address": "Rasimpaşa Mahallesi, Rıhtım Caddesi, No:46/A",
      "phone": "+905071144423",
      "district": "KADIKÖY",
      "city": "İstanbul",
      "latitude": 40.994341000156005,
      "longitude": 29.025132999887102,
      "dutyStart": "2026-02-23T21:00:00.000Z",
      "dutyEnd": "2026-02-24T20:59:59.000Z"
    },
    {
      "id": "istanbul-33632",
      "name": "MAVİ ECZANESİ",
      "address": "Yunus Emre Mahallesi, Kemalpaşa Caddesi, 37/A",
      "phone": "+902128308476",
      "district": "ESENYURT",
      "city": "İstanbul",
      "latitude": 41.02368299971924,
      "longitude": 28.69159699949788,
      "dutyStart": "2026-02-23T21:00:00.000Z",
      "dutyEnd": "2026-02-24T20:59:59.000Z"
    },
    {
      "id": "istanbul-28690",
      "name": "MAVİGÖL BÜŞRA ECZANESİ",
      "address": "Mavigöl Mahallesi, Koca Yusuf Cad., 11/A",
      "phone": "+902128032876",
      "district": "ARNAVUTKÖY",
      "city": "İstanbul",
      "latitude": 41.200954504838556,
      "longitude": 28.765049819419406,
      "dutyStart": "2026-02-23T21:00:00.000Z",
      "dutyEnd": "2026-02-24T20:59:59.000Z"
    },
    {
      "id": "istanbul-14288",
      "name": "MAY ECZANESİ",
      "address": "Bağcılar Merkez Mahallesi, Dr. Sadık Ahmet Caddesi, 70/A",
      "phone": "+902124106060",
      "district": "BAĞCILAR",
      "city": "İstanbul",
      "latitude": 41.02986001830722,
      "longitude": 28.86952205191781,
      "dutyStart": "2026-02-23T21:00:00.000Z",
      "dutyEnd": "2026-02-24T20:59:59.000Z"
    },
    {
      "id": "istanbul-24452",
      "name": "MECİDİYEKÖY SAĞLIK ECZANESİ",
      "address": "Mecidiyeköy Mahallesi, Damla Sokak, 2/C",
      "phone": "+902122747558",
      "district": "ŞİŞLİ",
      "city": "İstanbul",
      "latitude": 41.06726985774089,
      "longitude": 29.000734981218617,
      "dutyStart": "2026-02-23T21:00:00.000Z",
      "dutyEnd": "2026-02-24T20:59:59.000Z"
    },
    {
      "id": "istanbul-27624",
      "name": "MEGAPOL ECZANESİ",
      "address": "Göztepe Mahallesi, 2312. Sokak, 26A",
      "phone": "+902124450510",
      "district": "BAĞCILAR",
      "city": "İstanbul",
      "latitude": 41.05754699995921,
      "longitude": 28.843520000044172,
      "dutyStart": "2026-02-23T21:00:00.000Z",
      "dutyEnd": "2026-02-24T20:59:59.000Z"
    },
    {
      "id": "istanbul-11722",
      "name": "MERKEZ ECZANESİ",
      "address": "Yeni Mahallesi, Azra Sokak, 5/B",
      "phone": "+902127274285",
      "district": "SİLİVRİ",
      "city": "İstanbul",
      "latitude": 41.07382615577134,
      "longitude": 28.24610219148664,
      "dutyStart": "2026-02-23T21:00:00.000Z",
      "dutyEnd": "2026-02-24T20:59:59.000Z"
    },
    {
      "id": "istanbul-20108",
      "name": "MUMCU ECZANESİ",
      "address": "Cumhuriyet Mahallesi, İncirli Dede Caddesi, 8/26",
      "phone": "+902128122111",
      "district": "ŞİŞLİ",
      "city": "İstanbul",
      "latitude": 41.05762899990667,
      "longitude": 28.974970999731127,
      "dutyStart": "2026-02-23T21:00:00.000Z",
      "dutyEnd": "2026-02-24T20:59:59.000Z"
    },
    {
      "id": "istanbul-31540",
      "name": "MİLLET ECZANESİ",
      "address": "Şehremini Mahallesi, Turgut Özal Millet Caddesi, 135/A",
      "phone": "+902129246343",
      "district": "FATİH",
      "city": "İstanbul",
      "latitude": 41.01535516807489,
      "longitude": 28.932617344347676,
      "dutyStart": "2026-02-23T21:00:00.000Z",
      "dutyEnd": "2026-02-24T20:59:59.000Z"
    },
    {
      "id": "istanbul-32886",
      "name": "MİMAROBA ECZANESİ",
      "address": "Mimaroba Mahallesi, Mustafa Kemal Bulvarı, No:20/A İç Kapı No:3",
      "phone": "+902128635452",
      "district": "BÜYÜKÇEKMECE",
      "city": "İstanbul",
      "latitude": 41.007244000221526,
      "longitude": 28.537877999945483,
      "dutyStart": "2026-02-23T21:00:00.000Z",
      "dutyEnd": "2026-02-24T20:59:59.000Z"
    },
    {
      "id": "istanbul-23826",
      "name": "MİNERAL ECZANESİ",
      "address": "Kemal Türkler Mahallesi, Osmangazi Caddesi, 23",
      "phone": "+902166220289",
      "district": "SANCAKTEPE",
      "city": "İstanbul",
      "latitude": 41.00587600002001,
      "longitude": 29.21611500010904,
      "dutyStart": "2026-02-23T21:00:00.000Z",
      "dutyEnd": "2026-02-24T20:59:59.000Z"
    },
    {
      "id": "istanbul-24512",
      "name": "NANE ECZANESİ",
      "address": "Ayazağa Mahallesi, 117. Sokak, 10D",
      "phone": "+902123320234",
      "district": "SARIYER",
      "city": "İstanbul",
      "latitude": 41.11683717497485,
      "longitude": 28.99860955750217,
      "dutyStart": "2026-02-23T21:00:00.000Z",
      "dutyEnd": "2026-02-24T20:59:59.000Z"
    },
    {
      "id": "istanbul-25154",
      "name": "NAR ECZANESİ",
      "address": "Hürriyet Mahallesi, 255. Sokak, 10-12B",
      "phone": "+902124770793",
      "district": "GAZİOSMANPAŞA",
      "city": "İstanbul",
      "latitude": 41.0657617602168,
      "longitude": 28.900264829059466,
      "dutyStart": "2026-02-23T21:00:00.000Z",
      "dutyEnd": "2026-02-24T20:59:59.000Z"
    },
    {
      "id": "istanbul-32978",
      "name": "NEFES ECZANESİ",
      "address": "Esatpaşa Mahallesi, Adnan Menderes Caddesi, 44/48",
      "phone": "+902166501001",
      "district": "ATAŞEHİR",
      "city": "İstanbul",
      "latitude": 41.00302375167372,
      "longitude": 29.081267453121654,
      "dutyStart": "2026-02-23T21:00:00.000Z",
      "dutyEnd": "2026-02-24T20:59:59.000Z"
    },
    {
      "id": "istanbul-39054",
      "name": "NİNOVA ECZANESİ",
      "address": "Güneşli Mahallesi, Fevzi Çakmak Caddesi, 70A",
      "phone": "+902125500282",
      "district": "BAĞCILAR",
      "city": "İstanbul",
      "latitude": 41.039757000373214,
      "longitude": 28.825185999860583,
      "dutyStart": "2026-02-23T21:00:00.000Z",
      "dutyEnd": "2026-02-24T20:59:59.000Z"
    },
    {
      "id": "istanbul-32334",
      "name": "NİŞANTEPE ECZANESİ",
      "address": "Nişantepe Mahallesi, Saray Caddesi, No:268B",
      "phone": "+902165044477",
      "district": "ÇEKMEKÖY",
      "city": "İstanbul",
      "latitude": 41.042931593337045,
      "longitude": 29.271982311795416,
      "dutyStart": "2026-02-23T21:00:00.000Z",
      "dutyEnd": "2026-02-24T20:59:59.000Z"
    },
    {
      "id": "istanbul-18410",
      "name": "OKYANUS ECZANESİ",
      "address": "Çakmak Mahallesi, Tavukçuyolu Caddesi, 23/A",
      "phone": "+902165400035",
      "district": "ÜMRANİYE",
      "city": "İstanbul",
      "latitude": 41.01913826382394,
      "longitude": 29.12593503520611,
      "dutyStart": "2026-02-23T21:00:00.000Z",
      "dutyEnd": "2026-02-24T20:59:59.000Z"
    },
    {
      "id": "istanbul-32690",
      "name": "ONUR ECZANESİ",
      "address": "Göktürk Merkez Mahallesi, Çamlık Caddesi, 7/B",
      "phone": "+902123222080",
      "district": "EYÜPSULTAN",
      "city": "İstanbul",
      "latitude": 41.17826940820841,
      "longitude": 28.892958607814574,
      "dutyStart": "2026-02-23T21:00:00.000Z",
      "dutyEnd": "2026-02-24T20:59:59.000Z"
    },
    {
      "id": "istanbul-20800",
      "name": "ORYAPARK ECZANESİ",
      "address": "Saray Mahallesi, Küçüksu Caddesi, 60-1B/15",
      "phone": "+902166115050",
      "district": "ÜMRANİYE",
      "city": "İstanbul",
      "latitude": 41.031423936080806,
      "longitude": 29.108657241354557,
      "dutyStart": "2026-02-23T21:00:00.000Z",
      "dutyEnd": "2026-02-24T20:59:59.000Z"
    },
    {
      "id": "istanbul-15912",
      "name": "ORÇUN ECZANESİ",
      "address": "Tarabya Mahallesi, Arabayolu Caddesi, 230/A",
      "phone": "+902122232222",
      "district": "SARIYER",
      "city": "İstanbul",
      "latitude": 41.141701387628636,
      "longitude": 29.04791113817478,
      "dutyStart": "2026-02-23T21:00:00.000Z",
      "dutyEnd": "2026-02-24T20:59:59.000Z"
    },
    {
      "id": "istanbul-24006",
      "name": "PLEVNE ECZANESİ",
      "address": "Mevlana Mahallesi, İbrahim Hayırlıoğlu Caddesi, 6/3",
      "phone": "+902128235343",
      "district": "GAZİOSMANPAŞA",
      "city": "İstanbul",
      "latitude": 41.08612000039133,
      "longitude": 28.909915000505,
      "dutyStart": "2026-02-23T21:00:00.000Z",
      "dutyEnd": "2026-02-24T20:59:59.000Z"
    },
    {
      "id": "istanbul-35224",
      "name": "RÜVEYDA ECZANESİ",
      "address": "Piyalepaşa Mahallesi, Piyalepaşa Caddesi, No:7/B",
      "phone": "+902122530198",
      "district": "BEYOĞLU",
      "city": "İstanbul",
      "latitude": 41.04543433772618,
      "longitude": 28.963982537055525,
      "dutyStart": "2026-02-23T21:00:00.000Z",
      "dutyEnd": "2026-02-24T20:59:59.000Z"
    },
    {
      "id": "istanbul-15198",
      "name": "SAFA ECZANESİ",
      "address": "Hürriyet Mahallesi, Dr. Cemil Bengü Caddesi, 43/B",
      "phone": "+902122318163",
      "district": "KAĞITHANE",
      "city": "İstanbul",
      "latitude": 41.07192552706676,
      "longitude": 28.984681608300562,
      "dutyStart": "2026-02-23T21:00:00.000Z",
      "dutyEnd": "2026-02-24T20:59:59.000Z"
    },
    {
      "id": "istanbul-3462",
      "name": "SAMATYA ECZANESİ",
      "address": "Cerrahpaşa Mahallesi, Koca Mustafapaşa Caddesi, 44/A",
      "phone": "+902125880010",
      "district": "FATİH",
      "city": "İstanbul",
      "latitude": 41.00686254391818,
      "longitude": 28.941537105377137,
      "dutyStart": "2026-02-23T21:00:00.000Z",
      "dutyEnd": "2026-02-24T20:59:59.000Z"
    },
    {
      "id": "istanbul-34836",
      "name": "SEDA ECZANESİ",
      "address": "Mimar Sinan Mahallesi, Mimar Sinan Caddesi, NO:45/C",
      "phone": "+902165924517",
      "district": "SULTANBEYLİ",
      "city": "İstanbul",
      "latitude": 40.99318999956671,
      "longitude": 29.265297000096165,
      "dutyStart": "2026-02-23T21:00:00.000Z",
      "dutyEnd": "2026-02-24T20:59:59.000Z"
    },
    {
      "id": "istanbul-12384",
      "name": "SEMA ECZANESİ",
      "address": "Atakent Mahallesi, Reşitpaşa Caddesi, 36",
      "phone": "+902165203691",
      "district": "ÜMRANİYE",
      "city": "İstanbul",
      "latitude": 41.017287382534676,
      "longitude": 29.104273299552364,
      "dutyStart": "2026-02-23T21:00:00.000Z",
      "dutyEnd": "2026-02-24T20:59:59.000Z"
    },
    {
      "id": "istanbul-27490",
      "name": "SEMA ECZANESİ",
      "address": "İsmetpaşa Mahallesi, 91. Sokak, 140A",
      "phone": "+902126060705",
      "district": "SULTANGAZİ",
      "city": "İstanbul",
      "latitude": 41.105274513133786,
      "longitude": 28.853720409113567,
      "dutyStart": "2026-02-23T21:00:00.000Z",
      "dutyEnd": "2026-02-24T20:59:59.000Z"
    },
    {
      "id": "istanbul-14012",
      "name": "SEMRA ECZANESİ",
      "address": "Hamidiye Mahallesi, Ulubatlı Hasan Caddesi, 8B/2",
      "phone": "+902163358716",
      "district": "ÇEKMEKÖY",
      "city": "İstanbul",
      "latitude": 41.02169020961307,
      "longitude": 29.192011494522824,
      "dutyStart": "2026-02-23T21:00:00.000Z",
      "dutyEnd": "2026-02-24T20:59:59.000Z"
    },
    {
      "id": "istanbul-16280",
      "name": "SENA ECZANESİ",
      "address": "Atatürk Mahallesi, İkitelli Caddesi, 67/B",
      "phone": "+902126939452",
      "district": "KÜÇÜKÇEKMECE",
      "city": "İstanbul",
      "latitude": 41.04814894995316,
      "longitude": 28.801300499592944,
      "dutyStart": "2026-02-23T21:00:00.000Z",
      "dutyEnd": "2026-02-24T20:59:59.000Z"
    },
    {
      "id": "istanbul-4818",
      "name": "SEZEN ECZANESİ",
      "address": "Şişli Merkez Mahallesi, Abidei Hürriyet Caddesi, 118/B",
      "phone": "+902122911019",
      "district": "ŞİŞLİ",
      "city": "İstanbul",
      "latitude": 41.06209878930089,
      "longitude": 28.987694399729055,
      "dutyStart": "2026-02-23T21:00:00.000Z",
      "dutyEnd": "2026-02-24T20:59:59.000Z"
    },
    {
      "id": "istanbul-39034",
      "name": "SOYLU ECZANESİ",
      "address": "İstiklal Mahallesi, Mithatpaşa Caddesi, 54-56/C",
      "phone": "+902167718733",
      "district": "ÜMRANİYE",
      "city": "İstanbul",
      "latitude": 41.02317299982288,
      "longitude": 29.10423800028532,
      "dutyStart": "2026-02-23T21:00:00.000Z",
      "dutyEnd": "2026-02-24T20:59:59.000Z"
    },
    {
      "id": "istanbul-27144",
      "name": "SUEDA ECZANESİ",
      "address": "Battalgazi Mahallesi, Bosna Bulvarı, 78/A",
      "phone": "+902165927611",
      "district": "SULTANBEYLİ",
      "city": "İstanbul",
      "latitude": 40.9778810002693,
      "longitude": 29.265539999732532,
      "dutyStart": "2026-02-23T21:00:00.000Z",
      "dutyEnd": "2026-02-24T20:59:59.000Z"
    },
    {
      "id": "istanbul-15754",
      "name": "SÖNMEZ ECZANESİ",
      "address": "Yavuz Selim Mahallesi, 202 Caddesi, 25/A",
      "phone": "+902127318515",
      "district": "SİLİVRİ",
      "city": "İstanbul",
      "latitude": 41.054637980067305,
      "longitude": 28.378493863757242,
      "dutyStart": "2026-02-23T21:00:00.000Z",
      "dutyEnd": "2026-02-24T20:59:59.000Z"
    },
    {
      "id": "istanbul-24528",
      "name": "TAKSİM PLUS ECZANESİ",
      "address": "Kocatepe Mahallesi, Cumhuriyet Caddesi, No:15/A",
      "phone": "+902122506060",
      "district": "BEYOĞLU",
      "city": "İstanbul",
      "latitude": 41.04118500032839,
      "longitude": 28.98165400041106,
      "dutyStart": "2026-02-23T21:00:00.000Z",
      "dutyEnd": "2026-02-24T20:59:59.000Z"
    },
    {
      "id": "istanbul-32246",
      "name": "TAŞTAN ECZANESİ",
      "address": "Güvercintepe Mahallesi, Fatih Caddesi, 64/A",
      "phone": "+902123025876",
      "district": "BAŞAKŞEHİR",
      "city": "İstanbul",
      "latitude": 41.077556000412564,
      "longitude": 28.75081399964506,
      "dutyStart": "2026-02-23T21:00:00.000Z",
      "dutyEnd": "2026-02-24T20:59:59.000Z"
    },
    {
      "id": "istanbul-25762",
      "name": "TOPRAK ECZANESİ",
      "address": "Kaynarca Mahallesi, Kafkas Sokak, 5A",
      "phone": "+902165061130",
      "district": "PENDİK",
      "city": "İstanbul",
      "latitude": 40.87212200002108,
      "longitude": 29.264139000112934,
      "dutyStart": "2026-02-23T21:00:00.000Z",
      "dutyEnd": "2026-02-24T20:59:59.000Z"
    },
    {
      "id": "istanbul-19704",
      "name": "TURKUAZ ECZANESİ",
      "address": "Merdivenköy Mahallesi, Ressam Salih Ermez Caddesi, 7/5",
      "phone": "+902165660678",
      "district": "KADIKÖY",
      "city": "İstanbul",
      "latitude": 40.98438816550971,
      "longitude": 29.062381829237548,
      "dutyStart": "2026-02-23T21:00:00.000Z",
      "dutyEnd": "2026-02-24T20:59:59.000Z"
    },
    {
      "id": "istanbul-27754",
      "name": "TUĞÇE ECZANESİ",
      "address": "Adnan Kahveci Mahallesi, Avrupa Caddesi, No:70/2/33",
      "phone": "+902129990116",
      "district": "BEYLİKDÜZÜ",
      "city": "İstanbul",
      "latitude": 41.00218644476542,
      "longitude": 28.619144511710125,
      "dutyStart": "2026-02-23T21:00:00.000Z",
      "dutyEnd": "2026-02-24T20:59:59.000Z"
    },
    {
      "id": "istanbul-12684",
      "name": "TÜLİN ECZANESİ",
      "address": "Zafer Mahallesi, Yıldırım Beyazıt Caddesi, 36/2",
      "phone": "+902125525480",
      "district": "BAHÇELİEVLER",
      "city": "İstanbul",
      "latitude": 40.996264654160086,
      "longitude": 28.835044148817914,
      "dutyStart": "2026-02-23T21:00:00.000Z",
      "dutyEnd": "2026-02-24T20:59:59.000Z"
    },
    {
      "id": "istanbul-14536",
      "name": "TÜRKAN ASLAN ECZANESİ",
      "address": "Fevzi Çakmak Mahallesi, Atışalanı Caddesi, 26/C",
      "phone": "+902125623737",
      "district": "ESENLER",
      "city": "İstanbul",
      "latitude": 41.03901909556475,
      "longitude": 28.882254285943073,
      "dutyStart": "2026-02-23T21:00:00.000Z",
      "dutyEnd": "2026-02-24T20:59:59.000Z"
    },
    {
      "id": "istanbul-27520",
      "name": "TÜRKMEN ECZANESİ",
      "address": "Kayabaşı Mahallesi, Gazi Yaşargil Caddesi, 2AC",
      "phone": "+902128122686",
      "district": "BAŞAKŞEHİR",
      "city": "İstanbul",
      "latitude": 41.12274756737283,
      "longitude": 28.771273509675975,
      "dutyStart": "2026-02-23T21:00:00.000Z",
      "dutyEnd": "2026-02-24T20:59:59.000Z"
    },
    {
      "id": "istanbul-23358",
      "name": "UHUD ECZANESİ",
      "address": "Tozkoparan Mahallesi, Cevat Açıkalın Caddesi, 2/2f",
      "phone": "+902124823747",
      "district": "GÜNGÖREN",
      "city": "İstanbul",
      "latitude": 41.01569563781569,
      "longitude": 28.896171952422158,
      "dutyStart": "2026-02-23T21:00:00.000Z",
      "dutyEnd": "2026-02-24T20:59:59.000Z"
    },
    {
      "id": "istanbul-28928",
      "name": "UYSAL ECZANESİ",
      "address": "Maden Mahallesi, Nalbant Çeşme Caddesi, 37/A",
      "phone": "+902122427579",
      "district": "SARIYER",
      "city": "İstanbul",
      "latitude": 41.17422800026705,
      "longitude": 29.048390000539793,
      "dutyStart": "2026-02-23T21:00:00.000Z",
      "dutyEnd": "2026-02-24T20:59:59.000Z"
    },
    {
      "id": "istanbul-20912",
      "name": "VİTAL ECZANESİ",
      "address": "Suadiye Mahallesi, Cami Sokak, 18/A",
      "phone": "+902163722329",
      "district": "KADIKÖY",
      "city": "İstanbul",
      "latitude": 40.9637941784983,
      "longitude": 29.082133502540326,
      "dutyStart": "2026-02-23T21:00:00.000Z",
      "dutyEnd": "2026-02-24T20:59:59.000Z"
    },
    {
      "id": "istanbul-25180",
      "name": "VİVA ECZANESİ",
      "address": "Kartaltepe Mahallesi, Süvari Caddesi, 4/I",
      "phone": "+902128236333",
      "district": "KÜÇÜKÇEKMECE",
      "city": "İstanbul",
      "latitude": 40.99941800010844,
      "longitude": 28.79768799942971,
      "dutyStart": "2026-02-23T21:00:00.000Z",
      "dutyEnd": "2026-02-24T20:59:59.000Z"
    },
    {
      "id": "istanbul-13966",
      "name": "YALÇIN ECZANESİ",
      "address": "Kayışdağı Mahallesi, Raci Caddesi, 4/B",
      "phone": "+902163146118",
      "district": "ATAŞEHİR",
      "city": "İstanbul",
      "latitude": 40.98754205152302,
      "longitude": 29.14444569502927,
      "dutyStart": "2026-02-23T21:00:00.000Z",
      "dutyEnd": "2026-02-24T20:59:59.000Z"
    },
    {
      "id": "istanbul-33644",
      "name": "YAŞAM ECZANESİ",
      "address": "Osmangazi Mahallesi, Atayolu Caddesi, 10C-D",
      "phone": "+905064667860",
      "district": "SANCAKTEPE",
      "city": "İstanbul",
      "latitude": 40.986002000405904,
      "longitude": 29.231045000351187,
      "dutyStart": "2026-02-23T21:00:00.000Z",
      "dutyEnd": "2026-02-24T20:59:59.000Z"
    },
    {
      "id": "istanbul-32930",
      "name": "YENİ ŞİFA ECZANESİ",
      "address": "Hastane Mahallesi, Ayasofya Caddesi, 39/A",
      "phone": "+902127712200",
      "district": "ARNAVUTKÖY",
      "city": "İstanbul",
      "latitude": 41.15644200002858,
      "longitude": 28.619561000214997,
      "dutyStart": "2026-02-23T21:00:00.000Z",
      "dutyEnd": "2026-02-24T20:59:59.000Z"
    },
    {
      "id": "istanbul-31926",
      "name": "YEŞİL ECZANESİ",
      "address": "Huzur Mahallesi, Karadeniz Caddesi, 36A",
      "phone": "+902166126635",
      "district": "ÜMRANİYE",
      "city": "İstanbul",
      "latitude": 41.02599218633143,
      "longitude": 29.159021657231897,
      "dutyStart": "2026-02-23T21:00:00.000Z",
      "dutyEnd": "2026-02-24T20:59:59.000Z"
    },
    {
      "id": "istanbul-22944",
      "name": "YEŞİLTEPE SİNA ECZANESİ",
      "address": "Yeşiltepe Mahallesi, 56. Sokak, 74/B",
      "phone": "+902126659965",
      "district": "ZEYTİNBURNU",
      "city": "İstanbul",
      "latitude": 40.99157251679066,
      "longitude": 28.897836049965747,
      "dutyStart": "2026-02-23T21:00:00.000Z",
      "dutyEnd": "2026-02-24T20:59:59.000Z"
    },
    {
      "id": "istanbul-22780",
      "name": "YEŞİLÇAY ECZANESİ",
      "address": "Ağva Merkez Mahallesi, Yakuplu Caddesi, 9/C",
      "phone": "+902167218900",
      "district": "ŞİLE",
      "city": "İstanbul",
      "latitude": 41.138169014808206,
      "longitude": 29.85531572932006,
      "dutyStart": "2026-02-23T21:00:00.000Z",
      "dutyEnd": "2026-02-24T20:59:59.000Z"
    },
    {
      "id": "istanbul-31226",
      "name": "YÜKSEL ECZANESİ",
      "address": "Ulus Mahallesi, İstiklal Caddesi, A Blok No:33/C Bağımsız Bölüm:15",
      "phone": "+902128812242",
      "district": "BÜYÜKÇEKMECE",
      "city": "İstanbul",
      "latitude": 41.02833425872214,
      "longitude": 28.547333922169226,
      "dutyStart": "2026-02-23T21:00:00.000Z",
      "dutyEnd": "2026-02-24T20:59:59.000Z"
    },
    {
      "id": "istanbul-25584",
      "name": "ZEHRA ECZANESİ",
      "address": "Atikali Mahallesi, Çarşamba Değirmeni Sokak, 18/A",
      "phone": "+902124910070",
      "district": "FATİH",
      "city": "İstanbul",
      "latitude": 41.02689912365913,
      "longitude": 28.946434557049244,
      "dutyStart": "2026-02-23T21:00:00.000Z",
      "dutyEnd": "2026-02-24T20:59:59.000Z"
    },
    {
      "id": "istanbul-27148",
      "name": "ZENGİN ECZANESİ",
      "address": "Bulgurlu Mahallesi, Söğütlüçayır Caddesi, 20/B",
      "phone": "+902166508052",
      "district": "ÜSKÜDAR",
      "city": "İstanbul",
      "latitude": 41.017236913681344,
      "longitude": 29.080372070096153,
      "dutyStart": "2026-02-23T21:00:00.000Z",
      "dutyEnd": "2026-02-24T20:59:59.000Z"
    },
    {
      "id": "istanbul-3632",
      "name": "ÇATALCA ECZANESİ",
      "address": "Ferhatpaşa Mahallesi, Atatürk Caddesi, 123",
      "phone": "+902127891026",
      "district": "ÇATALCA",
      "city": "İstanbul",
      "latitude": 41.13655496129602,
      "longitude": 28.46529359472974,
      "dutyStart": "2026-02-23T21:00:00.000Z",
      "dutyEnd": "2026-02-24T20:59:59.000Z"
    },
    {
      "id": "istanbul-34828",
      "name": "ÇAĞDAŞ ECZANESİ",
      "address": "Gülensu Mahallesi, Akar Sokak, No:4",
      "phone": "+902164274926",
      "district": "MALTEPE",
      "city": "İstanbul",
      "latitude": 40.93715900280491,
      "longitude": 29.159685999682967,
      "dutyStart": "2026-02-23T21:00:00.000Z",
      "dutyEnd": "2026-02-24T20:59:59.000Z"
    },
    {
      "id": "istanbul-38686",
      "name": "ÇUBUKLU ECZANESİ",
      "address": "Çubuklu Mahallesi, Fırın Sokak, 18/A",
      "phone": "+902166311724",
      "district": "BEYKOZ",
      "city": "İstanbul",
      "latitude": 41.10425799956982,
      "longitude": 29.08291199967657,
      "dutyStart": "2026-02-23T21:00:00.000Z",
      "dutyEnd": "2026-02-24T20:59:59.000Z"
    },
    {
      "id": "istanbul-27408",
      "name": "ÖMÜR ECZANESİ",
      "address": "Yalı Mahallesi, Tufan Sokak, 22B",
      "phone": "+902163065353",
      "district": "KARTAL",
      "city": "İstanbul",
      "latitude": 40.89199788909496,
      "longitude": 29.221097111310453,
      "dutyStart": "2026-02-23T21:00:00.000Z",
      "dutyEnd": "2026-02-24T20:59:59.000Z"
    },
    {
      "id": "istanbul-37588",
      "name": "ÖNDER ECZANESİ",
      "address": "Mimar Sinan Mahallesi, Güngörmüş Sokak, No:35/A",
      "phone": "+902164230025",
      "district": "TUZLA",
      "city": "İstanbul",
      "latitude": 40.84252100025186,
      "longitude": 29.363851999406993,
      "dutyStart": "2026-02-23T21:00:00.000Z",
      "dutyEnd": "2026-02-24T20:59:59.000Z"
    },
    {
      "id": "istanbul-21338",
      "name": "ÖRNEKTEPE ECZANESİ",
      "address": "Örnektepe Mahallesi, Şahadet Camii Sokak, 3/A",
      "phone": "+902123219691",
      "district": "BEYOĞLU",
      "city": "İstanbul",
      "latitude": 41.05942803428751,
      "longitude": 28.952337385589207,
      "dutyStart": "2026-02-23T21:00:00.000Z",
      "dutyEnd": "2026-02-24T20:59:59.000Z"
    },
    {
      "id": "istanbul-28506",
      "name": "ÖZGE SELÇİK ECZANESİ",
      "address": "Mecidiye Mahallesi, Dereboyu Caddesi, 155/A",
      "phone": "+902122596586",
      "district": "BEŞİKTAŞ",
      "city": "İstanbul",
      "latitude": 41.0530119995742,
      "longitude": 29.023371999810397,
      "dutyStart": "2026-02-23T21:00:00.000Z",
      "dutyEnd": "2026-02-24T20:59:59.000Z"
    },
    {
      "id": "istanbul-18406",
      "name": "ÖZLEM ECZANESİ",
      "address": "Turgut Reis Mahallesi, Park Sokak, 14",
      "phone": "+902124312715",
      "district": "ESENLER",
      "city": "İstanbul",
      "latitude": 41.059087935570446,
      "longitude": 28.864669213583547,
      "dutyStart": "2026-02-23T21:00:00.000Z",
      "dutyEnd": "2026-02-24T20:59:59.000Z"
    },
    {
      "id": "istanbul-16742",
      "name": "ÖZLEM KOÇAK ECZANESİ",
      "address": "Petroliş Mahallesi, Rahvanlar Caddesi, 44/A",
      "phone": "+902165179844",
      "district": "KARTAL",
      "city": "İstanbul",
      "latitude": 40.898459480555715,
      "longitude": 29.178096502305067,
      "dutyStart": "2026-02-23T21:00:00.000Z",
      "dutyEnd": "2026-02-24T20:59:59.000Z"
    },
    {
      "id": "istanbul-19358",
      "name": "İLKAY ECZANESİ",
      "address": "Barbaros Hayrettinpaşa Mahallesi, Erhan Çavuşoğlu Caddesi, 23/A",
      "phone": "+902126181889",
      "district": "GAZİOSMANPAŞA",
      "city": "İstanbul",
      "latitude": 41.073862200730815,
      "longitude": 28.888416034341592,
      "dutyStart": "2026-02-23T21:00:00.000Z",
      "dutyEnd": "2026-02-24T20:59:59.000Z"
    },
    {
      "id": "istanbul-24656",
      "name": "İNCİ ECZANESİ",
      "address": "Yenidoğan Mahallesi, Özgür Sokak, 32/A",
      "phone": "+902126745560",
      "district": "BAYRAMPAŞA",
      "city": "İstanbul",
      "latitude": 41.03589107420436,
      "longitude": 28.914819791996948,
      "dutyStart": "2026-02-23T21:00:00.000Z",
      "dutyEnd": "2026-02-24T20:59:59.000Z"
    },
    {
      "id": "istanbul-34780",
      "name": "İREM UÇAK ECZANESİ ",
      "address": "Fevzi Çakmak Mahallesi, Fevzi Çakmak Caddesi, No:11/E",
      "phone": "+905444871357",
      "district": "KÜÇÜKÇEKMECE",
      "city": "İstanbul",
      "latitude": 41.013391630502696,
      "longitude": 28.78750145507948,
      "dutyStart": "2026-02-23T21:00:00.000Z",
      "dutyEnd": "2026-02-24T20:59:59.000Z"
    }
  ]
}