{
  "city": "kocaeli",
  "cityName": "Kocaeli",
  "cityId": 41,
  "date": "2026-02-24",
  "updatedAt": "2026-02-24T16:30:59.813Z",
  "count": 23,
  "pharmacies": [
    {
      "id": "kocaeli-0",
      "name": "NESRİN ECZANESİ",
      "address": "ÖMERAĞA MAH.ALEMDAR CAD. NO:11 İZMİT",
      "phone": "02623212942",
      "district": "İzmit",
      "city": "Kocaeli",
      "latitude": 40.762658,
      "longitude": 29.928566,
      "dutyStart": "2026-02-24T08:30:00.000Z",
      "dutyEnd": "2026-02-25T08:30:00.000Z"
    },
    {
      "id": "kocaeli-1",
      "name": "SU ECZANESİ",
      "address": "YAHYAKAPTAN MAH. BESTEKAR AMİR ATEŞ CAD. NO:29/B",
      "phone": "02622268998",
      "district": "İzmit",
      "city": "Kocaeli",
      "latitude": 40.771232,
      "longitude": 29.978689,
      "dutyStart": "2026-02-24T08:30:00.000Z",
      "dutyEnd": "2026-02-25T08:30:00.000Z"
    },
    {
      "id": "kocaeli-2",
      "name": "AYDIN ECZANESİ",
      "address": "YENIDOGAN MAH. HASTANE YOLU CAD. NO:11/B İZMİT",
      "phone": "02623222651",
      "district": "İzmit",
      "city": "Kocaeli",
      "latitude": 40.764454,
      "longitude": 29.899245,
      "dutyStart": "2026-02-24T08:30:00.000Z",
      "dutyEnd": "2026-02-25T08:30:00.000Z"
    },
    {
      "id": "kocaeli-3",
      "name": "YEŞİLOVA CADDE ECZANESİ",
      "address": "YEŞİLOVA MAH.TURAN GÜNEŞ CAD.NO:689/2A",
      "phone": "02625714155",
      "district": "İzmit",
      "city": "Kocaeli",
      "latitude": 40.787541,
      "longitude": 29.971781,
      "dutyStart": "2026-02-24T08:30:00.000Z",
      "dutyEnd": "2026-02-25T08:30:00.000Z"
    },
    {
      "id": "kocaeli-4",
      "name": "GİZEM ECZANESİ",
      "address": "BARBAROS MAH. İMAR SOK. NO:7/A BAŞİSKELE",
      "phone": "02623433577",
      "district": "Başiskele",
      "city": "Kocaeli",
      "latitude": 40.710676,
      "longitude": 29.933903,
      "dutyStart": "2026-02-24T08:30:00.000Z",
      "dutyEnd": "2026-02-25T08:30:00.000Z"
    },
    {
      "id": "kocaeli-5",
      "name": "ÜSTÜNTAŞ ECZANESİ",
      "address": "ÖZGÜRLÜK MAH.ADNAN KAHVECİ CAD.NO:36/C ÇAYIROVA",
      "phone": "05459107855",
      "district": "Çayırova",
      "city": "Kocaeli",
      "latitude": 40.829368,
      "longitude": 29.377858,
      "dutyStart": "2026-02-24T08:30:00.000Z",
      "dutyEnd": "2026-02-25T08:30:00.000Z"
    },
    {
      "id": "kocaeli-6",
      "name": "KÜBRA ECZANESİ",
      "address": "AKSE MAH. MUAMMER AKSOY CAD. NO:211/A ÇAYIROVA",
      "phone": "05396906454",
      "district": "Çayırova",
      "city": "Kocaeli",
      "latitude": 40.828112,
      "longitude": 29.39506,
      "dutyStart": "2026-02-24T08:30:00.000Z",
      "dutyEnd": "2026-02-25T08:30:00.000Z"
    },
    {
      "id": "kocaeli-7",
      "name": "DENİZ ECZANESİ",
      "address": "BAYRAMOĞLU MAH.FATİH SULTAN MEHMET CAD.KEFELİ İŞ MERKEZİ NO:292/E",
      "phone": "02626564109",
      "district": "Darıca",
      "city": "Kocaeli",
      "latitude": 40.788158,
      "longitude": 29.345293,
      "dutyStart": "2026-02-24T08:30:00.000Z",
      "dutyEnd": "2026-02-25T08:30:00.000Z"
    },
    {
      "id": "kocaeli-8",
      "name": "GÖKER ECZANESİ",
      "address": "A.IPEKÇI MAH.BATTAL GAZI CD.NO:224/C DARICA",
      "phone": "02626551505",
      "district": "Dilovası",
      "city": "Kocaeli",
      "latitude": 40.785211,
      "longitude": 29.402797,
      "dutyStart": "2026-02-24T08:30:00.000Z",
      "dutyEnd": "2026-02-25T08:30:00.000Z"
    },
    {
      "id": "kocaeli-9",
      "name": "AKIN ECZANESİ",
      "address": "ORHANGAZİ MAH.BAĞDAT CAD.NO:167/B",
      "phone": "02627542422",
      "district": "Kartepe",
      "city": "Kocaeli",
      "latitude": 40.785326,
      "longitude": 29.545643,
      "dutyStart": "2026-02-24T08:30:00.000Z",
      "dutyEnd": "2026-02-25T08:30:00.000Z"
    },
    {
      "id": "kocaeli-10",
      "name": "PAPATYA ECZANESİ",
      "address": "KÖSEKÖY MAH.TERZİ GÖLÜ CAD.NO:13/A",
      "phone": "05447146141",
      "district": "Gebze",
      "city": "Kocaeli",
      "latitude": 40.738226,
      "longitude": 30.006217,
      "dutyStart": "2026-02-24T08:30:00.000Z",
      "dutyEnd": "2026-02-25T08:30:00.000Z"
    },
    {
      "id": "kocaeli-11",
      "name": "İLKER ECZANESİ",
      "address": "GÜZELLER MAH. YENI BAGDAT CAD. NO:625/D GEBZE",
      "phone": "02626426428",
      "district": "Gebze",
      "city": "Kocaeli",
      "latitude": 40.80162,
      "longitude": 29.435612,
      "dutyStart": "2026-02-24T08:30:00.000Z",
      "dutyEnd": "2026-02-25T08:30:00.000Z"
    },
    {
      "id": "kocaeli-12",
      "name": "MEVSİM ECZANESİ",
      "address": "ARAPÇEŞME MAH. KAVAK CAD. NO:18/C GEBZE",
      "phone": "02626438623",
      "district": "Gebze",
      "city": "Kocaeli",
      "latitude": 40.804758,
      "longitude": 29.440745,
      "dutyStart": "2026-02-24T08:30:00.000Z",
      "dutyEnd": "2026-02-25T08:30:00.000Z"
    },
    {
      "id": "kocaeli-13",
      "name": "GEBZE ECE ECZANESİ",
      "address": "OSMAN YILMAZ MAH. 626. SOK. NO:3/B GEBZE",
      "phone": "02626410035",
      "district": "Gölcük",
      "city": "Kocaeli",
      "latitude": 40.791049,
      "longitude": 29.418486,
      "dutyStart": "2026-02-24T08:30:00.000Z",
      "dutyEnd": "2026-02-25T08:30:00.000Z"
    },
    {
      "id": "kocaeli-14",
      "name": "PARK ECZANESİ",
      "address": "MERKEZ MAH. DONANMA CAD. 61/F GÖLCÜK",
      "phone": "02624132888",
      "district": "Gebze",
      "city": "Kocaeli",
      "latitude": 40.717883,
      "longitude": 29.81548,
      "dutyStart": "2026-02-24T08:30:00.000Z",
      "dutyEnd": "2026-02-25T08:30:00.000Z"
    },
    {
      "id": "kocaeli-15",
      "name": "UMUT ECZANESİ",
      "address": "ULUS MAH.YAŞAR DOĞU CAD.NO:126/D GEBZE",
      "phone": "02627421439",
      "district": "Gölcük",
      "city": "Kocaeli",
      "latitude": 40.804214,
      "longitude": 29.390633,
      "dutyStart": "2026-02-24T08:30:00.000Z",
      "dutyEnd": "2026-02-25T08:30:00.000Z"
    },
    {
      "id": "kocaeli-16",
      "name": "SEÇİL ECZANESİ",
      "address": "ATATÜRK MAH.3037.SOK. 5/B GÖLCÜK",
      "phone": "02624264500",
      "district": "Gölcük",
      "city": "Kocaeli",
      "latitude": 40.717677,
      "longitude": 29.785561,
      "dutyStart": "2026-02-24T08:30:00.000Z",
      "dutyEnd": "2026-02-25T08:30:00.000Z"
    },
    {
      "id": "kocaeli-17",
      "name": "İHSANİYE ECZANESİ",
      "address": "İHSANİYE MERKEZ MAH. BEYOĞLU CAD. NO: 36/A GÖLCÜK",
      "phone": "02624357570",
      "district": "Kandıra",
      "city": "Kocaeli",
      "latitude": 40.690477,
      "longitude": 29.831367,
      "dutyStart": "2026-02-24T08:30:00.000Z",
      "dutyEnd": "2026-02-25T08:30:00.000Z"
    },
    {
      "id": "kocaeli-18",
      "name": "GEBEŞ ECZANESİ",
      "address": "AYDINLIK MAH. SEZENLER CAD. NO:1/A KANDIRA",
      "phone": "02625514396",
      "district": "Karamürsel",
      "city": "Kocaeli",
      "latitude": 41.070629,
      "longitude": 30.152816,
      "dutyStart": "2026-02-24T08:30:00.000Z",
      "dutyEnd": "2026-02-25T08:30:00.000Z"
    },
    {
      "id": "kocaeli-19",
      "name": "ERTUĞRUL ECZANESİ",
      "address": "KAYACIK MAH.220.CAD.NO:58/A KARAMÜRSEL",
      "phone": "02624521516",
      "district": "Körfez",
      "city": "Kocaeli",
      "latitude": 40.685262,
      "longitude": 29.587376,
      "dutyStart": "2026-02-24T08:30:00.000Z",
      "dutyEnd": "2026-02-25T08:30:00.000Z"
    },
    {
      "id": "kocaeli-20",
      "name": "DEMET ECZANESİ",
      "address": "GÜNEY MAH. ALBAY SOK. NO:6/B-C-D KÖRFEZ",
      "phone": "02625266100",
      "district": "Körfez",
      "city": "Kocaeli",
      "latitude": 40.760275,
      "longitude": 29.787494,
      "dutyStart": "2026-02-24T08:30:00.000Z",
      "dutyEnd": "2026-02-25T08:30:00.000Z"
    },
    {
      "id": "kocaeli-21",
      "name": "KOÇER ECZANESİ",
      "address": "MİMAR SİNAN MAH.SİTE SOK.BEYZA APT.NO:17/A",
      "phone": "05053994138",
      "district": "Derince",
      "city": "Kocaeli",
      "latitude": 40.771329,
      "longitude": 29.752012,
      "dutyStart": "2026-02-24T08:30:00.000Z",
      "dutyEnd": "2026-02-25T08:30:00.000Z"
    },
    {
      "id": "kocaeli-22",
      "name": "SERPİL ECZANESİ",
      "address": "ÇENEDAĞ MAH. DENİZCİLER CAD. NO:18/1A DERİNCE",
      "phone": "02622396969",
      "district": "İzmit",
      "city": "Kocaeli",
      "latitude": 40.757749,
      "longitude": 29.837123,
      "dutyStart": "2026-02-24T08:30:00.000Z",
      "dutyEnd": "2026-02-25T08:30:00.000Z"
    }
  ]
}