{
  "city": "mersin",
  "cityName": "Mersin",
  "cityId": 33,
  "date": "2026-02-24",
  "updatedAt": "2026-02-24T13:00:29.318Z",
  "count": 23,
  "pharmacies": [
    {
      "id": "mersin-0",
      "name": "AYDOĞAN ECZANESİ",
      "address": "KÜLTÜR MH. 4312 SK. NO:12/A",
      "phone": "03242374444",
      "district": "Akdeni̇z",
      "city": "Mersin",
      "latitude": 36.792275,
      "longitude": 34.621779,
      "dutyStart": "2026-02-24T08:30:00.000Z",
      "dutyEnd": "2026-02-25T08:30:00.000Z"
    },
    {
      "id": "mersin-1",
      "name": "AYSUN ECZANESİ",
      "address": "GAZI MAH.1304 SOK.İNCİ SİTESİ.NO:12/C",
      "phone": "03243270492",
      "district": "Yeni̇şehi̇r",
      "city": "Mersin",
      "latitude": 36.783526,
      "longitude": 34.603848,
      "dutyStart": "2026-02-24T08:30:00.000Z",
      "dutyEnd": "2026-02-25T08:30:00.000Z"
    },
    {
      "id": "mersin-2",
      "name": "BUKET ECZANESİ",
      "address": "YENİ MAH. 5314 SOK. NO:4",
      "phone": "03243366620",
      "district": "Akdeni̇z",
      "city": "Mersin",
      "latitude": 36.80653,
      "longitude": 34.635763,
      "dutyStart": "2026-02-24T08:30:00.000Z",
      "dutyEnd": "2026-02-25T08:30:00.000Z"
    },
    {
      "id": "mersin-3",
      "name": "DAMLA ECZANESİ",
      "address": "CAMISERIF MAH.170.CAD. CEMALPASA CAD. NO.93/C",
      "phone": "03242393722",
      "district": "Akdeni̇z",
      "city": "Mersin",
      "latitude": 36.801129,
      "longitude": 34.627082,
      "dutyStart": "2026-02-24T08:30:00.000Z",
      "dutyEnd": "2026-02-25T08:30:00.000Z"
    },
    {
      "id": "mersin-4",
      "name": "FARUK ECZANESİ",
      "address": "ATATÜRK MH. HAL CD. NO:3/B",
      "phone": "05352567312",
      "district": "Mezi̇tli̇",
      "city": "Mersin",
      "latitude": 36.759218,
      "longitude": 34.543361,
      "dutyStart": "2026-02-24T08:30:00.000Z",
      "dutyEnd": "2026-02-25T08:30:00.000Z"
    },
    {
      "id": "mersin-5",
      "name": "GÜNEY ECZANESİ",
      "address": "ÇİFTLİKKÖY MH. 32133 SK. NO:6/B",
      "phone": "03245023377",
      "district": "Yeni̇şehi̇r",
      "city": "Mersin",
      "latitude": 36.779199,
      "longitude": 34.538747,
      "dutyStart": "2026-02-24T08:30:00.000Z",
      "dutyEnd": "2026-02-25T08:30:00.000Z"
    },
    {
      "id": "mersin-6",
      "name": "İLKERDEM ECZANESİ",
      "address": "MENDERES MH. CEVAT KUTLU CD. 35415 SK. NO:29/B",
      "phone": "03243583818",
      "district": "Mezi̇tli̇",
      "city": "Mersin",
      "latitude": 36.740956,
      "longitude": 34.525735,
      "dutyStart": "2026-02-24T08:30:00.000Z",
      "dutyEnd": "2026-02-25T08:30:00.000Z"
    },
    {
      "id": "mersin-7",
      "name": "KOÇOĞLU ECZANESİ",
      "address": "BAĞCILAR MH.ATATÜRK CD.NO:136/A",
      "phone": "03242293733",
      "district": "Toroslar",
      "city": "Mersin",
      "latitude": 36.861408,
      "longitude": 34.62905,
      "dutyStart": "2026-02-24T08:30:00.000Z",
      "dutyEnd": "2026-02-25T08:30:00.000Z"
    },
    {
      "id": "mersin-8",
      "name": "SUNE ECZANESİ",
      "address": "BARBAROS MH. 2121 SK. No: 4A",
      "phone": "03243255740",
      "district": "Yeni̇şehi̇r",
      "city": "Mersin",
      "latitude": 36.779184,
      "longitude": 34.574557,
      "dutyStart": "2026-02-24T08:30:00.000Z",
      "dutyEnd": "2026-02-25T08:30:00.000Z"
    },
    {
      "id": "mersin-9",
      "name": "ŞENGÜL ECZANESİ",
      "address": "Zeki Ayan Mah. H. Okan Merzeci Bulv. No:351/1C (21)",
      "phone": "03243213879",
      "district": "Toroslar",
      "city": "Mersin",
      "latitude": 36.818462,
      "longitude": 34.608551,
      "dutyStart": "2026-02-24T08:30:00.000Z",
      "dutyEnd": "2026-02-25T08:30:00.000Z"
    },
    {
      "id": "mersin-10",
      "name": "SAHARA ECZANESİ",
      "address": "82 EVLER MAH. İBNİ SİNA BULV. NO:10/C",
      "phone": "03246143149",
      "district": "Tarsus",
      "city": "Mersin",
      "latitude": 36.915709,
      "longitude": 34.915112,
      "dutyStart": "2026-02-24T08:30:00.000Z",
      "dutyEnd": "2026-02-25T08:30:00.000Z"
    },
    {
      "id": "mersin-11",
      "name": "SEVEN ECZANESİ",
      "address": "FAHRETTİNPAŞA MH. 1427 SK. NO:10A",
      "phone": "03246222110",
      "district": "Tarsus",
      "city": "Mersin",
      "latitude": 36.940389,
      "longitude": 34.897912,
      "dutyStart": "2026-02-24T08:30:00.000Z",
      "dutyEnd": "2026-02-25T08:30:00.000Z"
    },
    {
      "id": "mersin-12",
      "name": "SÖYLEMEZOĞLU ECZANESİ",
      "address": "KIRKLARSIRTI MH. CELAL BAYAR CD. NO:41",
      "phone": "03246260010",
      "district": "Tarsus",
      "city": "Mersin",
      "latitude": 36.9416,
      "longitude": 34.872842,
      "dutyStart": "2026-02-24T08:30:00.000Z",
      "dutyEnd": "2026-02-25T08:30:00.000Z"
    },
    {
      "id": "mersin-13",
      "name": "YENİ NOKAY ECZANESİ",
      "address": "ÖĞRETMENLER MH. RASİM DOKUR BULV. NO:2/C",
      "phone": "03246137373",
      "district": "Tarsus",
      "city": "Mersin",
      "latitude": 36.916233,
      "longitude": 34.884156,
      "dutyStart": "2026-02-24T08:30:00.000Z",
      "dutyEnd": "2026-02-25T08:30:00.000Z"
    },
    {
      "id": "mersin-14",
      "name": "ERDAL ECZANESİ",
      "address": "TAŞUCU MAH.7 SOKAK NO:18/A",
      "phone": "03247412997",
      "district": "Si̇li̇fke",
      "city": "Mersin",
      "latitude": 36.319542,
      "longitude": 33.875585,
      "dutyStart": "2026-02-24T08:30:00.000Z",
      "dutyEnd": "2026-02-25T08:30:00.000Z"
    },
    {
      "id": "mersin-15",
      "name": "TUTKU ECZANESİ",
      "address": "GÖKSU MH. ATATÜRK BULV. NO:53B",
      "phone": "03247142756",
      "district": "Si̇li̇fke",
      "city": "Mersin",
      "latitude": 36.380101,
      "longitude": 33.931444,
      "dutyStart": "2026-02-24T08:30:00.000Z",
      "dutyEnd": "2026-02-25T08:30:00.000Z"
    },
    {
      "id": "mersin-16",
      "name": "BEYZA ECZANESİ",
      "address": "YATIRTAŞ MH. UĞUR MUMCU CD. NO:15A",
      "phone": "03247741011",
      "district": "Mut",
      "city": "Mersin",
      "latitude": 36.640361,
      "longitude": 33.433264,
      "dutyStart": "2026-02-24T08:30:00.000Z",
      "dutyEnd": "2026-02-25T08:30:00.000Z"
    },
    {
      "id": "mersin-17",
      "name": "GÜLNAR ECZANESİ",
      "address": "AKDENİZ MH. KÖY HİZMETLERİ SK. NO:1C",
      "phone": "03247517007",
      "district": "Gülnar",
      "city": "Mersin",
      "latitude": 36.323313,
      "longitude": 33.411885,
      "dutyStart": "2026-02-24T08:30:00.000Z",
      "dutyEnd": "2026-02-25T08:30:00.000Z"
    },
    {
      "id": "mersin-18",
      "name": "MEYRA ECZANESİ",
      "address": "AKDENİZ MH. YUNUS EMRE CD. NO:43/A",
      "phone": "03245154004",
      "district": "Erdemli̇",
      "city": "Mersin",
      "latitude": 36.602115,
      "longitude": 34.301734,
      "dutyStart": "2026-02-24T08:30:00.000Z",
      "dutyEnd": "2026-02-25T08:30:00.000Z"
    },
    {
      "id": "mersin-19",
      "name": "MURAT ECZANESİ",
      "address": "MERKEZ MH. KAZIM KARABEKİR_1 CAD. NO:72/B",
      "phone": "03245772254",
      "district": "Erdemli̇",
      "city": "Mersin",
      "latitude": 36.609743,
      "longitude": 34.303401,
      "dutyStart": "2026-02-24T08:30:00.000Z",
      "dutyEnd": "2026-02-25T08:30:00.000Z"
    },
    {
      "id": "mersin-20",
      "name": "GÜLER ECZANESİ",
      "address": "MERKEZ MAH. SAĞLIK SOK. NO:10/10-B",
      "phone": "03248515090",
      "district": "Bozyazi",
      "city": "Mersin",
      "latitude": 36.106234,
      "longitude": 32.970486,
      "dutyStart": "2026-02-24T08:30:00.000Z",
      "dutyEnd": "2026-02-25T08:30:00.000Z"
    },
    {
      "id": "mersin-21",
      "name": "AYDINCIK ECZANESİ",
      "address": "CUMHURİYET MH. HASTANE CD. NO:7/A",
      "phone": "03248414112",
      "district": "Aydincik",
      "city": "Mersin",
      "latitude": 36.152857,
      "longitude": 33.339241,
      "dutyStart": "2026-02-24T08:30:00.000Z",
      "dutyEnd": "2026-02-25T08:30:00.000Z"
    },
    {
      "id": "mersin-22",
      "name": "EVİN ECZANESİ",
      "address": "TOKI TICARET MERKEZI NO:5 ÖREN BELDESI",
      "phone": "03248355002",
      "district": "Anamur",
      "city": "Mersin",
      "latitude": 36.040138,
      "longitude": 32.799277,
      "dutyStart": "2026-02-24T08:30:00.000Z",
      "dutyEnd": "2026-02-25T08:30:00.000Z"
    }
  ]
}