{
  "city": "samsun",
  "cityName": "Samsun",
  "cityId": 55,
  "date": "2026-02-24",
  "updatedAt": "2026-02-24T04:00:31.188Z",
  "count": 20,
  "pharmacies": [
    {
      "id": "samsun-0",
      "name": "YENİDOĞAN ECZANESİ",
      "address": "YENİDOĞAN MAH. ATLAS SOK. NO:25/1",
      "phone": "03622337684",
      "district": "İlkadım",
      "city": "Samsun",
      "latitude": 41.280511,
      "longitude": 36.333179,
      "dutyStart": "2026-02-24T08:30:00.000Z",
      "dutyEnd": "2026-02-25T08:30:00.000Z"
    },
    {
      "id": "samsun-1",
      "name": "MERT ECZANESİ",
      "address": "ÇATALARMUT MAH. 30 AĞUSTOS CAD. NO:201/1",
      "phone": "03624316263",
      "district": "İlkadım",
      "city": "Samsun",
      "latitude": 41.290067,
      "longitude": 36.310304,
      "dutyStart": "2026-02-24T08:30:00.000Z",
      "dutyEnd": "2026-02-25T08:30:00.000Z"
    },
    {
      "id": "samsun-2",
      "name": "BEYZADE ECZANESİ",
      "address": "İSTASYON MAH. CUMHURİYET CAD. NO:128/A-12",
      "phone": "03624310160",
      "district": "İlkadım",
      "city": "Samsun",
      "latitude": 41.28427,
      "longitude": 36.342355,
      "dutyStart": "2026-02-24T08:30:00.000Z",
      "dutyEnd": "2026-02-25T08:30:00.000Z"
    },
    {
      "id": "samsun-3",
      "name": "TURGUT ECZANESİ",
      "address": "ULUDAG MAHALLESI OK SOKAK NO:3/1",
      "phone": "03622382200",
      "district": "Canik",
      "city": "Samsun",
      "latitude": 41.267175,
      "longitude": 36.365994,
      "dutyStart": "2026-02-24T08:30:00.000Z",
      "dutyEnd": "2026-02-25T08:30:00.000Z"
    },
    {
      "id": "samsun-4",
      "name": "EYLÜL ECZANESİ",
      "address": "MİMARSİNAN MAH. 178.SOKAK NO:12/1-B",
      "phone": "03624390056",
      "district": "Atakum",
      "city": "Samsun",
      "latitude": 41.328494,
      "longitude": 36.274973,
      "dutyStart": "2026-02-24T08:30:00.000Z",
      "dutyEnd": "2026-02-25T08:30:00.000Z"
    },
    {
      "id": "samsun-5",
      "name": "PELİTKÖY İPEK ECZANESİ",
      "address": "BÜYÜKOYUMCA MAH. ŞENTEPE CAD. NO:82/A",
      "phone": "03624590999",
      "district": "Atakum",
      "city": "Samsun",
      "latitude": 41.355528,
      "longitude": 36.205356,
      "dutyStart": "2026-02-24T08:30:00.000Z",
      "dutyEnd": "2026-02-25T08:30:00.000Z"
    },
    {
      "id": "samsun-6",
      "name": "ALPER ECZANESİ",
      "address": "HÜRRİYET MAH. ŞEYH YUSUF ZEYNETTİN CAD. NO:98",
      "phone": "03622564241",
      "district": "Tekkeköy",
      "city": "Samsun",
      "latitude": 41.214703,
      "longitude": 36.456238,
      "dutyStart": "2026-02-24T08:30:00.000Z",
      "dutyEnd": "2026-02-25T08:30:00.000Z"
    },
    {
      "id": "samsun-7",
      "name": "BAYRAK ECZANESİ",
      "address": "YENİ CAMİ MAH. LİSE CAD. NO:53/A",
      "phone": "03626220199",
      "district": "Alaçam",
      "city": "Samsun",
      "latitude": 41.611061,
      "longitude": 35.600234,
      "dutyStart": "2026-02-24T08:30:00.000Z",
      "dutyEnd": "2026-02-25T08:30:00.000Z"
    },
    {
      "id": "samsun-8",
      "name": "ASARCIK ECZANESİ",
      "address": "CUMHURİYET MEYDANI. NO:38/B",
      "phone": "03627912784",
      "district": "Asarcık",
      "city": "Samsun",
      "latitude": 41.036208,
      "longitude": 36.234064,
      "dutyStart": "2026-02-24T08:30:00.000Z",
      "dutyEnd": "2026-02-25T08:30:00.000Z"
    },
    {
      "id": "samsun-9",
      "name": "YAŞAM ECZANESİ",
      "address": "EYUP SULTAN MAH. MUSTAFA GÜLER SOK. NO.6",
      "phone": "03628132050",
      "district": "Ayvacık",
      "city": "Samsun",
      "latitude": 41.002525,
      "longitude": 36.62958,
      "dutyStart": "2026-02-24T08:30:00.000Z",
      "dutyEnd": "2026-02-25T08:30:00.000Z"
    },
    {
      "id": "samsun-10",
      "name": "AKGENÇ ECZANESİ",
      "address": "İSMET PAŞA MAH. HASTANE SOK.NO:32",
      "phone": "03625438289",
      "district": "Bafra",
      "city": "Samsun",
      "latitude": 41.562479,
      "longitude": 35.914327,
      "dutyStart": "2026-02-24T08:30:00.000Z",
      "dutyEnd": "2026-02-25T08:30:00.000Z"
    },
    {
      "id": "samsun-11",
      "name": "HELVACALI ECZANESİ",
      "address": "HELVACALI MAH. 6000.SOK. NO:8/H",
      "phone": "03628331213",
      "district": "Çarşamba",
      "city": "Samsun",
      "latitude": 41.209911,
      "longitude": 36.74944,
      "dutyStart": "2026-02-24T08:30:00.000Z",
      "dutyEnd": "2026-02-25T08:30:00.000Z"
    },
    {
      "id": "samsun-12",
      "name": "OYA ECZANESİ",
      "address": "MEMDUHİYE MAH. HIZIR REİS SOK.NO:2 İÇ KAPI:3",
      "phone": "03627147711",
      "district": "Havza",
      "city": "Samsun",
      "latitude": 40.96172,
      "longitude": 35.671947,
      "dutyStart": "2026-02-24T08:30:00.000Z",
      "dutyEnd": "2026-02-25T08:30:00.000Z"
    },
    {
      "id": "samsun-13",
      "name": "ERTUĞRUL  ECZANESİ",
      "address": "YAŞARDOĞU MAH. ADNAN MENDERES CAD. NO:104/2",
      "phone": "03627415055",
      "district": "Kavak",
      "city": "Samsun",
      "latitude": 41.073138,
      "longitude": 36.034277,
      "dutyStart": "2026-02-24T08:30:00.000Z",
      "dutyEnd": "2026-02-25T08:30:00.000Z"
    },
    {
      "id": "samsun-14",
      "name": "LADİK MUTLU ECZANESİ",
      "address": "BAHŞİ MAH. GAZİLER CAD.NO:36/C",
      "phone": "03627714534",
      "district": "Ladik",
      "city": "Samsun",
      "latitude": 40.909756,
      "longitude": 35.894448,
      "dutyStart": "2026-02-24T08:30:00.000Z",
      "dutyEnd": "2026-02-25T08:30:00.000Z"
    },
    {
      "id": "samsun-15",
      "name": "EROĞLU ECZANESİ",
      "address": "PAZAR MAH. FATİH BULV. NO:38/1",
      "phone": "03625113852",
      "district": "Ondokuzmayıs",
      "city": "Samsun",
      "latitude": 41.492818,
      "longitude": 36.074411,
      "dutyStart": "2026-02-24T08:30:00.000Z",
      "dutyEnd": "2026-02-25T08:30:00.000Z"
    },
    {
      "id": "samsun-16",
      "name": "SAĞLIK  ECZANESİ",
      "address": "GÖKÇELİ MAH. ŞEHİT HÜSEYİN ATASEVEN CAD. NO:6/A",
      "phone": "03628213233",
      "district": "Salıpazarı",
      "city": "Samsun",
      "latitude": 41.081484,
      "longitude": 36.827518,
      "dutyStart": "2026-02-24T08:30:00.000Z",
      "dutyEnd": "2026-02-25T08:30:00.000Z"
    },
    {
      "id": "samsun-17",
      "name": "GÜMÜŞ ECZANESİ",
      "address": "FENK MAH. LİSE CAD. NO:6",
      "phone": "03628765390",
      "district": "Terme",
      "city": "Samsun",
      "latitude": 41.209305,
      "longitude": 36.972763,
      "dutyStart": "2026-02-24T08:30:00.000Z",
      "dutyEnd": "2026-02-25T08:30:00.000Z"
    },
    {
      "id": "samsun-18",
      "name": "DOĞAN ECZANESİ",
      "address": "MEHMET PAŞA MAH. ORG.FARUK CÖMERT CAD. NO:5",
      "phone": "03626473807",
      "district": "Vezirköprü",
      "city": "Samsun",
      "latitude": 41.142904,
      "longitude": 35.457487,
      "dutyStart": "2026-02-24T08:30:00.000Z",
      "dutyEnd": "2026-02-25T08:30:00.000Z"
    },
    {
      "id": "samsun-25",
      "name": "YAŞAM  ECZANESİ",
      "address": "GÜZELYURT MAH.OSMAN GAZİ SOK.NO.3/A",
      "phone": "03686712276",
      "district": "Türkeli",
      "city": "Samsun",
      "latitude": 41.946452,
      "longitude": 34.337364,
      "dutyStart": "2026-02-24T08:30:00.000Z",
      "dutyEnd": "2026-02-25T08:30:00.000Z"
    }
  ]
}