{
  "city": "sinop",
  "cityName": "Sinop",
  "cityId": 57,
  "date": "2026-02-24",
  "updatedAt": "2026-02-23T21:30:37.232Z",
  "count": 6,
  "pharmacies": [
    {
      "id": "sinop-19",
      "name": "YASEMİN ECZANESİ",
      "address": "GELİNCİK MAH. FATİH CAD. NO:23/B",
      "phone": "03682618709",
      "district": "Merkez",
      "city": "Sinop",
      "latitude": 42.022948,
      "longitude": 35.137876,
      "dutyStart": "2026-02-23T08:30:00.000Z",
      "dutyEnd": "2026-02-24T08:30:00.000Z"
    },
    {
      "id": "sinop-20",
      "name": "YÜKSEL  ECZANESİ",
      "address": "YALI MAH.ATATÜRK CAD.NO:26/A",
      "phone": "03686131631",
      "district": "Ayancık",
      "city": "Sinop",
      "latitude": 41.9434,
      "longitude": 34.588255,
      "dutyStart": "2026-02-23T08:30:00.000Z",
      "dutyEnd": "2026-02-24T08:30:00.000Z"
    },
    {
      "id": "sinop-21",
      "name": "SELVER ECZANESİ",
      "address": "ZİNCİRLİKUYU MAH. ADNAN MENDERES BLV. NO:16/B",
      "phone": "03683152857",
      "district": "Boyabat",
      "city": "Sinop",
      "latitude": 41.467482,
      "longitude": 34.768556,
      "dutyStart": "2026-02-23T08:30:00.000Z",
      "dutyEnd": "2026-02-24T08:30:00.000Z"
    },
    {
      "id": "sinop-22",
      "name": "TEK ECZANESİ",
      "address": "MERKEZ MAH. YUSUF KEMAL TENGİRŞEK CAD. NO:28/A",
      "phone": "03684161152",
      "district": "Durağan",
      "city": "Sinop",
      "latitude": 41.419541,
      "longitude": 35.053398,
      "dutyStart": "2026-02-23T08:30:00.000Z",
      "dutyEnd": "2026-02-24T08:30:00.000Z"
    },
    {
      "id": "sinop-23",
      "name": "ŞİFA ECZANESİ",
      "address": "MERKEZ MAH. CUMHURİYET CAD. NO:2",
      "phone": "03685112115",
      "district": "Erfelek",
      "city": "Sinop",
      "latitude": 41.879563,
      "longitude": 34.907843,
      "dutyStart": "2026-02-23T08:30:00.000Z",
      "dutyEnd": "2026-02-24T08:30:00.000Z"
    },
    {
      "id": "sinop-24",
      "name": "SERAY ECZANESİ",
      "address": "ÇARŞI MAH. CUMHURİYET MEYDANINO:1/A",
      "phone": "03687182020",
      "district": "Gerze",
      "city": "Sinop",
      "latitude": 41.802629,
      "longitude": 35.198403,
      "dutyStart": "2026-02-23T08:30:00.000Z",
      "dutyEnd": "2026-02-24T08:30:00.000Z"
    }
  ]
}